---
cities:
- country: US
  region: PA
  name: Aaronsburg
  lat: '40.9042'
  long: "-77.4513"
  nearby_rate_centers:
  - name: MILLHEIM
    distance_km: 2.27
  - name: SPRING ML
    distance_km: 12.05
  - name: LOGANTON
    distance_km: 19.38
- country: US
  region: PA
  name: Abbottstown
  lat: '39.8843'
  long: "-76.9888"
  nearby_rate_centers:
  - name: NEW OXFORD
    distance_km: 6.19
  - name: EASTBERLIN
    distance_km: 6.38
  - name: HANOVER
    distance_km: 9.03
- country: US
  region: PA
  name: Ackermanville
  lat: '40.8350'
  long: "-75.2227"
  nearby_rate_centers:
  - name: BANGOR
    distance_km: 3.97
  - name: PEN ARGYL
    distance_km: 4.69
  - name: SAYLORSBG
    distance_km: 10.16
- country: US
  region: PA
  name: Adamsburg
  lat: '40.3124'
  long: "-79.6543"
  nearby_rate_centers:
  - name: JEANNETTE
    distance_km: 4.77
  - name: HARRISONCY
    distance_km: 5.07
  - name: PTGSBNZN23
    distance_km: 5.48
- country: US
  region: PA
  name: Adamstown
  lat: '40.2417'
  long: "-76.0608"
  nearby_rate_centers:
  - name: ADAMSTOWN
    distance_km: 0.25
  - name: DENVER
    distance_km: 6.72
  - name: TERRE HILL
    distance_km: 9.57
- country: US
  region: PA
  name: Adamsville
  lat: '41.5111'
  long: "-80.3716"
  nearby_rate_centers:
  - name: JAMESTOWN
    distance_km: 6.7
  - name: WESTFORD
    distance_km: 9.91
  - name: CONNEAUTLK
    distance_km: 11.05
- country: US
  region: PA
  name: Akron
  lat: '40.1580'
  long: "-76.2031"
  nearby_rate_centers:
  - name: AKRON
    distance_km: 0.24
  - name: EPHRATA
    distance_km: 3.03
  - name: LEOLA
    distance_km: 7.42
- country: US
  region: PA
  name: Alba
  lat: '41.7059'
  long: "-76.8277"
  nearby_rate_centers:
  - name: CANTON
    distance_km: 5.4
  - name: TROY
    distance_km: 8.93
  - name: LEROY
    distance_km: 10.4
- country: US
  region: PA
  name: Albion
  lat: '41.8904'
  long: "-80.3641"
  nearby_rate_centers:
  - name: ALBION
    distance_km: 0.32
  - name: WSPRINGFLD
    distance_km: 11.45
  - name: GIRARD
    distance_km: 13.59
- country: US
  region: PA
  name: Albrightsville
  lat: '41.0116'
  long: "-75.6068"
  nearby_rate_centers:
  - name: POCONOLAKE
    distance_km: 15.58
  - name: KRESGEVL
    distance_km: 15.59
  - name: WHITEHAVEN
    distance_km: 15.6
- country: US
  region: PA
  name: Alburtis
  lat: '40.5090'
  long: "-75.6001"
  nearby_rate_centers:
  - name: TOPTON
    distance_km: 8.66
  - name: EMMAUS
    distance_km: 9.51
  - name: BALLY
    distance_km: 12.16
- country: US
  region: PA
  name: Aldan
  lat: '39.9224'
  long: "-75.2881"
  nearby_rate_centers:
  - name: PHPHSBZN17
    distance_km: 2.26
  - name: PHPHSBZN14
    distance_km: 2.78
  - name: PHPHSBZN21
    distance_km: 5.19
- country: US
  region: PA
  name: Alexandria
  lat: '40.5583'
  long: "-78.0997"
  nearby_rate_centers:
  - name: ALEXANDRIA
    distance_km: 0.72
  - name: HUNTINGDON
    distance_km: 11.16
  - name: MCONELLSTN
    distance_km: 11.4
- country: US
  region: PA
  name: Alfarata
  lat: '40.6618'
  long: "-77.4560"
  nearby_rate_centers:
  - name: MIFFLINTN
    distance_km: 10.79
  - name: REEDSVILLE
    distance_km: 11.91
  - name: LEWISTOWN
    distance_km: 12.53
- country: US
  region: PA
  name: Aliquippa
  lat: '40.6155'
  long: "-80.2547"
  nearby_rate_centers:
  - name: ALIQUIPPA
    distance_km: 0.75
  - name: BADEN
    distance_km: 3.28
  - name: AMBRIDGE
    distance_km: 3.77
- country: US
  region: PA
  name: Alleghenyville
  lat: '40.2327'
  long: "-75.9762"
  nearby_rate_centers:
  - name: GREENHILLS
    distance_km: 6.04
  - name: ADAMSTOWN
    distance_km: 7.06
  - name: TERRE HILL
    distance_km: 10.53
- country: US
  region: PA
  name: Allenport
  lat: '40.3686'
  long: "-77.8707"
  nearby_rate_centers:
  - name: MOUNTUNION
    distance_km: 2.43
  - name: ORBISONIA
    distance_km: 14.01
  - name: HUNTINGDON
    distance_km: 17.48
- country: US
  region: PA
  name: Allensville
  lat: '40.5330'
  long: "-77.8142"
  nearby_rate_centers:
  - name: ALLENSVL
    distance_km: 0.25
  - name: MCVEYTOWN
    distance_km: 6.63
  - name: BELLEVILLE
    distance_km: 11.07
- country: US
  region: PA
  name: Allentown
  lat: '40.5961'
  long: "-75.4756"
  nearby_rate_centers:
  - name: ALLENTOWN
    distance_km: 1.09
  - name: CATASAUQUA
    distance_km: 5.85
  - name: EMMAUS
    distance_km: 7.19
- country: US
  region: PA
  name: Allenwood
  lat: '41.1081'
  long: "-76.8981"
  nearby_rate_centers:
  - name: WATSONTOWN
    distance_km: 3.86
  - name: MONTGOMERY
    distance_km: 7.73
  - name: MILTON
    distance_km: 9.75
- country: US
  region: PA
  name: Allison
  lat: '39.9852'
  long: "-79.8732"
  nearby_rate_centers:
  - name: REPUBLIC
    distance_km: 1.86
  - name: BROWNSVL
    distance_km: 3.67
  - name: NEW SALEM
    distance_km: 7.35
- country: US
  region: PA
  name: Allison Park
  lat: '40.5730'
  long: "-79.9603"
  nearby_rate_centers:
  - name: PTGSBNZN18
    distance_km: 4.59
  - name: GIBSONIA
    distance_km: 6.65
  - name: PTGSBNZN17
    distance_km: 7.34
- country: US
  region: PA
  name: Allport
  lat: '40.9660'
  long: "-78.2066"
  nearby_rate_centers:
  - name: WINBURNE
    distance_km: 4.71
  - name: PHILIPSBG
    distance_km: 7.82
  - name: OSCEOLA ML
    distance_km: 13.05
- country: US
  region: PA
  name: Almedia
  lat: '41.0144'
  long: "-76.3850"
  nearby_rate_centers:
  - name: BLOOMSBURG
    distance_km: 6.54
  - name: ORANGEVL
    distance_km: 8.26
  - name: CATAWISSA
    distance_km: 9.56
- country: US
  region: PA
  name: Alsace Manor
  lat: '40.3973'
  long: "-75.8548"
  nearby_rate_centers:
  - name: OLEY
    distance_km: 6.71
  - name: FLEETWOOD
    distance_km: 6.96
  - name: READING
    distance_km: 9.07
- country: US
  region: PA
  name: Altamont
  lat: '40.7850'
  long: "-76.2169"
  nearby_rate_centers:
  - name: FRACKVILLE
    distance_km: 1.6
  - name: SHENANDOAH
    distance_km: 4.63
  - name: GIRARDVL
    distance_km: 5.75
- country: US
  region: PA
  name: Altoona
  lat: '40.5082'
  long: "-78.4007"
  nearby_rate_centers:
  - name: ALTOONA
    distance_km: 0.86
  - name: HOLLIDYSBG
    distance_km: 8.26
  - name: BELLWOOD
    distance_km: 11.55
- country: US
  region: PA
  name: Alverda
  lat: '40.6346'
  long: "-78.8584"
  nearby_rate_centers:
  - name: BARNESBORO
    distance_km: 7.6
  - name: CHERRYTREE
    distance_km: 11.29
  - name: COLVER
    distance_km: 12.28
- country: US
  region: PA
  name: Ambler
  lat: '40.1564'
  long: "-75.2215"
  nearby_rate_centers:
  - name: PHPHSBZN33
    distance_km: 0.64
  - name: PHPHSBZN32
    distance_km: 5.32
  - name: NORTHWALES
    distance_km: 7.41
- country: US
  region: PA
  name: Ambridge
  lat: '40.5921'
  long: "-80.2265"
  nearby_rate_centers:
  - name: AMBRIDGE
    distance_km: 0.24
  - name: ALIQUIPPA
    distance_km: 2.86
  - name: GLENWILLRD
    distance_km: 3.88
- country: US
  region: PA
  name: Amity Gardens
  lat: '40.2718'
  long: "-75.7321"
  nearby_rate_centers:
  - name: DOUGLASSVL
    distance_km: 1.2
  - name: YELLOW HS
    distance_km: 6.17
  - name: BIRDSBORO
    distance_km: 6.33
- country: US
  region: PA
  name: Ancient Oaks
  lat: '40.5360'
  long: "-75.5852"
  nearby_rate_centers:
  - name: EMMAUS
    distance_km: 7.88
  - name: TOPTON
    distance_km: 10.43
  - name: ALLENTOWN
    distance_km: 12.46
- country: US
  region: PA
  name: Apollo
  lat: '40.5848'
  long: "-79.5647"
  nearby_rate_centers:
  - name: APOLLO
    distance_km: 0.37
  - name: VANDERGRFT
    distance_km: 2.15
  - name: LEECHBURG
    distance_km: 5.99
- country: US
  region: PA
  name: Applewold
  lat: '40.8084'
  long: "-79.5221"
  nearby_rate_centers:
  - name: KITTANNING
    distance_km: 0.87
  - name: FORD CITY
    distance_km: 4.53
  - name: WORTHINGTN
    distance_km: 10.14
- country: US
  region: PA
  name: Arcadia University
  lat: '40.0917'
  long: "-75.1652"
  nearby_rate_centers:
  - name: PHPHSBZN34
    distance_km: 3.37
  - name: PHPHSBZN32
    distance_km: 4.05
  - name: PHPHSBZN38
    distance_km: 6.71
- country: US
  region: PA
  name: Archbald
  lat: '41.5077'
  long: "-75.5453"
  nearby_rate_centers:
  - name: JERMYN
    distance_km: 3.11
  - name: OLYPHANT
    distance_km: 4.94
  - name: CHAPMAN LK
    distance_km: 6.32
- country: US
  region: PA
  name: Ardmore
  lat: '40.0033'
  long: "-75.2947"
  nearby_rate_centers:
  - name: PHPHSBZN24
    distance_km: 0.98
  - name: PHPHSBZN25
    distance_km: 3.49
  - name: PHPHSBZN21
    distance_km: 3.87
- country: US
  region: PA
  name: Arendtsville
  lat: '39.9233'
  long: "-77.2999"
  nearby_rate_centers:
  - name: BIGLERVL
    distance_km: 4.17
  - name: GETTYSBURG
    distance_km: 11.74
  - name: FAIRFIELD
    distance_km: 16.51
- country: US
  region: PA
  name: Aristes
  lat: '40.8156'
  long: "-76.3395"
  nearby_rate_centers:
  - name: ASHLAND
    distance_km: 3.57
  - name: GIRARDVL
    distance_km: 5.25
  - name: MT CARMEL
    distance_km: 7.02
- country: US
  region: PA
  name: Arlington Heights
  lat: '41.0041'
  long: "-75.2112"
  nearby_rate_centers:
  - name: STROUDSBG
    distance_km: 2.29
  - name: PORTLAND
    distance_km: 13.24
  - name: BANGOR
    distance_km: 14.95
- country: US
  region: PA
  name: Arnold
  lat: '40.5788'
  long: "-79.7655"
  nearby_rate_centers:
  - name: NEWKNSNGTN
    distance_km: 0.88
  - name: TARENTUM
    distance_km: 3.95
  - name: SPRINGDALE
    distance_km: 4.31
- country: US
  region: PA
  name: Arnold City
  lat: '40.1173'
  long: "-79.8226"
  nearby_rate_centers:
  - name: FAYETTE CY
    distance_km: 1.98
  - name: BELLEVRNON
    distance_km: 3.77
  - name: DONORA
    distance_km: 6.86
- country: US
  region: PA
  name: Arnot
  lat: '41.6624'
  long: "-77.1223"
  nearby_rate_centers:
  - name: BLOSSBURG
    distance_km: 5.14
  - name: COVINGTON
    distance_km: 9.47
  - name: LIBERTY
    distance_km: 12.0
- country: US
  region: PA
  name: Arona
  lat: '40.2683'
  long: "-79.6578"
  nearby_rate_centers:
  - name: HERMINIE
    distance_km: 4.26
  - name: YUKON
    distance_km: 5.95
  - name: YOUNGWOOD
    distance_km: 7.55
- country: US
  region: PA
  name: Ashland
  lat: '40.7811'
  long: "-76.3451"
  nearby_rate_centers:
  - name: ASHLAND
    distance_km: 0.62
  - name: GIRARDVL
    distance_km: 5.31
  - name: MT CARMEL
    distance_km: 6.63
- country: US
  region: PA
  name: Ashley
  lat: '41.2128'
  long: "-75.8993"
  nearby_rate_centers:
  - name: WILKSBARRE
    distance_km: 3.49
  - name: MOUNTANTOP
    distance_km: 4.64
  - name: PLYMOUTH
    distance_km: 5.24
- country: US
  region: PA
  name: Ashville
  lat: '40.5601'
  long: "-78.5473"
  nearby_rate_centers:
  - name: CRESSON
    distance_km: 10.75
  - name: PATTON
    distance_km: 11.45
  - name: ALTOONA
    distance_km: 13.56
- country: US
  region: PA
  name: Aspers
  lat: '39.9792'
  long: "-77.2276"
  nearby_rate_centers:
  - name: BIGLERVL
    distance_km: 6.49
  - name: YORK SPG
    distance_km: 10.73
  - name: MTHOLLYSPG
    distance_km: 15.45
- country: US
  region: PA
  name: Aspinwall
  lat: '40.4929'
  long: "-79.9037"
  nearby_rate_centers:
  - name: PTGSBNZN19
    distance_km: 3.72
  - name: PTGSBNZN21
    distance_km: 4.66
  - name: PTGSBNZN20
    distance_km: 5.83
- country: US
  region: PA
  name: Atglen
  lat: '39.9473'
  long: "-75.9754"
  nearby_rate_centers:
  - name: ATGLEN
    distance_km: 0.63
  - name: PARKESBURG
    distance_km: 5.23
  - name: GAP
    distance_km: 6.61
- country: US
  region: PA
  name: Athens
  lat: '41.9515'
  long: "-76.5187"
  nearby_rate_centers:
  - name: SAYRE
    distance_km: 3.64
  - name: ULSTER
    distance_km: 11.8
  - name: BENTLEYCRK
    distance_km: 16.52
- country: US
  region: PA
  name: Atkinson Mills
  lat: '40.4519'
  long: "-77.8052"
  nearby_rate_centers:
  - name: MCVEYTOWN
    distance_km: 7.33
  - name: ALLENSVL
    distance_km: 8.85
  - name: MOUNTUNION
    distance_km: 10.19
- country: US
  region: PA
  name: Atlantic
  lat: '41.5054'
  long: "-80.3408"
  nearby_rate_centers:
  - name: JAMESTOWN
    distance_km: 8.85
  - name: CONNEAUTLK
    distance_km: 10.67
  - name: GREENVILLE
    distance_km: 11.15
- country: US
  region: PA
  name: Atlas
  lat: '40.7974'
  long: "-76.4284"
  nearby_rate_centers:
  - name: MT CARMEL
    distance_km: 0.73
  - name: KULPMONT
    distance_km: 3.97
  - name: ASHLAND
    distance_km: 7.73
- country: US
  region: PA
  name: Atlasburg
  lat: '40.3436'
  long: "-80.3803"
  nearby_rate_centers:
  - name: BURGETTSTN
    distance_km: 4.54
  - name: MIDWAY
    distance_km: 7.86
  - name: HICKORY
    distance_km: 7.96
- country: US
  region: PA
  name: Atwood
  lat: '40.7501'
  long: "-79.2601"
  nearby_rate_centers:
  - name: RURAL VLY
    distance_km: 6.87
  - name: ELDERTON
    distance_km: 8.82
  - name: MARION CTR
    distance_km: 9.75
- country: US
  region: PA
  name: Audubon
  lat: '40.1304'
  long: "-75.4280"
  nearby_rate_centers:
  - name: PHPHSBZN29
    distance_km: 2.67
  - name: NORRISTOWN
    distance_km: 7.36
  - name: PHPHSBZN30
    distance_km: 7.36
  - name: COLLEGEVL
    distance_km: 7.53
- country: US
  region: PA
  name: Austin
  lat: '41.6373'
  long: "-78.0903"
  nearby_rate_centers:
  - name: AUSTIN
    distance_km: 0.46
  - name: ROULETTE
    distance_km: 16.0
  - name: COUDERSPT
    distance_km: 16.23
- country: US
  region: PA
  name: Avalon
  lat: '40.5011'
  long: "-80.0680"
  nearby_rate_centers:
  - name: PTGSBNZN17
    distance_km: 5.22
  - name: PTGSBNZN15
    distance_km: 7.67
  - name: PTTSBGZON1
    distance_km: 8.92
  - name: PTTSBGZON2
    distance_km: 8.92
  - name: PTTSBGZON3
    distance_km: 8.92
  - name: PTTSBGZON4
    distance_km: 8.92
  - name: PTTSBGZON5
    distance_km: 8.92
  - name: PTTSBGZON6
    distance_km: 8.92
  - name: PTTSBGZON7
    distance_km: 8.92
  - name: PTTSBGZON8
    distance_km: 8.92
- country: US
  region: PA
  name: Avella
  lat: '40.2737'
  long: "-80.4672"
  nearby_rate_centers:
  - name: AVELLA
    distance_km: 0.46
  - name: BUFFALO
    distance_km: 10.93
  - name: BURGETTSTN
    distance_km: 13.71
- country: US
  region: PA
  name: Avis
  lat: '41.1858'
  long: "-77.3164"
  nearby_rate_centers:
  - name: AVIS
    distance_km: 0.34
  - name: WOOLRICH
    distance_km: 4.92
  - name: JERSEYSHOR
    distance_km: 5.53
- country: US
  region: PA
  name: Avoca
  lat: '41.3382'
  long: "-75.7422"
  nearby_rate_centers:
  - name: MOOSIC
    distance_km: 1.71
  - name: PITTSTON
    distance_km: 3.93
  - name: TAYLOR
    distance_km: 4.16
- country: US
  region: PA
  name: Avon
  lat: '40.3426'
  long: "-76.3793"
  nearby_rate_centers:
  - name: LEBANON
    distance_km: 2.87
  - name: MYERSTOWN
    distance_km: 7.68
  - name: SCHAEFESTN
    distance_km: 8.92
- country: US
  region: PA
  name: Avondale
  lat: '39.8248'
  long: "-75.7819"
  nearby_rate_centers:
  - name: AVONDALE
    distance_km: 0.32
  - name: WEST GROVE
    distance_km: 3.51
  - name: LANDENBERG
    distance_km: 5.51
- country: US
  region: PA
  name: Avonia
  lat: '42.0470'
  long: "-80.2764"
  nearby_rate_centers:
  - name: FAIRVIEW
    distance_km: 2.18
  - name: GIRARD
    distance_km: 5.52
  - name: MCKEAN
    distance_km: 12.88
- country: US
  region: PA
  name: Avonmore
  lat: '40.5272'
  long: "-79.4693"
  nearby_rate_centers:
  - name: AVONMORE
    distance_km: 0.74
  - name: SALTSBURG
    distance_km: 4.68
  - name: APOLLO
    distance_km: 10.03
- country: US
  region: PA
  name: Baden
  lat: '40.6396'
  long: "-80.2228"
  nearby_rate_centers:
  - name: BADEN
    distance_km: 0.68
  - name: ALIQUIPPA
    distance_km: 4.2
  - name: AMBRIDGE
    distance_km: 5.48
- country: US
  region: PA
  name: Baidland
  lat: '40.1888'
  long: "-79.9549"
  nearby_rate_centers:
  - name: MONONGAHLA
    distance_km: 1.71
  - name: MONESSEN
    distance_km: 6.43
  - name: CHARLEROI
    distance_km: 6.89
- country: US
  region: PA
  name: Baileyville
  lat: '40.7110'
  long: "-77.9924"
  nearby_rate_centers:
  - name: PT MATILDA
    distance_km: 10.56
  - name: WARIRSMARK
    distance_km: 11.84
  - name: STATECOLLG
    distance_km: 14.3
- country: US
  region: PA
  name: Bainbridge
  lat: '40.0915'
  long: "-76.6581"
  nearby_rate_centers:
  - name: MANCHESTER
    distance_km: 7.03
  - name: ELIZABTHTN
    distance_km: 8.27
  - name: MARIETTA
    distance_km: 9.18
- country: US
  region: PA
  name: Bairdford
  lat: '40.6279'
  long: "-79.8813"
  nearby_rate_centers:
  - name: CURTISVL
    distance_km: 3.69
  - name: GIBSONIA
    distance_km: 7.17
  - name: COOPERSTWN
    distance_km: 10.39
- country: US
  region: PA
  name: Bakerstown
  lat: '40.6538'
  long: "-79.9394"
  nearby_rate_centers:
  - name: GIBSONIA
    distance_km: 3.25
  - name: COOPERSTWN
    distance_km: 7.01
  - name: MARS
    distance_km: 7.22
- country: US
  region: PA
  name: Bala Cynwyd
  lat: '40.0116'
  long: "-75.2283"
  nearby_rate_centers:
  - name: PHPHSBZN23
    distance_km: 0.81
  - name: PHPHSBZN24
    distance_km: 6.24
  - name: PHPHSBZN21
    distance_km: 7.57
- country: US
  region: PA
  name: Bald Eagle
  lat: '40.7262'
  long: "-78.1902"
  nearby_rate_centers:
  - name: WARIRSMARK
    distance_km: 5.34
  - name: TYRONE
    distance_km: 6.79
  - name: PT MATILDA
    distance_km: 14.79
- country: US
  region: PA
  name: Baldwin
  lat: '40.3690'
  long: "-79.9669"
  nearby_rate_centers:
  - name: PTGSBNZN11
    distance_km: 3.08
  - name: PTGSBNZN12
    distance_km: 6.38
  - name: PTTSBGZON1
    distance_km: 8.24
  - name: PTTSBGZON2
    distance_km: 8.24
  - name: PTTSBGZON3
    distance_km: 8.24
  - name: PTTSBGZON4
    distance_km: 8.24
  - name: PTTSBGZON5
    distance_km: 8.24
  - name: PTTSBGZON6
    distance_km: 8.24
  - name: PTTSBGZON7
    distance_km: 8.24
  - name: PTTSBGZON8
    distance_km: 8.24
- country: US
  region: PA
  name: Bally
  lat: '40.4004'
  long: "-75.5875"
  nearby_rate_centers:
  - name: BALLY
    distance_km: 0.16
  - name: SASSAMNSVL
    distance_km: 6.48
  - name: PENNSBURG
    distance_km: 7.5
- country: US
  region: PA
  name: Bangor
  lat: '40.8678'
  long: "-75.2085"
  nearby_rate_centers:
  - name: BANGOR
    distance_km: 0.31
  - name: PEN ARGYL
    distance_km: 4.2
  - name: SAYLORSBG
    distance_km: 9.46
- country: US
  region: PA
  name: Barkeyville
  lat: '41.1965'
  long: "-79.9826"
  nearby_rate_centers:
  - name: WESLEY
    distance_km: 3.08
  - name: HARRISVL
    distance_km: 6.51
  - name: CLINTONVL
    distance_km: 9.14
- country: US
  region: PA
  name: Barrville
  lat: '40.6664'
  long: "-77.6831"
  nearby_rate_centers:
  - name: REEDSVILLE
    distance_km: 7.26
  - name: BELLEVILLE
    distance_km: 7.58
  - name: LEWISTOWN
    distance_km: 12.1
- country: US
  region: PA
  name: Bath
  lat: '40.7279'
  long: "-75.3919"
  nearby_rate_centers:
  - name: BATH
    distance_km: 0.43
  - name: NAZARETH
    distance_km: 7.37
  - name: NORTHAMPTN
    distance_km: 9.57
- country: US
  region: PA
  name: Baumstown
  lat: '40.2777'
  long: "-75.8066"
  nearby_rate_centers:
  - name: BIRDSBORO
    distance_km: 2.09
  - name: DOUGLASSVL
    distance_km: 5.77
  - name: YELLOW HS
    distance_km: 6.54
- country: US
  region: PA
  name: Beallsville
  lat: '40.0619'
  long: "-80.0302"
  nearby_rate_centers:
  - name: RICHEYVL
    distance_km: 2.16
  - name: SCENERY HL
    distance_km: 4.53
  - name: BENTLEYVL
    distance_km: 6.21
- country: US
  region: PA
  name: Bear Creek Village
  lat: '41.1875'
  long: "-75.7553"
  nearby_rate_centers:
  - name: MOUNTANTOP
    distance_km: 10.16
  - name: WILKSBARRE
    distance_km: 12.5
  - name: WHITEHAVEN
    distance_km: 13.63
- country: US
  region: PA
  name: Bear Lake
  lat: '41.9934'
  long: "-79.5014"
  nearby_rate_centers:
  - name: SUGARGROVE
    distance_km: 13.09
  - name: CORRY
    distance_km: 13.95
  - name: YOUNGSVL
    distance_km: 22.15
- country: US
  region: PA
  name: Bear Rocks
  lat: '40.1289'
  long: "-79.4649"
  nearby_rate_centers:
  - name: MAMMOTH
    distance_km: 6.15
  - name: MTPLEASANT
    distance_km: 6.87
  - name: SCOTTDALE
    distance_km: 10.74
- country: US
  region: PA
  name: Beaver
  lat: '40.6936'
  long: "-80.3074"
  nearby_rate_centers:
  - name: ROCHESTER
    distance_km: 2.97
  - name: BEAVER FLS
    distance_km: 5.32
  - name: BADEN
    distance_km: 9.7
- country: US
  region: PA
  name: Beaver Falls
  lat: '40.7619'
  long: "-80.3226"
  nearby_rate_centers:
  - name: BEAVER FLS
    distance_km: 2.39
  - name: ROCHESTER
    distance_km: 7.86
  - name: DARLINGTON
    distance_km: 9.7
- country: US
  region: PA
  name: Beaver Meadows
  lat: '40.9299'
  long: "-75.9131"
  nearby_rate_centers:
  - name: HAZLETON
    distance_km: 6.9
  - name: WEATHERLY
    distance_km: 7.11
  - name: MCADOO
    distance_km: 7.32
- country: US
  region: PA
  name: Beaver Springs
  lat: '40.7448'
  long: "-77.2168"
  nearby_rate_centers:
  - name: BEAVER SPG
    distance_km: 0.82
  - name: RICHFIELD
    distance_km: 10.65
  - name: MCALISTRVL
    distance_km: 12.31
- country: US
  region: PA
  name: Beaverdale
  lat: '40.3242'
  long: "-78.7014"
  nearby_rate_centers:
  - name: BEAVERDALE
    distance_km: 0.99
  - name: PORTAGE
    distance_km: 7.24
  - name: SOUTH FORK
    distance_km: 8.4
- country: US
  region: PA
  name: Beavertown
  lat: '40.3737'
  long: "-78.2370"
  nearby_rate_centers:
  - name: MARKLESBG
    distance_km: 5.47
  - name: WILLIAMSBG
    distance_km: 10.1
  - name: MARTINSBG
    distance_km: 10.6
- country: US
  region: PA
  name: Beavertown
  lat: '40.7522'
  long: "-77.1690"
  nearby_rate_centers:
  - name: BEAVER SPG
    distance_km: 3.3
  - name: RICHFIELD
    distance_km: 8.3
  - name: MIDDLEBURG
    distance_km: 11.76
- country: US
  region: PA
  name: Bechtelsville
  lat: '40.3710'
  long: "-75.6307"
  nearby_rate_centers:
  - name: BOYERTOWN
    distance_km: 4.23
  - name: BALLY
    distance_km: 4.76
  - name: SASSAMNSVL
    distance_km: 5.53
- country: US
  region: PA
  name: Beech Mountain Lakes
  lat: '41.0437'
  long: "-75.9323"
  nearby_rate_centers:
  - name: FREELAND
    distance_km: 3.96
  - name: CNYNGHDRMS
    distance_km: 9.06
  - name: HAZLETON
    distance_km: 10.45
- country: US
  region: PA
  name: Bell Acres
  lat: '40.5898'
  long: "-80.1738"
  nearby_rate_centers:
  - name: AMBRIDGE
    distance_km: 4.31
  - name: PTGSBNZN16
    distance_km: 5.43
  - name: GLENWILLRD
    distance_km: 5.6
- country: US
  region: PA
  name: Belle Vernon
  lat: '40.1256'
  long: "-79.8671"
  nearby_rate_centers:
  - name: BELLEVRNON
    distance_km: 1.38
  - name: CHARLEROI
    distance_km: 3.72
  - name: FAYETTE CY
    distance_km: 4.03
- country: US
  region: PA
  name: Bellefonte
  lat: '40.9141'
  long: "-77.7683"
  nearby_rate_centers:
  - name: BELLEFONTE
    distance_km: 0.88
  - name: ZION
    distance_km: 7.11
  - name: CENTREHALL
    distance_km: 10.04
- country: US
  region: PA
  name: Belleville
  lat: '40.6059'
  long: "-77.7211"
  nearby_rate_centers:
  - name: BELLEVILLE
    distance_km: 0.39
  - name: ALLENSVL
    distance_km: 11.54
  - name: MCVEYTOWN
    distance_km: 11.85
- country: US
  region: PA
  name: Bellevue
  lat: '40.4945'
  long: "-80.0550"
  nearby_rate_centers:
  - name: PTGSBNZN17
    distance_km: 5.46
  - name: PTTSBGZON1
    distance_km: 7.68
  - name: PTTSBGZON2
    distance_km: 7.68
  - name: PTTSBGZON3
    distance_km: 7.68
  - name: PTTSBGZON4
    distance_km: 7.68
  - name: PTTSBGZON5
    distance_km: 7.68
  - name: PTTSBGZON6
    distance_km: 7.68
  - name: PTTSBGZON7
    distance_km: 7.68
  - name: PTTSBGZON8
    distance_km: 7.68
  - name: PTGSBNZN15
    distance_km: 8.87
- country: US
  region: PA
  name: Bellwood
  lat: '40.6007'
  long: "-78.3334"
  nearby_rate_centers:
  - name: BELLWOOD
    distance_km: 0.34
  - name: ALTOONA
    distance_km: 10.91
  - name: TYRONE
    distance_km: 11.78
- country: US
  region: PA
  name: Belmont
  lat: '40.2830'
  long: "-78.8907"
  nearby_rate_centers:
  - name: JOHNSTOWN
    distance_km: 5.55
  - name: WINDBER
    distance_km: 7.66
  - name: DAVIDSVL
    distance_km: 7.8
- country: US
  region: PA
  name: Ben Avon
  lat: '40.5058'
  long: "-80.0814"
  nearby_rate_centers:
  - name: PTGSBNZN17
    distance_km: 5.49
  - name: PTGSBNZN15
    distance_km: 6.5
  - name: PTGSBNZN16
    distance_km: 9.26
- country: US
  region: PA
  name: Ben Avon Heights
  lat: '40.5125'
  long: "-80.0731"
  nearby_rate_centers:
  - name: PTGSBNZN17
    distance_km: 4.46
  - name: PTGSBNZN15
    distance_km: 7.21
  - name: PTGSBNZN16
    distance_km: 9.63
- country: US
  region: PA
  name: Bendersville
  lat: '39.9815'
  long: "-77.2494"
  nearby_rate_centers:
  - name: BIGLERVL
    distance_km: 6.43
  - name: YORK SPG
    distance_km: 12.45
  - name: MTHOLLYSPG
    distance_km: 15.67
- country: US
  region: PA
  name: Benson
  lat: '40.2028'
  long: "-78.9293"
  nearby_rate_centers:
  - name: DAVIDSVL
    distance_km: 2.36
  - name: HOOVERSVL
    distance_km: 5.99
  - name: WINDBER
    distance_km: 9.22
- country: US
  region: PA
  name: Bentleyville
  lat: '40.1178'
  long: "-80.0044"
  nearby_rate_centers:
  - name: BENTLEYVL
    distance_km: 1.2
  - name: RICHEYVL
    distance_km: 6.86
  - name: SCENERY HL
    distance_km: 7.01
- country: US
  region: PA
  name: Benton
  lat: '41.1955'
  long: "-76.3847"
  nearby_rate_centers:
  - name: BENTON
    distance_km: 0.52
  - name: ORANGEVL
    distance_km: 12.69
  - name: HUNTIGTNML
    distance_km: 12.7
- country: US
  region: PA
  name: Bernville
  lat: '40.4334'
  long: "-76.1107"
  nearby_rate_centers:
  - name: BERNVILLE
    distance_km: 0.29
  - name: ROBESONIA
    distance_km: 9.5
  - name: WOMELSDORF
    distance_km: 10.41
- country: US
  region: PA
  name: Berrysburg
  lat: '40.6029'
  long: "-76.8101"
  nearby_rate_centers:
  - name: ELIZABTHVL
    distance_km: 6.08
  - name: GRATZ
    distance_km: 7.98
  - name: MANDATA
    distance_km: 9.11
- country: US
  region: PA
  name: Berwick
  lat: '41.0555'
  long: "-76.2492"
  nearby_rate_centers:
  - name: BERWICK
    distance_km: 0.61
  - name: WAPWALLOPN
    distance_km: 10.69
  - name: SHICKSHINY
    distance_km: 13.26
- country: US
  region: PA
  name: Berwyn
  lat: '40.0396'
  long: "-75.4439"
  nearby_rate_centers:
  - name: PHPHSBZN28
    distance_km: 3.46
  - name: PHPHSBZN26
    distance_km: 5.36
  - name: PHPHSBZN22
    distance_km: 6.19
- country: US
  region: PA
  name: Bessemer
  lat: '40.9756'
  long: "-80.4878"
  nearby_rate_centers:
  - name: BESSEMER
    distance_km: 0.43
  - name: LOWELLVL
    distance_km: 6.44
  - name: NEW CASTLE
    distance_km: 12.65
- country: US
  region: PA
  name: Bethany
  lat: '41.6143'
  long: "-75.2872"
  nearby_rate_centers:
  - name: HONESDALE
    distance_km: 4.94
  - name: WAYMART
    distance_km: 10.1
  - name: BEACH LAKE
    distance_km: 11.26
- country: US
  region: PA
  name: Bethel Park
  lat: '40.3238'
  long: "-80.0364"
  nearby_rate_centers:
  - name: PTGSBNZN12
    distance_km: 1.43
  - name: MCMURRAY
    distance_km: 6.76
  - name: PTGSBNZN13
    distance_km: 7.09
- country: US
  region: PA
  name: Bethlehem
  lat: '40.6266'
  long: "-75.3679"
  nearby_rate_centers:
  - name: BETHLEHEM
    distance_km: 2.42
  - name: HELLERTOWN
    distance_km: 5.37
  - name: ALLENTOWN
    distance_km: 8.82
- country: US
  region: PA
  name: Beurys Lake
  lat: '40.7194'
  long: "-76.3795"
  nearby_rate_centers:
  - name: ASHLAND
    distance_km: 7.92
  - name: MT CARMEL
    distance_km: 9.51
  - name: TREMONT
    distance_km: 9.7
- country: US
  region: PA
  name: Big Bass Lake
  lat: '41.2525'
  long: "-75.4795"
  nearby_rate_centers:
  - name: MOSCOW
    distance_km: 10.63
  - name: NEWFOUNDLD
    distance_km: 14.77
  - name: POCONOLAKE
    distance_km: 15.92
- country: US
  region: PA
  name: Big Beaver
  lat: '40.8233'
  long: "-80.3632"
  nearby_rate_centers:
  - name: DARLINGTON
    distance_km: 4.86
  - name: WAMPUM
    distance_km: 6.83
  - name: ELLWOOD CY
    distance_km: 7.82
- country: US
  region: PA
  name: Big Run
  lat: '40.9702'
  long: "-78.8765"
  nearby_rate_centers:
  - name: BIG RUN
    distance_km: 0.19
  - name: PUNXSUTWNY
    distance_km: 8.4
  - name: SYKESVILLE
    distance_km: 10.1
- country: US
  region: PA
  name: Biglerville
  lat: '39.9303'
  long: "-77.2462"
  nearby_rate_centers:
  - name: BIGLERVL
    distance_km: 0.84
  - name: GETTYSBURG
    distance_km: 11.11
  - name: YORK SPG
    distance_km: 14.7
- country: US
  region: PA
  name: Birchwood Lakes
  lat: '41.2513'
  long: "-74.9103"
  nearby_rate_centers:
  - name: DINGMAFRRY
    distance_km: 4.02
  - name: MILFORD
    distance_km: 12.11
  - name: LORDS VLY
    distance_km: 16.96
- country: US
  region: PA
  name: Bird-in-Hand
  lat: '40.0373'
  long: "-76.1863"
  nearby_rate_centers:
  - name: STRASBURG
    distance_km: 6.13
  - name: LEOLA
    distance_km: 6.25
  - name: INTERCOURS
    distance_km: 6.88
- country: US
  region: PA
  name: Birdsboro
  lat: '40.2619'
  long: "-75.8099"
  nearby_rate_centers:
  - name: BIRDSBORO
    distance_km: 0.55
  - name: DOUGLASSVL
    distance_km: 5.83
  - name: YELLOW HS
    distance_km: 8.13
- country: US
  region: PA
  name: Blain
  lat: '40.3365'
  long: "-77.5124"
  nearby_rate_centers:
  - name: BLAIN
    distance_km: 0.9
  - name: EWATERFORD
    distance_km: 8.53
  - name: LOYSVILLE
    distance_km: 14.74
- country: US
  region: PA
  name: Blairsville
  lat: '40.4326'
  long: "-79.2599"
  nearby_rate_centers:
  - name: BLAIRSVL
    distance_km: 0.6
  - name: BLACK LICK
    distance_km: 7.63
  - name: BOLIVAR
    distance_km: 10.25
- country: US
  region: PA
  name: Blakely
  lat: '41.4860'
  long: "-75.6012"
  nearby_rate_centers:
  - name: OLYPHANT
    distance_km: 1.84
  - name: CHAPMAN LK
    distance_km: 7.4
  - name: JERMYN
    distance_km: 7.45
- country: US
  region: PA
  name: Blanchard
  lat: '41.0670'
  long: "-77.6060"
  nearby_rate_centers:
  - name: BEECHCREEK
    distance_km: 2.57
  - name: HOWARD
    distance_km: 7.18
  - name: MILL HALL
    distance_km: 10.47
- country: US
  region: PA
  name: Blandburg
  lat: '40.6837'
  long: "-78.4159"
  nearby_rate_centers:
  - name: GLASGOW
    distance_km: 4.36
  - name: BELLWOOD
    distance_km: 11.89
  - name: COALPORT
    distance_km: 12.19
- country: US
  region: PA
  name: Blandon
  lat: '40.4447'
  long: "-75.8799"
  nearby_rate_centers:
  - name: FLEETWOOD
    distance_km: 4.77
  - name: LEESPORT
    distance_km: 7.31
  - name: OLEY
    distance_km: 11.19
- country: US
  region: PA
  name: Blawnox
  lat: '40.4922'
  long: "-79.8600"
  nearby_rate_centers:
  - name: PTGSBNZN21
    distance_km: 1.36
  - name: PTGSBNZN20
    distance_km: 3.12
  - name: PTGSBNZN19
    distance_km: 4.6
- country: US
  region: PA
  name: Blooming Valley
  lat: '41.6800'
  long: "-80.0396"
  nearby_rate_centers:
  - name: GUYS MILLS
    distance_km: 7.3
  - name: MEADVILLE
    distance_km: 9.46
  - name: SAEGERTOWN
    distance_km: 10.21
- country: US
  region: PA
  name: Bloomsburg
  lat: '41.0027'
  long: "-76.4561"
  nearby_rate_centers:
  - name: BLOOMSBURG
    distance_km: 0.47
  - name: CATAWISSA
    distance_km: 6.06
  - name: ORANGEVL
    distance_km: 9.6
- country: US
  region: PA
  name: Blossburg
  lat: '41.6795'
  long: "-77.0690"
  nearby_rate_centers:
  - name: BLOSSBURG
    distance_km: 0.57
  - name: COVINGTON
    distance_km: 7.01
  - name: LIBERTY
    distance_km: 13.99
- country: US
  region: PA
  name: Blue Ball
  lat: '40.1157'
  long: "-76.0517"
  nearby_rate_centers:
  - name: NEWHOLLAND
    distance_km: 3.86
  - name: TERRE HILL
    distance_km: 4.5
  - name: INTERCOURS
    distance_km: 9.49
- country: US
  region: PA
  name: Blue Bell
  lat: '40.1474'
  long: "-75.2687"
  nearby_rate_centers:
  - name: PHPHSBZN33
    distance_km: 4.24
  - name: PHPHSBZN32
    distance_km: 6.74
  - name: NORRISTOWN
    distance_km: 6.8
  - name: PHPHSBZN30
    distance_km: 6.8
- country: US
  region: PA
  name: Blue Knob
  lat: '40.3527'
  long: "-78.5533"
  nearby_rate_centers:
  - name: PORTAGE
    distance_km: 10.76
  - name: CLAYSBURG
    distance_km: 10.95
  - name: ROARINGSPG
    distance_km: 11.85
- country: US
  region: PA
  name: Blue Ridge Summit
  lat: '39.7256'
  long: "-77.4688"
  nearby_rate_centers:
  - name: BLRDGSUMMT
    distance_km: 1.36
  - name: WAYNESBORO
    distance_km: 10.38
  - name: FAIRFIELD
    distance_km: 11.04
- country: US
  region: PA
  name: Boalsburg
  lat: '40.7783'
  long: "-77.7734"
  nearby_rate_centers:
  - name: BOALSBURG
    distance_km: 2.4
  - name: STATECOLLG
    distance_km: 7.73
  - name: CENTREHALL
    distance_km: 10.05
- country: US
  region: PA
  name: Bobtown
  lat: '39.7603'
  long: "-79.9848"
  nearby_rate_centers:
  - name: BOBTOWN
    distance_km: 0.48
  - name: GREENSBORO
    distance_km: 6.91
  - name: MT MORRIS
    distance_km: 7.72
- country: US
  region: PA
  name: Boiling Springs
  lat: '40.1592'
  long: "-77.1391"
  nearby_rate_centers:
  - name: MTHOLLYSPG
    distance_km: 6.67
  - name: CARLISLE
    distance_km: 6.76
  - name: DILLSBURG
    distance_km: 10.72
- country: US
  region: PA
  name: Bolivar
  lat: '40.3952'
  long: "-79.1521"
  nearby_rate_centers:
  - name: BOLIVAR
    distance_km: 0.43
  - name: NEWFLORNCE
    distance_km: 7.72
  - name: BLACK LICK
    distance_km: 9.77
- country: US
  region: PA
  name: Bonneauville
  lat: '39.8105'
  long: "-77.1363"
  nearby_rate_centers:
  - name: GETTYSBURG
    distance_km: 8.59
  - name: LITTLESTN
    distance_km: 9.04
  - name: NEW OXFORD
    distance_km: 9.1
- country: US
  region: PA
  name: Boothwyn
  lat: '39.8357'
  long: "-75.4454"
  nearby_rate_centers:
  - name: PHPHSBZN10
    distance_km: 7.25
  - name: PHPHSBZN11
    distance_km: 7.63
  - name: PHPHSBZN12
    distance_km: 10.42
- country: US
  region: PA
  name: Boston
  lat: '40.3120'
  long: "-79.8237"
  nearby_rate_centers:
  - name: PTGSBNZN10
    distance_km: 5.29
  - name: CLAIRTON
    distance_km: 6.6
  - name: ELIZABETH
    distance_km: 7.45
- country: US
  region: PA
  name: Boswell
  lat: '40.1615'
  long: "-79.0274"
  nearby_rate_centers:
  - name: BOSWELL
    distance_km: 0.58
  - name: STOYSTOWN
    distance_km: 9.32
  - name: DAVIDSVL
    distance_km: 10.2
- country: US
  region: PA
  name: Bowers
  lat: '40.4849'
  long: "-75.7423"
  nearby_rate_centers:
  - name: TOPTON
    distance_km: 4.16
  - name: KUTZTOWN
    distance_km: 4.52
  - name: FLEETWOOD
    distance_km: 7.74
- country: US
  region: PA
  name: Bowmanstown
  lat: '40.8019'
  long: "-75.6611"
  nearby_rate_centers:
  - name: BOWMANSTN
    distance_km: 0.38
  - name: PALMERTON
    distance_km: 3.73
  - name: LEHIGHTON
    distance_km: 5.42
- country: US
  region: PA
  name: Bowmansville
  lat: '40.2029'
  long: "-76.0211"
  nearby_rate_centers:
  - name: ADAMSTOWN
    distance_km: 5.22
  - name: TERRE HILL
    distance_km: 5.72
  - name: DENVER
    distance_km: 10.56
- country: US
  region: PA
  name: Boyertown
  lat: '40.3322'
  long: "-75.6375"
  nearby_rate_centers:
  - name: BOYERTOWN
    distance_km: 0.63
  - name: SASSAMNSVL
    distance_km: 5.25
  - name: BALLY
    distance_km: 8.57
- country: US
  region: PA
  name: Brackenridge
  lat: '40.6079'
  long: "-79.7411"
  nearby_rate_centers:
  - name: TARENTUM
    distance_km: 0.15
  - name: NEWKNSNGTN
    distance_km: 4.08
  - name: SPRINGDALE
    distance_km: 8.11
- country: US
  region: PA
  name: Braddock
  lat: '40.4018'
  long: "-79.8689"
  nearby_rate_centers:
  - name: PTGSBNZN22
    distance_km: 3.74
  - name: PTGSBNZN10
    distance_km: 6.05
  - name: PTGSBNZN21
    distance_km: 9.1
- country: US
  region: PA
  name: Braddock Hills
  lat: '40.4180'
  long: "-79.8630"
  nearby_rate_centers:
  - name: PTGSBNZN22
    distance_km: 3.25
  - name: PTGSBNZN21
    distance_km: 7.24
  - name: PTGSBNZN10
    distance_km: 7.84
- country: US
  region: PA
  name: Bradenville
  lat: '40.3236'
  long: "-79.3403"
  nearby_rate_centers:
  - name: DERRY
    distance_km: 3.51
  - name: LATROBE
    distance_km: 3.75
  - name: NEWALXNDRI
    distance_km: 11.19
- country: US
  region: PA
  name: Bradford
  lat: '41.9605'
  long: "-78.6412"
  nearby_rate_centers:
  - name: BRADFORD
    distance_km: 0.16
  - name: REW
    distance_km: 10.88
  - name: DUKECENTER
    distance_km: 12.92
- country: US
  region: PA
  name: Bradford Woods
  lat: '40.6369'
  long: "-80.0809"
  nearby_rate_centers:
  - name: WEXFORD
    distance_km: 2.29
  - name: CRIDERSCOR
    distance_km: 6.33
  - name: MARS
    distance_km: 8.63
- country: US
  region: PA
  name: Branchdale
  lat: '40.6732'
  long: "-76.3222"
  nearby_rate_centers:
  - name: MINERSVL
    distance_km: 5.5
  - name: TREMONT
    distance_km: 7.39
  - name: FRIEDENSBG
    distance_km: 10.35
- country: US
  region: PA
  name: Brandonville
  lat: '40.8601'
  long: "-76.1689"
  nearby_rate_centers:
  - name: SHENANDOAH
    distance_km: 5.06
  - name: RINGTOWN
    distance_km: 5.4
  - name: MAHANOY CY
    distance_km: 6.13
- country: US
  region: PA
  name: Brave
  lat: '39.7265'
  long: "-80.2593"
  nearby_rate_centers:
  - name: BRAVE
    distance_km: 0.37
  - name: SPRAGGS
    distance_km: 6.29
  - name: NEW FREEPT
    distance_km: 14.62
- country: US
  region: PA
  name: Breinigsville
  lat: '40.5394'
  long: "-75.6347"
  nearby_rate_centers:
  - name: TOPTON
    distance_km: 6.77
  - name: NEWSMITHVL
    distance_km: 9.89
  - name: KUTZTOWN
    distance_km: 12.01
- country: US
  region: PA
  name: Brentwood
  lat: '40.3734'
  long: "-79.9757"
  nearby_rate_centers:
  - name: PTGSBNZN11
    distance_km: 3.82
  - name: PTGSBNZN12
    distance_km: 6.14
  - name: PTTSBGZON1
    distance_km: 7.52
  - name: PTTSBGZON2
    distance_km: 7.52
  - name: PTTSBGZON3
    distance_km: 7.52
  - name: PTTSBGZON4
    distance_km: 7.52
  - name: PTTSBGZON5
    distance_km: 7.52
  - name: PTTSBGZON6
    distance_km: 7.52
  - name: PTTSBGZON7
    distance_km: 7.52
  - name: PTTSBGZON8
    distance_km: 7.52
- country: US
  region: PA
  name: Bressler
  lat: '40.2319'
  long: "-76.8190"
  nearby_rate_centers:
  - name: HARISBGZN1
    distance_km: 6.42
  - name: HARISBGZN2
    distance_km: 6.42
  - name: MIDDLETOWN
    distance_km: 7.94
  - name: LEWISBERRY
    distance_km: 8.22
- country: US
  region: PA
  name: Brickerville
  lat: '40.2226'
  long: "-76.2863"
  nearby_rate_centers:
  - name: LITITZ
    distance_km: 7.47
  - name: SCHAEFESTN
    distance_km: 8.45
  - name: AKRON
    distance_km: 10.2
- country: US
  region: PA
  name: Bridgeport
  lat: '40.1042'
  long: "-75.3437"
  nearby_rate_centers:
  - name: NORRISTOWN
    distance_km: 2.1
  - name: PHPHSBZN30
    distance_km: 2.1
  - name: PHPHSBZN31
    distance_km: 4.48
  - name: PHPHSBZN29
    distance_km: 6.87
- country: US
  region: PA
  name: Bridgeville
  lat: '40.3578'
  long: "-80.1061"
  nearby_rate_centers:
  - name: PTGSBNZN13
    distance_km: 0.11
  - name: PTGSBNZN14
    distance_km: 5.77
  - name: PTGSBNZN12
    distance_km: 7.2
- country: US
  region: PA
  name: Brisbin
  lat: '40.8395'
  long: "-78.3526"
  nearby_rate_centers:
  - name: HOUTZDALE
    distance_km: 1.89
  - name: OSCEOLA ML
    distance_km: 7.51
  - name: PHILIPSBG
    distance_km: 12.55
- country: US
  region: PA
  name: Brittany Farms-The Highlands
  lat: '40.2690'
  long: "-75.2140"
  nearby_rate_centers:
  - name: LINELXNGTN
    distance_km: 4.28
  - name: PHPHSBZN45
    distance_km: 7.3
  - name: LANSDALE
    distance_km: 7.37
- country: US
  region: PA
  name: Broad Top City
  lat: '40.2012'
  long: "-78.1405"
  nearby_rate_centers:
  - name: NEWGRENADA
    distance_km: 8.88
  - name: SAXTON
    distance_km: 8.94
  - name: THREE SPG
    distance_km: 13.41
- country: US
  region: PA
  name: Brockway
  lat: '41.2472'
  long: "-78.7930"
  nearby_rate_centers:
  - name: BROCKWAY
    distance_km: 0.51
  - name: DUBOIS
    distance_km: 14.64
  - name: HAZEN
    distance_km: 15.39
- country: US
  region: PA
  name: Brodheadsville
  lat: '40.9267'
  long: "-75.4017"
  nearby_rate_centers:
  - name: SAYLORSBG
    distance_km: 8.12
  - name: KRESGEVL
    distance_km: 8.81
  - name: KUNKLETOWN
    distance_km: 9.27
- country: US
  region: PA
  name: Brookhaven
  lat: '39.8715'
  long: "-75.3918"
  nearby_rate_centers:
  - name: PHPHSBZN11
    distance_km: 3.74
  - name: PHPHSBZN13
    distance_km: 4.89
  - name: PHPHSBZN12
    distance_km: 5.49
- country: US
  region: PA
  name: Brooks Mill
  lat: '40.3737'
  long: "-78.4236"
  nearby_rate_centers:
  - name: ROARINGSPG
    distance_km: 4.72
  - name: HOLLIDYSBG
    distance_km: 7.31
  - name: CLAYSBURG
    distance_km: 9.18
- country: US
  region: PA
  name: Brookville
  lat: '41.1615'
  long: "-79.0827"
  nearby_rate_centers:
  - name: BROOKVILLE
    distance_km: 0.89
  - name: SUMMERVL
    distance_km: 9.73
  - name: CORSICA
    distance_km: 9.82
- country: US
  region: PA
  name: Broomall
  lat: '39.9688'
  long: "-75.3540"
  nearby_rate_centers:
  - name: PHPHSBZN21
    distance_km: 4.85
  - name: PHPHSBZN22
    distance_km: 5.28
  - name: PHPHSBZN12
    distance_km: 6.34
- country: US
  region: PA
  name: Brownstown
  lat: '40.1267'
  long: "-76.2184"
  nearby_rate_centers:
  - name: AKRON
    distance_km: 3.48
  - name: LEOLA
    distance_km: 4.86
  - name: EPHRATA
    distance_km: 6.42
- country: US
  region: PA
  name: Brownsville
  lat: '40.0188'
  long: "-79.8912"
  nearby_rate_centers:
  - name: BROWNSVL
    distance_km: 0.39
  - name: CALIFORNIA
    distance_km: 5.13
  - name: REPUBLIC
    distance_km: 5.8
- country: US
  region: PA
  name: Browntown
  lat: '41.3139'
  long: "-75.7826"
  nearby_rate_centers:
  - name: PITTSTON
    distance_km: 1.07
  - name: WYOMING
    distance_km: 4.49
  - name: MOOSIC
    distance_km: 5.88
- country: US
  region: PA
  name: Bruin
  lat: '41.0544'
  long: "-79.7273"
  nearby_rate_centers:
  - name: BRUIN
    distance_km: 0.43
  - name: PETROLIA
    distance_km: 4.27
  - name: PARKER
    distance_km: 4.88
- country: US
  region: PA
  name: Bryn Athyn
  lat: '40.1411'
  long: "-75.0674"
  nearby_rate_centers:
  - name: PHPHSBZN37
    distance_km: 2.69
  - name: PHPHSBZN38
    distance_km: 4.31
  - name: PHPHSBZN39
    distance_km: 5.02
- country: US
  region: PA
  name: Bryn Mawr
  lat: '40.0208'
  long: "-75.3161"
  nearby_rate_centers:
  - name: PHPHSBZN25
    distance_km: 0.88
  - name: PHPHSBZN24
    distance_km: 1.7
  - name: PHPHSBZN21
    distance_km: 6.03
- country: US
  region: PA
  name: Buck Run
  lat: '40.7068'
  long: "-76.3212"
  nearby_rate_centers:
  - name: MINERSVL
    distance_km: 5.28
  - name: ASHLAND
    distance_km: 8.65
  - name: GIRARDVL
    distance_km: 10.15
- country: US
  region: PA
  name: Buckhorn
  lat: '41.0176'
  long: "-76.4968"
  nearby_rate_centers:
  - name: BLOOMSBURG
    distance_km: 3.59
  - name: CATAWISSA
    distance_km: 8.38
  - name: ORANGEVL
    distance_km: 9.91
- country: US
  region: PA
  name: Bulger
  lat: '40.3767'
  long: "-80.3230"
  nearby_rate_centers:
  - name: MIDWAY
    distance_km: 2.8
  - name: BURGETTSTN
    distance_km: 5.98
  - name: MCDONALD
    distance_km: 7.5
- country: US
  region: PA
  name: Burgettstown
  lat: '40.3814'
  long: "-80.3926"
  nearby_rate_centers:
  - name: BURGETTSTN
    distance_km: 0.21
  - name: MIDWAY
    distance_km: 8.62
  - name: PARIS
    distance_km: 9.62
- country: US
  region: PA
  name: Burnham
  lat: '40.6352'
  long: "-77.5631"
  nearby_rate_centers:
  - name: REEDSVILLE
    distance_km: 4.57
  - name: LEWISTOWN
    distance_km: 4.62
  - name: BELLEVILLE
    distance_km: 14.09
- country: US
  region: PA
  name: Burnside
  lat: '40.8133'
  long: "-78.7920"
  nearby_rate_centers:
  - name: GLENCMPBLL
    distance_km: 2.62
  - name: MAHAFFEY
    distance_km: 9.41
  - name: CHERRYTREE
    distance_km: 9.74
- country: US
  region: PA
  name: Butler
  lat: '40.8616'
  long: "-79.8962"
  nearby_rate_centers:
  - name: BUTLER
    distance_km: 0.2
  - name: MERIDIAN
    distance_km: 5.59
  - name: NIXON
    distance_km: 9.78
- country: US
  region: PA
  name: Byrnedale
  lat: '41.2915'
  long: "-78.5023"
  nearby_rate_centers:
  - name: WEEDVILLE
    distance_km: 1.93
  - name: PENFIELD
    distance_km: 10.55
  - name: KERSEY
    distance_km: 11.69
- country: US
  region: PA
  name: Cairnbrook
  lat: '40.1246'
  long: "-78.8189"
  nearby_rate_centers:
  - name: CENTRAL CY
    distance_km: 2.81
  - name: HOOVERSVL
    distance_km: 8.05
  - name: STOYSTOWN
    distance_km: 11.41
- country: US
  region: PA
  name: California
  lat: '40.0692'
  long: "-79.9152"
  nearby_rate_centers:
  - name: CALIFORNIA
    distance_km: 2.07
  - name: BROWNSVL
    distance_km: 6.34
  - name: CHARLEROI
    distance_km: 7.74
- country: US
  region: PA
  name: Callensburg
  lat: '41.1258'
  long: "-79.5577"
  nearby_rate_centers:
  - name: CALLENSBG
    distance_km: 0.25
  - name: SLIGO
    distance_km: 6.62
  - name: RIMERSBURG
    distance_km: 10.23
- country: US
  region: PA
  name: Callery
  lat: '40.7393'
  long: "-80.0379"
  nearby_rate_centers:
  - name: EVANS CITY
    distance_km: 3.55
  - name: CRIDERSCOR
    distance_km: 5.69
  - name: MARS
    distance_km: 5.81
- country: US
  region: PA
  name: Callimont
  lat: '39.8011'
  long: "-78.9216"
  nearby_rate_centers:
  - name: MEYERSDALE
    distance_km: 8.81
  - name: WELLERSBG
    distance_km: 9.94
  - name: BERLIN
    distance_km: 14.22
- country: US
  region: PA
  name: Calumet
  lat: '40.2189'
  long: "-79.4891"
  nearby_rate_centers:
  - name: MAMMOTH
    distance_km: 4.57
  - name: YOUNGWOOD
    distance_km: 7.8
  - name: MTPLEASANT
    distance_km: 9.07
- country: US
  region: PA
  name: Cambridge Springs
  lat: '41.8020'
  long: "-80.0598"
  nearby_rate_centers:
  - name: CAMBDG SPG
    distance_km: 0.24
  - name: EDINBORO
    distance_km: 10.06
  - name: SAEGERTOWN
    distance_km: 11.89
- country: US
  region: PA
  name: Camp Hill
  lat: '40.2422'
  long: "-76.9274"
  nearby_rate_centers:
  - name: HARISBGZN1
    distance_km: 4.45
  - name: HARISBGZN2
    distance_km: 4.45
  - name: MECHANCSBG
    distance_km: 7.21
  - name: MARYSVILLE
    distance_km: 12.15
- country: US
  region: PA
  name: Campbelltown
  lat: '40.2760'
  long: "-76.5829"
  nearby_rate_centers:
  - name: PALMYRA
    distance_km: 3.76
  - name: HERSHEY
    distance_km: 5.79
  - name: ANNVILLE
    distance_km: 8.71
- country: US
  region: PA
  name: Canadohta Lake
  lat: '41.8176'
  long: "-79.8364"
  nearby_rate_centers:
  - name: LINCOLNVL
    distance_km: 5.58
  - name: UNION CITY
    distance_km: 8.89
  - name: SPARTANSBG
    distance_km: 12.75
- country: US
  region: PA
  name: Canan Station
  lat: '40.4628'
  long: "-78.4320"
  nearby_rate_centers:
  - name: HOLLIDYSBG
    distance_km: 4.74
  - name: ALTOONA
    distance_km: 6.55
  - name: CRESSON
    distance_km: 12.99
- country: US
  region: PA
  name: Canoe Creek
  lat: '40.4736'
  long: "-78.2788"
  nearby_rate_centers:
  - name: WILLIAMSBG
    distance_km: 6.28
  - name: HOLLIDYSBG
    distance_km: 10.39
  - name: ALTOONA
    distance_km: 11.1
- country: US
  region: PA
  name: Canonsburg
  lat: '40.2643'
  long: "-80.1867"
  nearby_rate_centers:
  - name: CANONSBURG
    distance_km: 0.65
  - name: MCMURRAY
    distance_km: 8.77
  - name: HICKORY
    distance_km: 10.95
- country: US
  region: PA
  name: Canton
  lat: '41.6566'
  long: "-76.8529"
  nearby_rate_centers:
  - name: CANTON
    distance_km: 0.47
  - name: LEROY
    distance_km: 12.12
  - name: TROY
    distance_km: 14.79
- country: US
  region: PA
  name: Carbondale
  lat: '41.5714'
  long: "-75.5048"
  nearby_rate_centers:
  - name: CARBONDALE
    distance_km: 0.61
  - name: JERMYN
    distance_km: 4.99
  - name: CHAPMAN LK
    distance_km: 7.61
- country: US
  region: PA
  name: Carlisle
  lat: '40.2000'
  long: "-77.2034"
  nearby_rate_centers:
  - name: CARLISLE
    distance_km: 1.05
  - name: MTHOLLYSPG
    distance_km: 9.42
  - name: MECHANCSBG
    distance_km: 16.9
- country: US
  region: PA
  name: Carlisle Barracks
  lat: '40.2101'
  long: "-77.1730"
  nearby_rate_centers:
  - name: CARLISLE
    distance_km: 1.77
  - name: MTHOLLYSPG
    distance_km: 10.64
  - name: MECHANCSBG
    distance_km: 14.23
- country: US
  region: PA
  name: Carmichaels
  lat: '39.8977'
  long: "-79.9749"
  nearby_rate_centers:
  - name: CARMICHALS
    distance_km: 0.12
  - name: RICES LDG
    distance_km: 5.88
  - name: JEFFERSN
    distance_km: 7.72
- country: US
  region: PA
  name: Carnegie
  lat: '40.4080'
  long: "-80.0861"
  nearby_rate_centers:
  - name: PTGSBNZN14
    distance_km: 0.06
  - name: PTGSBNZN13
    distance_km: 5.88
  - name: PTTSBGZON1
    distance_km: 7.74
  - name: PTTSBGZON2
    distance_km: 7.74
  - name: PTTSBGZON3
    distance_km: 7.74
  - name: PTTSBGZON4
    distance_km: 7.74
  - name: PTTSBGZON5
    distance_km: 7.74
  - name: PTTSBGZON6
    distance_km: 7.74
  - name: PTTSBGZON7
    distance_km: 7.74
  - name: PTTSBGZON8
    distance_km: 7.74
- country: US
  region: PA
  name: Carnot-Moon
  lat: '40.5187'
  long: "-80.2178"
  nearby_rate_centers:
  - name: PTGSBNZN16
    distance_km: 4.02
  - name: GLENWILLRD
    distance_km: 4.32
  - name: PTGSBNZN15
    distance_km: 5.16
- country: US
  region: PA
  name: Carroll Valley
  lat: '39.7499'
  long: "-77.3805"
  nearby_rate_centers:
  - name: FAIRFIELD
    distance_km: 3.96
  - name: BLRDGSUMMT
    distance_km: 9.04
  - name: GETTYSBURG
    distance_km: 15.46
- country: US
  region: PA
  name: Carrolltown
  lat: '40.6048'
  long: "-78.7071"
  nearby_rate_centers:
  - name: CARROLLTN
    distance_km: 0.38
  - name: PATTON
    distance_km: 6.46
  - name: HASTINGS
    distance_km: 7.84
- country: US
  region: PA
  name: Carson Valley
  lat: '40.4492'
  long: "-78.4486"
  nearby_rate_centers:
  - name: HOLLIDYSBG
    distance_km: 5.2
  - name: ALTOONA
    distance_km: 8.54
  - name: CRESSON
    distance_km: 11.76
- country: US
  region: PA
  name: Casanova
  lat: '40.9556'
  long: "-78.1584"
  nearby_rate_centers:
  - name: WINBURNE
    distance_km: 2.38
  - name: PHILIPSBG
    distance_km: 8.55
  - name: OSCEOLA ML
    distance_km: 14.18
- country: US
  region: PA
  name: Cashtown
  lat: '39.8837'
  long: "-77.3532"
  nearby_rate_centers:
  - name: BIGLERVL
    distance_km: 9.79
  - name: FAIRFIELD
    distance_km: 11.23
  - name: GETTYSBURG
    distance_km: 11.8
- country: US
  region: PA
  name: Cassandra
  lat: '40.4085'
  long: "-78.6407"
  nearby_rate_centers:
  - name: PORTAGE
    distance_km: 3.73
  - name: CRESSON
    distance_km: 8.09
  - name: EBENSBURG
    distance_km: 10.91
- country: US
  region: PA
  name: Casselman
  lat: '39.8857'
  long: "-79.2112"
  nearby_rate_centers:
  - name: ROCKWOOD
    distance_km: 6.44
  - name: CONFLUENCE
    distance_km: 15.25
  - name: SOMERSET
    distance_km: 17.71
- country: US
  region: PA
  name: Cassville
  lat: '40.2928'
  long: "-78.0272"
  nearby_rate_centers:
  - name: THREE SPG
    distance_km: 11.91
  - name: ORBISONIA
    distance_km: 12.67
  - name: MOUNTUNION
    distance_km: 15.66
- country: US
  region: PA
  name: Castle Shannon
  lat: '40.3664'
  long: "-80.0194"
  nearby_rate_centers:
  - name: PTGSBNZN12
    distance_km: 3.62
  - name: PTGSBNZN11
    distance_km: 6.03
  - name: PTGSBNZN14
    distance_km: 7.29
- country: US
  region: PA
  name: Catasauqua
  lat: '40.6531'
  long: "-75.4643"
  nearby_rate_centers:
  - name: CATASAUQUA
    distance_km: 1.21
  - name: NORTHAMPTN
    distance_km: 3.94
  - name: ALLENTOWN
    distance_km: 5.46
- country: US
  region: PA
  name: Catawissa
  lat: '40.9531'
  long: "-76.4604"
  nearby_rate_centers:
  - name: CATAWISSA
    distance_km: 0.58
  - name: BLOOMSBURG
    distance_km: 5.24
  - name: NUMIDIA
    distance_km: 9.25
- country: US
  region: PA
  name: Cecil-Bishop
  lat: '40.3185'
  long: "-80.1919"
  nearby_rate_centers:
  - name: CANONSBURG
    distance_km: 6.67
  - name: MCDONALD
    distance_km: 7.39
  - name: PTGSBNZN13
    distance_km: 8.39
- country: US
  region: PA
  name: Cedar Crest
  lat: '40.3966'
  long: "-77.8858"
  nearby_rate_centers:
  - name: MOUNTUNION
    distance_km: 1.22
  - name: HUNTINGDON
    distance_km: 14.39
  - name: ALLENSVL
    distance_km: 16.08
- country: US
  region: PA
  name: Cementon
  lat: '40.6890'
  long: "-75.5161"
  nearby_rate_centers:
  - name: NORTHAMPTN
    distance_km: 2.38
  - name: IRONTON
    distance_km: 5.33
  - name: CATASAUQUA
    distance_km: 5.55
- country: US
  region: PA
  name: Centerport
  lat: '40.4865'
  long: "-76.0056"
  nearby_rate_centers:
  - name: LEESPORT
    distance_km: 5.43
  - name: HAMBURG
    distance_km: 7.48
  - name: BERNVILLE
    distance_km: 10.95
- country: US
  region: PA
  name: Centerville
  lat: '40.0300'
  long: "-79.9633"
  nearby_rate_centers:
  - name: RICHEYVL
    distance_km: 4.65
  - name: FREDERCKTN
    distance_km: 4.76
  - name: BROWNSVL
    distance_km: 6.39
- country: US
  region: PA
  name: Central City
  lat: '40.1096'
  long: "-78.8043"
  nearby_rate_centers:
  - name: CENTRAL CY
    distance_km: 1.05
  - name: HOOVERSVL
    distance_km: 9.88
  - name: STOYSTOWN
    distance_km: 12.41
- country: US
  region: PA
  name: Centralia
  lat: '40.8047'
  long: "-76.3439"
  nearby_rate_centers:
  - name: ASHLAND
    distance_km: 2.4
  - name: GIRARDVL
    distance_km: 5.17
  - name: MT CARMEL
    distance_km: 6.44
- country: US
  region: PA
  name: Centre Hall
  lat: '40.8448'
  long: "-77.6850"
  nearby_rate_centers:
  - name: CENTREHALL
    distance_km: 0.6
  - name: ZION
    distance_km: 8.14
  - name: SPRING ML
    distance_km: 9.19
- country: US
  region: PA
  name: Cetronia
  lat: '40.5856'
  long: "-75.5438"
  nearby_rate_centers:
  - name: ALLENTOWN
    distance_km: 6.72
  - name: EMMAUS
    distance_km: 7.34
  - name: CATASAUQUA
    distance_km: 8.98
- country: US
  region: PA
  name: Chadds Ford
  lat: '39.8742'
  long: "-75.6040"
  nearby_rate_centers:
  - name: MENDENHALL
    distance_km: 3.61
  - name: LENAPE
    distance_km: 5.42
  - name: WESTTOWN
    distance_km: 8.05
- country: US
  region: PA
  name: Chalfant
  lat: '40.4101'
  long: "-79.8387"
  nearby_rate_centers:
  - name: PTGSBNZN22
    distance_km: 1.07
  - name: PTGSBNZN10
    distance_km: 7.32
  - name: PTGSBNZN21
    distance_km: 8.1
- country: US
  region: PA
  name: Chalfont
  lat: '40.2893'
  long: "-75.2095"
  nearby_rate_centers:
  - name: LINELXNGTN
    distance_km: 3.97
  - name: DOYLESTOWN
    distance_km: 6.63
  - name: PHPHSBZN45
    distance_km: 7.94
- country: US
  region: PA
  name: Chalkhill
  lat: '39.8461'
  long: "-79.6142"
  nearby_rate_centers:
  - name: FARMINGTON
    distance_km: 5.73
  - name: UNIONTOWN
    distance_km: 11.19
  - name: FAIRCHANCE
    distance_km: 12.72
- country: US
  region: PA
  name: Chambersburg
  lat: '39.9315'
  long: "-77.6556"
  nearby_rate_centers:
  - name: CHAMBERSBG
    distance_km: 0.81
  - name: MARION
    distance_km: 8.78
  - name: FAYETTEVL
    distance_km: 9.54
- country: US
  region: PA
  name: Chapman
  lat: '40.7585'
  long: "-75.4013"
  nearby_rate_centers:
  - name: BATH
    distance_km: 3.91
  - name: NAZARETH
    distance_km: 8.25
  - name: KUNKLETOWN
    distance_km: 10.6
- country: US
  region: PA
  name: Charleroi
  lat: '40.1384'
  long: "-79.9002"
  nearby_rate_centers:
  - name: CHARLEROI
    distance_km: 0.62
  - name: MONESSEN
    distance_km: 2.29
  - name: BELLEVRNON
    distance_km: 3.49
- country: US
  region: PA
  name: Charlottsville
  lat: '40.6457'
  long: "-78.2753"
  nearby_rate_centers:
  - name: TYRONE
    distance_km: 4.78
  - name: BELLWOOD
    distance_km: 7.14
  - name: WARIRSMARK
    distance_km: 13.77
- country: US
  region: PA
  name: Chase
  lat: '41.2801'
  long: "-75.9649"
  nearby_rate_centers:
  - name: PLYMOUTH
    distance_km: 4.06
  - name: TRUCKSVL
    distance_km: 4.08
  - name: DALLAS
    distance_km: 5.78
- country: US
  region: PA
  name: Cheltenham Village
  lat: '40.0632'
  long: "-75.0934"
  nearby_rate_centers:
  - name: PHPHSBZN34
    distance_km: 4.99
  - name: PHPHSBZN37
    distance_km: 6.41
  - name: PHPHSBZN38
    distance_km: 8.81
- country: US
  region: PA
  name: Cherry Valley
  lat: '41.1594'
  long: "-79.8012"
  nearby_rate_centers:
  - name: EAU CLAIRE
    distance_km: 1.88
  - name: CLINTONVL
    distance_km: 7.59
  - name: EMLENTON
    distance_km: 8.42
- country: US
  region: PA
  name: Cherryville
  lat: '40.7549'
  long: "-75.5309"
  nearby_rate_centers:
  - name: SLATINGTON
    distance_km: 6.79
  - name: PALMERTON
    distance_km: 8.72
  - name: NORTHAMPTN
    distance_km: 8.72
- country: US
  region: PA
  name: Chesnut Hill
  lat: '40.7236'
  long: "-75.2074"
  nearby_rate_centers:
  - name: EASTON
    distance_km: 4.53
  - name: NAZARETH
    distance_km: 8.54
  - name: RIEGELSVL
    distance_km: 14.8
- country: US
  region: PA
  name: Chest Springs
  lat: '40.5781'
  long: "-78.6107"
  nearby_rate_centers:
  - name: PATTON
    distance_km: 6.77
  - name: CARROLLTN
    distance_km: 8.51
  - name: CRESSON
    distance_km: 12.44
- country: US
  region: PA
  name: Chester
  lat: '39.8456'
  long: "-75.3718"
  nearby_rate_centers:
  - name: PHPHSBZN11
    distance_km: 1.28
  - name: PHPHSBZN13
    distance_km: 6.61
  - name: PHPHSBZN12
    distance_km: 8.58
- country: US
  region: PA
  name: Chester Heights
  lat: '39.8927'
  long: "-75.4698"
  nearby_rate_centers:
  - name: PHPHSBZN10
    distance_km: 0.74
  - name: PHPHSBZN12
    distance_km: 7.17
  - name: WESTTOWN
    distance_km: 8.33
- country: US
  region: PA
  name: Chester Hill
  lat: '40.8903'
  long: "-78.2293"
  nearby_rate_centers:
  - name: PHILIPSBG
    distance_km: 0.86
  - name: OSCEOLA ML
    distance_km: 4.79
  - name: WINBURNE
    distance_km: 11.56
- country: US
  region: PA
  name: Chesterbrook
  lat: '40.0735'
  long: "-75.4582"
  nearby_rate_centers:
  - name: PHPHSBZN28
    distance_km: 3.98
  - name: PHPHSBZN29
    distance_km: 4.66
  - name: PHPHSBZN26
    distance_km: 7.37
- country: US
  region: PA
  name: Cheswick
  lat: '40.5428'
  long: "-79.8013"
  nearby_rate_centers:
  - name: SPRINGDALE
    distance_km: 1.45
  - name: PTGSBNZN20
    distance_km: 4.52
  - name: NEWKNSNGTN
    distance_km: 5.02
- country: US
  region: PA
  name: Chevy Chase Heights
  lat: '40.6403'
  long: "-79.1456"
  nearby_rate_centers:
  - name: INDIANA
    distance_km: 2.04
  - name: HOMER CITY
    distance_km: 10.91
  - name: CLYMER
    distance_km: 12.19
- country: US
  region: PA
  name: Chewton
  lat: '40.8946'
  long: "-80.3208"
  nearby_rate_centers:
  - name: WAMPUM
    distance_km: 2.25
  - name: ELLWOOD CY
    distance_km: 5.04
  - name: PRINCETON
    distance_km: 10.8
- country: US
  region: PA
  name: Cheyney University
  lat: '39.9343'
  long: "-75.5306"
  nearby_rate_centers:
  - name: WESTTOWN
    distance_km: 1.75
  - name: PHPHSBZN10
    distance_km: 6.73
  - name: W CHESTER
    distance_km: 7.08
- country: US
  region: PA
  name: Chicora
  lat: '40.9505'
  long: "-79.7401"
  nearby_rate_centers:
  - name: CHICORA
    distance_km: 0.25
  - name: PETROLIA
    distance_km: 7.79
  - name: EAST BRADY
    distance_km: 11.7
- country: US
  region: PA
  name: Chinchilla
  lat: '41.4846'
  long: "-75.6660"
  nearby_rate_centers:
  - name: CLARKSSMMT
    distance_km: 2.74
  - name: OLYPHANT
    distance_km: 6.83
  - name: DALTON
    distance_km: 8.15
- country: US
  region: PA
  name: Christiana
  lat: '39.9545'
  long: "-75.9970"
  nearby_rate_centers:
  - name: ATGLEN
    distance_km: 1.9
  - name: GAP
    distance_km: 4.88
  - name: PARKESBURG
    distance_km: 6.89
- country: US
  region: PA
  name: Church Hill
  lat: '40.6926'
  long: "-77.5949"
  nearby_rate_centers:
  - name: REEDSVILLE
    distance_km: 2.83
  - name: LEWISTOWN
    distance_km: 11.01
  - name: BELLEVILLE
    distance_km: 14.61
- country: US
  region: PA
  name: Churchill
  lat: '40.4389'
  long: "-79.8416"
  nearby_rate_centers:
  - name: PTGSBNZN22
    distance_km: 3.46
  - name: PTGSBNZN21
    distance_km: 4.89
  - name: PTGSBNZN20
    distance_km: 8.66
- country: US
  region: PA
  name: Churchtown
  lat: '40.1350'
  long: "-75.9593"
  nearby_rate_centers:
  - name: HONEYBROOK
    distance_km: 5.67
  - name: MORGANTOWN
    distance_km: 6.43
  - name: TERRE HILL
    distance_km: 7.99
- country: US
  region: PA
  name: Churchville
  lat: '40.1922'
  long: "-74.9982"
  nearby_rate_centers:
  - name: PHPHSBZN40
    distance_km: 2.06
  - name: NEWTOWN
    distance_km: 6.53
  - name: PHPHSBZN43
    distance_km: 7.38
- country: US
  region: PA
  name: Clairton
  lat: '40.2976'
  long: "-79.8854"
  nearby_rate_centers:
  - name: CLAIRTON
    distance_km: 2.53
  - name: ELIZABETH
    distance_km: 2.62
  - name: PTGSBNZN10
    distance_km: 5.8
- country: US
  region: PA
  name: Clappertown
  lat: '40.4029'
  long: "-78.2779"
  nearby_rate_centers:
  - name: WILLIAMSBG
    distance_km: 8.9
  - name: MARKLESBG
    distance_km: 9.06
  - name: HOLLIDYSBG
    distance_km: 10.14
- country: US
  region: PA
  name: Clarence
  lat: '41.0466'
  long: "-77.9507"
  nearby_rate_centers:
  - name: SNOW SHOE
    distance_km: 1.63
  - name: WINBURNE
    distance_km: 18.62
  - name: BELLEFONTE
    distance_km: 20.88
- country: US
  region: PA
  name: Clarendon
  lat: '41.7806'
  long: "-79.0940"
  nearby_rate_centers:
  - name: WARREN
    distance_km: 8.75
  - name: SHEFFIELD
    distance_km: 10.57
  - name: LUDLOW
    distance_km: 14.68
- country: US
  region: PA
  name: Clarion
  lat: '41.2106'
  long: "-79.3803"
  nearby_rate_centers:
  - name: CLARION
    distance_km: 0.66
  - name: STRATTANVL
    distance_km: 4.54
  - name: SHIPPENVL
    distance_km: 8.42
- country: US
  region: PA
  name: Clark
  lat: '41.2831'
  long: "-80.4088"
  nearby_rate_centers:
  - name: TRANSFER
    distance_km: 5.84
  - name: SHARPSVL
    distance_km: 6.94
  - name: SHARON
    distance_km: 9.47
- country: US
  region: PA
  name: Clarks Green
  lat: '41.5009'
  long: "-75.6952"
  nearby_rate_centers:
  - name: CLARKSSMMT
    distance_km: 1.16
  - name: DALTON
    distance_km: 5.12
  - name: OLYPHANT
    distance_km: 9.62
- country: US
  region: PA
  name: Clarks Summit
  lat: '41.4902'
  long: "-75.7065"
  nearby_rate_centers:
  - name: CLARKSSMMT
    distance_km: 0.72
  - name: DALTON
    distance_km: 5.41
  - name: SCRANTON
    distance_km: 9.63
- country: US
  region: PA
  name: Clarksville
  lat: '39.9745'
  long: "-80.0440"
  nearby_rate_centers:
  - name: JEFFERSN
    distance_km: 4.31
  - name: FREDERCKTN
    distance_km: 4.48
  - name: RICES LDG
    distance_km: 5.43
- country: US
  region: PA
  name: Claysburg
  lat: '40.2915'
  long: "-78.4514"
  nearby_rate_centers:
  - name: CLAYSBURG
    distance_km: 0.27
  - name: ROARINGSPG
    distance_km: 5.37
  - name: MARTINSBG
    distance_km: 10.62
- country: US
  region: PA
  name: Claysville
  lat: '40.1199'
  long: "-80.4131"
  nearby_rate_centers:
  - name: CLAYSVILLE
    distance_km: 0.49
  - name: TAYLORSTN
    distance_km: 5.16
  - name: WALEXANDER
    distance_km: 8.37
- country: US
  region: PA
  name: Clearfield
  lat: '41.0216'
  long: "-78.4390"
  nearby_rate_centers:
  - name: CLEARFIELD
    distance_km: 0.37
  - name: CURWENSVL
    distance_km: 8.46
  - name: FRENCHVL
    distance_km: 21.06
- country: US
  region: PA
  name: Cleona
  lat: '40.3385'
  long: "-76.4771"
  nearby_rate_centers:
  - name: ANNVILLE
    distance_km: 3.25
  - name: LEBANON
    distance_km: 5.43
  - name: JONESTOWN
    distance_km: 8.53
- country: US
  region: PA
  name: Clifton Heights
  lat: '39.9301'
  long: "-75.2958"
  nearby_rate_centers:
  - name: PHPHSBZN17
    distance_km: 1.93
  - name: PHPHSBZN14
    distance_km: 3.65
  - name: PHPHSBZN21
    distance_km: 4.27
- country: US
  region: PA
  name: Clinton
  lat: '40.4923'
  long: "-80.2970"
  nearby_rate_centers:
  - name: MURDOCKSVL
    distance_km: 5.51
  - name: IMPERIAL
    distance_km: 6.47
  - name: GLENWILLRD
    distance_km: 9.48
- country: US
  region: PA
  name: Clintondale
  lat: '41.0199'
  long: "-77.5199"
  nearby_rate_centers:
  - name: BEECHCREEK
    distance_km: 8.85
  - name: MILL HALL
    distance_km: 10.11
  - name: HOWARD
    distance_km: 11.74
- country: US
  region: PA
  name: Clintonville
  lat: '41.2016'
  long: "-79.8748"
  nearby_rate_centers:
  - name: CLINTONVL
    distance_km: 0.16
  - name: WESLEY
    distance_km: 8.88
  - name: EAU CLAIRE
    distance_km: 9.44
- country: US
  region: PA
  name: Clymer
  lat: '40.6684'
  long: "-79.0134"
  nearby_rate_centers:
  - name: CLYMER
    distance_km: 1.07
  - name: INDIANA
    distance_km: 12.76
  - name: MARION CTR
    distance_km: 15.27
- country: US
  region: PA
  name: Coal Center
  lat: '40.0700'
  long: "-79.9009"
  nearby_rate_centers:
  - name: CALIFORNIA
    distance_km: 0.98
  - name: BROWNSVL
    distance_km: 6.14
  - name: FAYETTE CY
    distance_km: 6.79
- country: US
  region: PA
  name: Coaldale
  lat: '40.8197'
  long: "-75.9161"
  nearby_rate_centers:
  - name: LANSFORD
    distance_km: 3.4
  - name: TAMAQUA
    distance_km: 4.58
  - name: MANTZVILLE
    distance_km: 7.46
- country: US
  region: PA
  name: Coalmont
  lat: '40.2113'
  long: "-78.2000"
  nearby_rate_centers:
  - name: SAXTON
    distance_km: 3.78
  - name: HOPEWELL
    distance_km: 10.9
  - name: NEWGRENADA
    distance_km: 13.04
- country: US
  region: PA
  name: Coalport
  lat: '40.7476'
  long: "-78.5320"
  nearby_rate_centers:
  - name: COALPORT
    distance_km: 0.24
  - name: GLASGOW
    distance_km: 8.15
  - name: PATTON
    distance_km: 15.6
- country: US
  region: PA
  name: Coatesville
  lat: '39.9849'
  long: "-75.8200"
  nearby_rate_centers:
  - name: COATESVL
    distance_km: 0.12
  - name: MORTONVL
    distance_km: 5.67
  - name: PARKESBURG
    distance_km: 8.66
- country: US
  region: PA
  name: Coburn
  lat: '40.8653'
  long: "-77.4634"
  nearby_rate_centers:
  - name: MILLHEIM
    distance_km: 3.02
  - name: SPRING ML
    distance_km: 9.61
  - name: CENTREHALL
    distance_km: 19.38
- country: US
  region: PA
  name: Cochranton
  lat: '41.5191'
  long: "-80.0470"
  nearby_rate_centers:
  - name: COCHRANTON
    distance_km: 0.58
  - name: GUYS MILLS
    distance_km: 14.12
  - name: COOPERSTN
    distance_km: 14.4
- country: US
  region: PA
  name: Cochranville
  lat: '39.8905'
  long: "-75.9241"
  nearby_rate_centers:
  - name: PARKESBURG
    distance_km: 7.8
  - name: ATGLEN
    distance_km: 8.18
  - name: WEST GROVE
    distance_km: 11.29
- country: US
  region: PA
  name: Cokeburg
  lat: '40.1000'
  long: "-80.0656"
  nearby_rate_centers:
  - name: SCENERY HL
    distance_km: 1.88
  - name: BENTLEYVL
    distance_km: 4.43
  - name: RICHEYVL
    distance_km: 7.04
- country: US
  region: PA
  name: Collegeville
  lat: '40.1873'
  long: "-75.4581"
  nearby_rate_centers:
  - name: COLLEGEVL
    distance_km: 0.72
  - name: ROYERSFORD
    distance_km: 7.27
  - name: SCHWENKSVL
    distance_km: 7.92
- country: US
  region: PA
  name: Collingdale
  lat: '39.9151'
  long: "-75.2776"
  nearby_rate_centers:
  - name: PHPHSBZN14
    distance_km: 2.27
  - name: PHPHSBZN17
    distance_km: 2.92
  - name: PHPHSBZN21
    distance_km: 6.17
- country: US
  region: PA
  name: Collinsburg
  lat: '40.2196'
  long: "-79.7849"
  nearby_rate_centers:
  - name: WESTNEWTON
    distance_km: 1.79
  - name: HERMINIE
    distance_km: 7.91
  - name: DONORA
    distance_km: 7.96
- country: US
  region: PA
  name: Colonial Park
  lat: '40.2987'
  long: "-76.8069"
  nearby_rate_centers:
  - name: HARISBGZN1
    distance_km: 7.55
  - name: HARISBGZN2
    distance_km: 7.55
  - name: HUMMELSTN
    distance_km: 8.9
  - name: MARYSVILLE
    distance_km: 12.21
- country: US
  region: PA
  name: Colony Park
  lat: '40.3465'
  long: "-75.9827"
  nearby_rate_centers:
  - name: READING
    distance_km: 5.08
  - name: LEESPORT
    distance_km: 11.37
  - name: GREENHILLS
    distance_km: 11.8
- country: US
  region: PA
  name: Columbia
  lat: '40.0347'
  long: "-76.4944"
  nearby_rate_centers:
  - name: COLUMBIA
    distance_km: 0.43
  - name: WRIGHTSVL
    distance_km: 4.05
  - name: MOUNTVILLE
    distance_km: 5.01
- country: US
  region: PA
  name: Colver
  lat: '40.5426'
  long: "-78.7891"
  nearby_rate_centers:
  - name: COLVER
    distance_km: 0.62
  - name: EBENSBURG
    distance_km: 8.58
  - name: NANTY GLO
    distance_km: 9.19
- country: US
  region: PA
  name: Colwyn
  lat: '39.9119'
  long: "-75.2530"
  nearby_rate_centers:
  - name: PHPHSBZN14
    distance_km: 3.61
  - name: PHPHSBZN17
    distance_km: 3.94
  - name: PHPHSBZN21
    distance_km: 7.33
- country: US
  region: PA
  name: Commodore
  lat: '40.7154'
  long: "-78.9375"
  nearby_rate_centers:
  - name: CLYMER
    distance_km: 7.4
  - name: CHERRYTREE
    distance_km: 11.65
  - name: GLENCMPBLL
    distance_km: 14.67
- country: US
  region: PA
  name: Conashaugh Lakes
  lat: '41.3041'
  long: "-74.9933"
  nearby_rate_centers:
  - name: LORDS VLY
    distance_km: 8.09
  - name: DINGMAFRRY
    distance_km: 13.08
  - name: MILFORD
    distance_km: 16.1
- country: US
  region: PA
  name: Confluence
  lat: '39.8095'
  long: "-79.3552"
  nearby_rate_centers:
  - name: CONFLUENCE
    distance_km: 0.41
  - name: FARMINGTON
    distance_km: 18.07
  - name: ROCKWOOD
    distance_km: 21.37
- country: US
  region: PA
  name: Conneaut Lake
  lat: '41.6027'
  long: "-80.3093"
  nearby_rate_centers:
  - name: CONNEAUTLK
    distance_km: 0.55
  - name: LINESVILLE
    distance_km: 11.27
  - name: WESTFORD
    distance_km: 14.51
- country: US
  region: PA
  name: Conneaut Lakeshore
  lat: '41.6272'
  long: "-80.3102"
  nearby_rate_centers:
  - name: CONNEAUTLK
    distance_km: 3.26
  - name: LINESVILLE
    distance_km: 9.95
  - name: MEADVILLE
    distance_km: 14.03
- country: US
  region: PA
  name: Conneautville
  lat: '41.7577'
  long: "-80.3684"
  nearby_rate_centers:
  - name: CONNEAUTVL
    distance_km: 0.21
  - name: LINESVILLE
    distance_km: 11.86
  - name: ALBION
    distance_km: 14.69
- country: US
  region: PA
  name: Connellsville
  lat: '40.0161'
  long: "-79.5893"
  nearby_rate_centers:
  - name: CONNELLSVL
    distance_km: 0.62
  - name: DAWSON
    distance_km: 6.74
  - name: SCOTTDALE
    distance_km: 9.13
- country: US
  region: PA
  name: Conshohocken
  lat: '40.0772'
  long: "-75.3034"
  nearby_rate_centers:
  - name: PHPHSBZN31
    distance_km: 0.69
  - name: NORRISTOWN
    distance_km: 6.07
  - name: PHPHSBZN30
    distance_km: 6.07
  - name: PHPHSBZN25
    distance_km: 6.23
- country: US
  region: PA
  name: Continental Courts
  lat: '40.8705'
  long: "-77.8658"
  nearby_rate_centers:
  - name: STATECOLLG
    distance_km: 8.5
  - name: BELLEFONTE
    distance_km: 8.65
  - name: BOALSBURG
    distance_km: 12.1
- country: US
  region: PA
  name: Conway
  lat: '40.6674'
  long: "-80.2411"
  nearby_rate_centers:
  - name: BADEN
    distance_km: 4.03
  - name: ROCHESTER
    distance_km: 4.7
  - name: ALIQUIPPA
    distance_km: 6.55
- country: US
  region: PA
  name: Conyngham
  lat: '40.9913'
  long: "-76.0599"
  nearby_rate_centers:
  - name: CNYNGHDRMS
    distance_km: 3.14
  - name: HAZLETON
    distance_km: 7.19
  - name: WAPWALLOPN
    distance_km: 10.49
- country: US
  region: PA
  name: Coopersburg
  lat: '40.5102'
  long: "-75.3915"
  nearby_rate_centers:
  - name: COOPERSBG
    distance_km: 0.64
  - name: QUAKERTOWN
    distance_km: 8.64
  - name: EMMAUS
    distance_km: 8.85
- country: US
  region: PA
  name: Cooperstown
  lat: '41.4998'
  long: "-79.8736"
  nearby_rate_centers:
  - name: COOPERSTN
    distance_km: 0.3
  - name: FRANKLIN
    distance_km: 12.12
  - name: COCHRANTON
    distance_km: 15.03
- country: US
  region: PA
  name: Coplay
  lat: '40.6710'
  long: "-75.4961"
  nearby_rate_centers:
  - name: NORTHAMPTN
    distance_km: 1.48
  - name: CATASAUQUA
    distance_km: 2.94
  - name: IRONTON
    distance_km: 6.42
- country: US
  region: PA
  name: Coral
  lat: '40.5020'
  long: "-79.1746"
  nearby_rate_centers:
  - name: BLACK LICK
    distance_km: 3.08
  - name: HOMER CITY
    distance_km: 4.75
  - name: PARKWOOD
    distance_km: 9.45
- country: US
  region: PA
  name: Coraopolis
  lat: '40.5148'
  long: "-80.1627"
  nearby_rate_centers:
  - name: PTGSBNZN15
    distance_km: 0.8
  - name: PTGSBNZN16
    distance_km: 3.3
  - name: GLENWILLRD
    distance_km: 7.03
- country: US
  region: PA
  name: Cornwall
  lat: '40.2659'
  long: "-76.4077"
  nearby_rate_centers:
  - name: MT GRETNA
    distance_km: 5.91
  - name: LEBANON
    distance_km: 8.44
  - name: SCHAEFESTN
    distance_km: 10.51
- country: US
  region: PA
  name: Cornwells Heights
  lat: '40.0771'
  long: "-74.9517"
  nearby_rate_centers:
  - name: PHPHSBZN41
    distance_km: 0.24
  - name: PHPHSBZN42
    distance_km: 9.35
  - name: PHPHSBZN37
    distance_km: 10.7
- country: US
  region: PA
  name: Corry
  lat: '41.9259'
  long: "-79.6358"
  nearby_rate_centers:
  - name: CORRY
    distance_km: 0.76
  - name: SPARTANSBG
    distance_km: 11.76
  - name: WATTSBURG
    distance_km: 16.49
- country: US
  region: PA
  name: Corsica
  lat: '41.1813'
  long: "-79.2026"
  nearby_rate_centers:
  - name: CORSICA
    distance_km: 0.62
  - name: SUMMERVL
    distance_km: 7.37
  - name: STRATTANVL
    distance_km: 10.69
- country: US
  region: PA
  name: Cotton Town
  lat: '40.2798'
  long: "-78.4811"
  nearby_rate_centers:
  - name: CLAYSBURG
    distance_km: 3.06
  - name: ROARINGSPG
    distance_km: 7.97
  - name: OSTERBURG
    distance_km: 12.15
- country: US
  region: PA
  name: Coudersport
  lat: '41.7758'
  long: "-78.0160"
  nearby_rate_centers:
  - name: COUDERSPT
    distance_km: 0.38
  - name: ROULETTE
    distance_km: 11.74
  - name: AUSTIN
    distance_km: 17.05
- country: US
  region: PA
  name: Courtdale
  lat: '41.2849'
  long: "-75.9143"
  nearby_rate_centers:
  - name: KINGSTON
    distance_km: 2.17
  - name: TRUCKSVL
    distance_km: 2.65
  - name: PLYMOUTH
    distance_km: 4.52
- country: US
  region: PA
  name: Cove Forge
  lat: '40.4790'
  long: "-78.1735"
  nearby_rate_centers:
  - name: WILLIAMSBG
    distance_km: 3.39
  - name: MCONELLSTN
    distance_km: 8.33
  - name: MARKLESBG
    distance_km: 10.58
- country: US
  region: PA
  name: Crabtree
  lat: '40.3637'
  long: "-79.4695"
  nearby_rate_centers:
  - name: NEWALXNDRI
    distance_km: 5.73
  - name: LATROBE
    distance_km: 9.07
  - name: DELMONT
    distance_km: 9.78
- country: US
  region: PA
  name: Crafton
  lat: '40.4333'
  long: "-80.0712"
  nearby_rate_centers:
  - name: PTGSBNZN14
    distance_km: 3.15
  - name: PTTSBGZON1
    distance_km: 5.76
  - name: PTTSBGZON2
    distance_km: 5.76
  - name: PTTSBGZON3
    distance_km: 5.76
  - name: PTTSBGZON4
    distance_km: 5.76
  - name: PTTSBGZON5
    distance_km: 5.76
  - name: PTTSBGZON6
    distance_km: 5.76
  - name: PTTSBGZON7
    distance_km: 5.76
  - name: PTTSBGZON8
    distance_km: 5.76
  - name: PTGSBNZN13
    distance_km: 8.95
- country: US
  region: PA
  name: Cranesville
  lat: '41.9040'
  long: "-80.3418"
  nearby_rate_centers:
  - name: ALBION
    distance_km: 2.68
  - name: GIRARD
    distance_km: 11.69
  - name: WSPRINGFLD
    distance_km: 12.24
- country: US
  region: PA
  name: Creekside
  lat: '40.6810'
  long: "-79.1932"
  nearby_rate_centers:
  - name: INDIANA
    distance_km: 7.36
  - name: MARION CTR
    distance_km: 9.9
  - name: ELDERTON
    distance_km: 12.86
- country: US
  region: PA
  name: Crenshaw
  lat: '41.2488'
  long: "-78.7541"
  nearby_rate_centers:
  - name: BROCKWAY
    distance_km: 3.19
  - name: DUBOIS
    distance_km: 14.51
  - name: PENFIELD
    distance_km: 15.37
- country: US
  region: PA
  name: Cresson
  lat: '40.4626'
  long: "-78.5866"
  nearby_rate_centers:
  - name: CRESSON
    distance_km: 0.6
  - name: PORTAGE
    distance_km: 11.25
  - name: EBENSBURG
    distance_km: 11.85
- country: US
  region: PA
  name: Cressona
  lat: '40.6304'
  long: "-76.1939"
  nearby_rate_centers:
  - name: SCHUYLKHVN
    distance_km: 1.62
  - name: FRIEDENSBG
    distance_km: 5.1
  - name: POTTSVILLE
    distance_km: 6.99
- country: US
  region: PA
  name: Cross Keys
  lat: '40.4458'
  long: "-78.4293"
  nearby_rate_centers:
  - name: HOLLIDYSBG
    distance_km: 3.54
  - name: ALTOONA
    distance_km: 8.21
  - name: ROARINGSPG
    distance_km: 12.74
- country: US
  region: PA
  name: Cross Roads
  lat: '39.8200'
  long: "-76.5728"
  nearby_rate_centers:
  - name: STEWARTSTN
    distance_km: 7.89
  - name: RED LION
    distance_km: 9.4
  - name: BROGUE
    distance_km: 9.79
- country: US
  region: PA
  name: Crown
  lat: '41.3916'
  long: "-79.2634"
  nearby_rate_centers:
  - name: LEEPER
    distance_km: 3.98
  - name: MARIENVL
    distance_km: 14.29
  - name: VENUS
    distance_km: 17.78
- country: US
  region: PA
  name: Croydon
  lat: '40.0911'
  long: "-74.8975"
  nearby_rate_centers:
  - name: PHPHSBZN42
    distance_km: 4.51
  - name: PHPHSBZN41
    distance_km: 4.85
  - name: PHPHSBZN44
    distance_km: 8.24
- country: US
  region: PA
  name: Crucible
  lat: '39.9479'
  long: "-79.9657"
  nearby_rate_centers:
  - name: RICES LDG
    distance_km: 2.02
  - name: CARMICHALS
    distance_km: 5.53
  - name: FREDERCKTN
    distance_km: 6.64
- country: US
  region: PA
  name: Culp
  lat: '40.5825'
  long: "-78.2632"
  nearby_rate_centers:
  - name: BELLWOOD
    distance_km: 6.04
  - name: TYRONE
    distance_km: 10.57
  - name: ALTOONA
    distance_km: 13.59
- country: US
  region: PA
  name: Cumbola
  lat: '40.7139'
  long: "-76.1433"
  nearby_rate_centers:
  - name: NEWPHLDLPH
    distance_km: 1.94
  - name: ST CLAIR
    distance_km: 4.25
  - name: POTTSVILLE
    distance_km: 5.42
- country: US
  region: PA
  name: Curryville
  lat: '40.2760'
  long: "-78.3378"
  nearby_rate_centers:
  - name: MARTINSBG
    distance_km: 3.7
  - name: ROARINGSPG
    distance_km: 9.08
  - name: CLAYSBURG
    distance_km: 9.71
- country: US
  region: PA
  name: Curtisville
  lat: '40.6497'
  long: "-79.8492"
  nearby_rate_centers:
  - name: CURTISVL
    distance_km: 0.98
  - name: COOPERSTWN
    distance_km: 9.65
  - name: GIBSONIA
    distance_km: 10.04
- country: US
  region: PA
  name: Curwensville
  lat: '40.9735'
  long: "-78.5190"
  nearby_rate_centers:
  - name: CURWENSVL
    distance_km: 0.24
  - name: CLEARFIELD
    distance_km: 8.84
  - name: LUTHERSBG
    distance_km: 18.62
- country: US
  region: PA
  name: Daisytown
  lat: '40.3201'
  long: "-78.9035"
  nearby_rate_centers:
  - name: JOHNSTOWN
    distance_km: 1.54
  - name: DAVIDSVL
    distance_km: 11.2
  - name: SOUTH FORK
    distance_km: 11.26
- country: US
  region: PA
  name: Dale
  lat: '40.3122'
  long: "-78.9050"
  nearby_rate_centers:
  - name: JOHNSTOWN
    distance_km: 2.11
  - name: DAVIDSVL
    distance_km: 10.32
  - name: WINDBER
    distance_km: 10.94
- country: US
  region: PA
  name: Dallastown
  lat: '39.8996'
  long: "-76.6410"
  nearby_rate_centers:
  - name: RED LION
    distance_km: 2.62
  - name: LOGANVILLE
    distance_km: 7.41
  - name: YORK
    distance_km: 10.17
- country: US
  region: PA
  name: Dalmatia
  lat: '40.6500'
  long: "-76.9027"
  nearby_rate_centers:
  - name: MANDATA
    distance_km: 7.66
  - name: LIVERPOOL
    distance_km: 10.98
  - name: MTPLSANTML
    distance_km: 12.58
- country: US
  region: PA
  name: Dalton
  lat: '41.5382'
  long: "-75.7390"
  nearby_rate_centers:
  - name: DALTON
    distance_km: 0.82
  - name: FACTORYVL
    distance_km: 4.79
  - name: CLARKSSMMT
    distance_km: 6.3
- country: US
  region: PA
  name: Danville
  lat: '40.9615'
  long: "-76.6121"
  nearby_rate_centers:
  - name: DANVILLE
    distance_km: 0.8
  - name: WASHIGTNVL
    distance_km: 11.22
  - name: ELYSBURG
    distance_km: 11.72
- country: US
  region: PA
  name: Darby
  lat: '39.9210'
  long: "-75.2610"
  nearby_rate_centers:
  - name: PHPHSBZN17
    distance_km: 2.72
  - name: PHPHSBZN14
    distance_km: 3.66
  - name: PHPHSBZN21
    distance_km: 6.12
- country: US
  region: PA
  name: Dauberville
  lat: '40.4606'
  long: "-75.9983"
  nearby_rate_centers:
  - name: LEESPORT
    distance_km: 3.06
  - name: HAMBURG
    distance_km: 10.16
  - name: BERNVILLE
    distance_km: 10.27
- country: US
  region: PA
  name: Dauphin
  lat: '40.3683'
  long: "-76.9296"
  nearby_rate_centers:
  - name: DAUPHIN
    distance_km: 0.27
  - name: MARYSVILLE
    distance_km: 1.91
  - name: DUNCANNON
    distance_km: 9.26
- country: US
  region: PA
  name: Davidsville
  lat: '40.2348'
  long: "-78.9356"
  nearby_rate_centers:
  - name: DAVIDSVL
    distance_km: 1.34
  - name: WINDBER
    distance_km: 9.11
  - name: HOOVERSVL
    distance_km: 9.55
- country: US
  region: PA
  name: Dawson
  lat: '40.0474'
  long: "-79.6570"
  nearby_rate_centers:
  - name: DAWSON
    distance_km: 0.58
  - name: CONNELLSVL
    distance_km: 6.16
  - name: SCOTTDALE
    distance_km: 8.35
- country: US
  region: PA
  name: Dayton
  lat: '40.8812'
  long: "-79.2411"
  nearby_rate_centers:
  - name: DAYTON
    distance_km: 0.63
  - name: TIMBLIN
    distance_km: 10.01
  - name: RURAL VLY
    distance_km: 10.66
- country: US
  region: PA
  name: DeSales University
  lat: '40.5382'
  long: "-75.3782"
  nearby_rate_centers:
  - name: COOPERSBG
    distance_km: 2.67
  - name: HELLERTOWN
    distance_km: 6.07
  - name: BETHLEHEM
    distance_km: 7.75
- country: US
  region: PA
  name: Deemston
  lat: '40.0273'
  long: "-80.0334"
  nearby_rate_centers:
  - name: FREDERCKTN
    distance_km: 3.96
  - name: RICHEYVL
    distance_km: 3.96
  - name: MARIANNA
    distance_km: 4.69
- country: US
  region: PA
  name: Deer Lake
  lat: '40.6213'
  long: "-76.0565"
  nearby_rate_centers:
  - name: AUBURN
    distance_km: 3.74
  - name: ORWIGSBURG
    distance_km: 5.61
  - name: MCKEANSBG
    distance_km: 7.28
- country: US
  region: PA
  name: Defiance
  lat: '40.1599'
  long: "-78.2319"
  nearby_rate_centers:
  - name: HOPEWELL
    distance_km: 4.81
  - name: SAXTON
    distance_km: 6.26
  - name: LOYSBURG
    distance_km: 12.13
- country: US
  region: PA
  name: Delaware Water Gap
  lat: '40.9750'
  long: "-75.1392"
  nearby_rate_centers:
  - name: STROUDSBG
    distance_km: 4.73
  - name: PORTLAND
    distance_km: 7.25
  - name: BANGOR
    distance_km: 13.19
- country: US
  region: PA
  name: Delmont
  lat: '40.4145'
  long: "-79.5728"
  nearby_rate_centers:
  - name: DELMONT
    distance_km: 0.75
  - name: EXPORT
    distance_km: 4.63
  - name: HARRISONCY
    distance_km: 8.67
- country: US
  region: PA
  name: Delta
  lat: '39.7267'
  long: "-76.3271"
  nearby_rate_centers:
  - name: DELTA
    distance_km: 0.29
  - name: FAWN GROVE
    distance_km: 10.44
  - name: AIRVILLE
    distance_km: 13.82
- country: US
  region: PA
  name: Denver
  lat: '40.2326'
  long: "-76.1392"
  nearby_rate_centers:
  - name: DENVER
    distance_km: 0.04
  - name: ADAMSTOWN
    distance_km: 6.87
  - name: EPHRATA
    distance_km: 7.23
- country: US
  region: PA
  name: Derry
  lat: '40.3335'
  long: "-79.3011"
  nearby_rate_centers:
  - name: DERRY
    distance_km: 0.16
  - name: LATROBE
    distance_km: 7.24
  - name: BLAIRSVL
    distance_km: 11.42
- country: US
  region: PA
  name: Devon
  lat: '40.0496'
  long: "-75.4272"
  nearby_rate_centers:
  - name: PHPHSBZN26
    distance_km: 3.98
  - name: PHPHSBZN28
    distance_km: 4.89
  - name: PHPHSBZN29
    distance_km: 6.33
- country: US
  region: PA
  name: Dewart
  lat: '41.1099'
  long: "-76.8707"
  nearby_rate_centers:
  - name: WATSONTOWN
    distance_km: 2.23
  - name: MONTGOMERY
    distance_km: 7.31
  - name: TURBOTVL
    distance_km: 8.74
- country: US
  region: PA
  name: Dickson City
  lat: '41.4684'
  long: "-75.6358"
  nearby_rate_centers:
  - name: OLYPHANT
    distance_km: 4.29
  - name: CLARKSSMMT
    distance_km: 5.74
  - name: SCRANTON
    distance_km: 6.9
- country: US
  region: PA
  name: Dillsburg
  lat: '40.1103'
  long: "-77.0335"
  nearby_rate_centers:
  - name: DILLSBURG
    distance_km: 0.26
  - name: MECHANCSBG
    distance_km: 12.08
  - name: YORK SPG
    distance_km: 12.9
- country: US
  region: PA
  name: Dilworthtown
  lat: '39.9032'
  long: "-75.5709"
  nearby_rate_centers:
  - name: WESTTOWN
    distance_km: 3.84
  - name: LENAPE
    distance_km: 5.54
  - name: W CHESTER
    distance_km: 7.29
- country: US
  region: PA
  name: Dixonville
  lat: '40.7151'
  long: "-79.0105"
  nearby_rate_centers:
  - name: CLYMER
    distance_km: 4.18
  - name: MARION CTR
    distance_km: 12.53
  - name: INDIANA
    distance_km: 15.76
- country: US
  region: PA
  name: Donaldson
  lat: '40.6363'
  long: "-76.4056"
  nearby_rate_centers:
  - name: TREMONT
    distance_km: 1.25
  - name: PINE GROVE
    distance_km: 10.66
  - name: VALLEYVIEW
    distance_km: 10.68
- country: US
  region: PA
  name: Donegal
  lat: '40.1120'
  long: "-79.3808"
  nearby_rate_centers:
  - name: STAHLSTOWN
    distance_km: 5.64
  - name: INDIANHEAD
    distance_km: 9.93
  - name: MAMMOTH
    distance_km: 10.5
- country: US
  region: PA
  name: Donora
  lat: '40.1789'
  long: "-79.8625"
  nearby_rate_centers:
  - name: DONORA
    distance_km: 0.81
  - name: MONESSEN
    distance_km: 3.38
  - name: BELLEVRNON
    distance_km: 4.73
- country: US
  region: PA
  name: Dormont
  lat: '40.3941'
  long: "-80.0377"
  nearby_rate_centers:
  - name: PTGSBNZN14
    distance_km: 4.39
  - name: PTTSBGZON1
    distance_km: 5.65
  - name: PTTSBGZON2
    distance_km: 5.65
  - name: PTTSBGZON3
    distance_km: 5.65
  - name: PTTSBGZON4
    distance_km: 5.65
  - name: PTTSBGZON5
    distance_km: 5.65
  - name: PTTSBGZON6
    distance_km: 5.65
  - name: PTTSBGZON7
    distance_km: 5.65
  - name: PTTSBGZON8
    distance_km: 5.65
  - name: PTGSBNZN12
    distance_km: 6.7
- country: US
  region: PA
  name: Dorneyville
  lat: '40.5762'
  long: "-75.5194"
  nearby_rate_centers:
  - name: ALLENTOWN
    distance_km: 5.33
  - name: EMMAUS
    distance_km: 5.37
  - name: CATASAUQUA
    distance_km: 8.8
- country: US
  region: PA
  name: Douglassville
  lat: '40.2577'
  long: "-75.7251"
  nearby_rate_centers:
  - name: DOUGLASSVL
    distance_km: 1.51
  - name: BIRDSBORO
    distance_km: 6.76
  - name: POTTSTOWN
    distance_km: 6.98
- country: US
  region: PA
  name: Downingtown
  lat: '40.0076'
  long: "-75.7019"
  nearby_rate_centers:
  - name: DOWNINGTN
    distance_km: 0.36
  - name: EXTON
    distance_km: 6.77
  - name: EAGLE
    distance_km: 8.74
- country: US
  region: PA
  name: Dravosburg
  lat: '40.3508'
  long: "-79.8907"
  nearby_rate_centers:
  - name: PTGSBNZN10
    distance_km: 2.18
  - name: PTGSBNZN11
    distance_km: 5.55
  - name: ELIZABETH
    distance_km: 8.34
- country: US
  region: PA
  name: Drexel Hill
  lat: '39.9495'
  long: "-75.3038"
  nearby_rate_centers:
  - name: PHPHSBZN21
    distance_km: 2.19
  - name: PHPHSBZN17
    distance_km: 2.33
  - name: PHPHSBZN14
    distance_km: 5.89
- country: US
  region: PA
  name: Driftwood
  lat: '41.3448'
  long: "-78.1340"
  nearby_rate_centers:
  - name: DRIFTWOOD
    distance_km: 1.01
  - name: EMPORIUM
    distance_km: 20.02
  - name: FRENCHVL
    distance_km: 27.12
- country: US
  region: PA
  name: Dry Tavern
  lat: '39.9399'
  long: "-80.0095"
  nearby_rate_centers:
  - name: RICES LDG
    distance_km: 2.02
  - name: JEFFERSN
    distance_km: 3.52
  - name: CARMICHALS
    distance_km: 5.43
- country: US
  region: PA
  name: Dryville
  lat: '40.4623'
  long: "-75.7532"
  nearby_rate_centers:
  - name: FLEETWOOD
    distance_km: 6.15
  - name: KUTZTOWN
    distance_km: 6.4
  - name: TOPTON
    distance_km: 6.56
- country: US
  region: PA
  name: DuBois
  lat: '41.1223'
  long: "-78.7565"
  nearby_rate_centers:
  - name: DUBOIS
    distance_km: 0.45
  - name: LUTHERSBG
    distance_km: 8.84
  - name: SYKESVILLE
    distance_km: 9.59
- country: US
  region: PA
  name: Dublin
  lat: '40.3730'
  long: "-75.2041"
  nearby_rate_centers:
  - name: DUBLIN
    distance_km: 0.66
  - name: PLUMSTEDVL
    distance_km: 4.68
  - name: BEDMINSTER
    distance_km: 6.08
- country: US
  region: PA
  name: Duboistown
  lat: '41.2228'
  long: "-77.0380"
  nearby_rate_centers:
  - name: WILLIAMSPT
    distance_km: 3.1
  - name: OVAL
    distance_km: 13.5
  - name: MONTGOMERY
    distance_km: 14.56
- country: US
  region: PA
  name: Dudley
  lat: '40.2053'
  long: "-78.1783"
  nearby_rate_centers:
  - name: SAXTON
    distance_km: 5.7
  - name: NEWGRENADA
    distance_km: 11.24
  - name: HOPEWELL
    distance_km: 11.59
- country: US
  region: PA
  name: Dumb Hundred
  lat: '40.3170'
  long: "-78.4105"
  nearby_rate_centers:
  - name: ROARINGSPG
    distance_km: 1.7
  - name: CLAYSBURG
    distance_km: 4.23
  - name: MARTINSBG
    distance_km: 7.05
- country: US
  region: PA
  name: Duncannon
  lat: '40.3952'
  long: "-77.0277"
  nearby_rate_centers:
  - name: DUNCANNON
    distance_km: 0.55
  - name: DAUPHIN
    distance_km: 8.6
  - name: MARYSVILLE
    distance_km: 9.37
- country: US
  region: PA
  name: Duncansville
  lat: '40.4263'
  long: "-78.4303"
  nearby_rate_centers:
  - name: HOLLIDYSBG
    distance_km: 3.5
  - name: ALTOONA
    distance_km: 10.31
  - name: ROARINGSPG
    distance_km: 10.59
- country: US
  region: PA
  name: Dunlevy
  lat: '40.1130'
  long: "-79.8591"
  nearby_rate_centers:
  - name: BELLEVRNON
    distance_km: 2.61
  - name: FAYETTE CY
    distance_km: 2.64
  - name: CHARLEROI
    distance_km: 5.0
- country: US
  region: PA
  name: Dunlo
  lat: '40.2935'
  long: "-78.7175"
  nearby_rate_centers:
  - name: BEAVERDALE
    distance_km: 2.97
  - name: SOUTH FORK
    distance_km: 9.8
  - name: PORTAGE
    distance_km: 10.91
- country: US
  region: PA
  name: Dunmore
  lat: '41.4152'
  long: "-75.6072"
  nearby_rate_centers:
  - name: SCRANTON
    distance_km: 4.72
  - name: OLYPHANT
    distance_km: 6.87
  - name: MOSCOW
    distance_km: 10.62
- country: US
  region: PA
  name: Dunnstown
  lat: '41.1484'
  long: "-77.4201"
  nearby_rate_centers:
  - name: LOCK HAVEN
    distance_km: 2.77
  - name: WOOLRICH
    distance_km: 7.12
  - name: MILL HALL
    distance_km: 7.6
- country: US
  region: PA
  name: Dupont
  lat: '41.3238'
  long: "-75.7419"
  nearby_rate_centers:
  - name: MOOSIC
    distance_km: 3.24
  - name: PITTSTON
    distance_km: 3.6
  - name: TAYLOR
    distance_km: 5.74
- country: US
  region: PA
  name: Duquesne
  lat: '40.3732'
  long: "-79.8502"
  nearby_rate_centers:
  - name: PTGSBNZN10
    distance_km: 3.13
  - name: PTGSBNZN22
    distance_km: 4.59
  - name: PTGSBNZN11
    distance_km: 9.53
- country: US
  region: PA
  name: Duryea
  lat: '41.3533'
  long: "-75.7757"
  nearby_rate_centers:
  - name: PITTSTON
    distance_km: 3.42
  - name: MOOSIC
    distance_km: 3.46
  - name: HARDING
    distance_km: 3.8
- country: US
  region: PA
  name: Dushore
  lat: '41.5250'
  long: "-76.3987"
  nearby_rate_centers:
  - name: DUSHORE
    distance_km: 0.34
  - name: NEW ALBANY
    distance_km: 9.25
  - name: LAPORTE
    distance_km: 13.45
- country: US
  region: PA
  name: Eagle
  lat: '40.0764'
  long: "-75.6855"
  nearby_rate_centers:
  - name: EAGLE
    distance_km: 0.98
  - name: CHESTERSPG
    distance_km: 6.44
  - name: DOWNINGTN
    distance_km: 7.44
- country: US
  region: PA
  name: Eagle Creek
  lat: '40.8989'
  long: "-77.8935"
  nearby_rate_centers:
  - name: BELLEFONTE
    distance_km: 9.79
  - name: STATECOLLG
    distance_km: 11.93
  - name: SNOW SHOE
    distance_km: 15.49
- country: US
  region: PA
  name: Eagle Lake
  lat: '41.2826'
  long: "-75.4795"
  nearby_rate_centers:
  - name: MOSCOW
    distance_km: 7.62
  - name: NEWFOUNDLD
    distance_km: 13.73
  - name: HAMLIN
    distance_km: 14.81
- country: US
  region: PA
  name: Eagles Mere
  lat: '41.4102'
  long: "-76.5832"
  nearby_rate_centers:
  - name: EAGLESMERE
    distance_km: 0.36
  - name: MUNCY VLY
    distance_km: 6.56
  - name: LAPORTE
    distance_km: 7.93
- country: US
  region: PA
  name: Eagleview
  lat: '40.0598'
  long: "-75.6790"
  nearby_rate_centers:
  - name: EAGLE
    distance_km: 2.77
  - name: DOWNINGTN
    distance_km: 5.77
  - name: EXTON
    distance_km: 5.84
- country: US
  region: PA
  name: Eagleville
  lat: '40.1599'
  long: "-75.4089"
  nearby_rate_centers:
  - name: COLLEGEVL
    distance_km: 5.73
  - name: PHPHSBZN29
    distance_km: 6.08
  - name: CENTER PT
    distance_km: 6.77
- country: US
  region: PA
  name: Earlston
  lat: '40.0038'
  long: "-78.3736"
  nearby_rate_centers:
  - name: EVERETT
    distance_km: 1.58
  - name: CLEARVILLE
    distance_km: 9.63
  - name: BEDFORD
    distance_km: 10.86
- country: US
  region: PA
  name: East Altoona
  lat: '40.5469'
  long: "-78.3636"
  nearby_rate_centers:
  - name: ALTOONA
    distance_km: 4.52
  - name: BELLWOOD
    distance_km: 6.28
  - name: HOLLIDYSBG
    distance_km: 12.71
- country: US
  region: PA
  name: East Bangor
  lat: '40.8811'
  long: "-75.1861"
  nearby_rate_centers:
  - name: BANGOR
    distance_km: 2.47
  - name: PEN ARGYL
    distance_km: 6.28
  - name: PORTLAND
    distance_km: 7.57
- country: US
  region: PA
  name: East Berlin
  lat: '39.9368'
  long: "-76.9793"
  nearby_rate_centers:
  - name: EASTBERLIN
    distance_km: 0.51
  - name: NEW OXFORD
    distance_km: 10.36
  - name: SPRING GRV
    distance_km: 11.85
- country: US
  region: PA
  name: East Berwick
  lat: '41.0657'
  long: "-76.2208"
  nearby_rate_centers:
  - name: BERWICK
    distance_km: 2.03
  - name: WAPWALLOPN
    distance_km: 8.17
  - name: SHICKSHINY
    distance_km: 10.94
- country: US
  region: PA
  name: East Brady
  lat: '40.9836'
  long: "-79.6131"
  nearby_rate_centers:
  - name: EAST BRADY
    distance_km: 0.58
  - name: PETROLIA
    distance_km: 9.21
  - name: CHICORA
    distance_km: 11.53
- country: US
  region: PA
  name: East Butler
  lat: '40.8788'
  long: "-79.8473"
  nearby_rate_centers:
  - name: BUTLER
    distance_km: 4.68
  - name: MERIDIAN
    distance_km: 10.08
  - name: CHICORA
    distance_km: 11.81
- country: US
  region: PA
  name: East Conemaugh
  lat: '40.3476'
  long: "-78.8861"
  nearby_rate_centers:
  - name: JOHNSTOWN
    distance_km: 3.46
  - name: SOUTH FORK
    distance_km: 8.82
  - name: SEWARD
    distance_km: 13.28
- country: US
  region: PA
  name: East Freedom
  lat: '40.3552'
  long: "-78.4305"
  nearby_rate_centers:
  - name: ROARINGSPG
    distance_km: 2.89
  - name: CLAYSBURG
    distance_km: 7.04
  - name: HOLLIDYSBG
    distance_km: 9.44
- country: US
  region: PA
  name: East Greenville
  lat: '40.4057'
  long: "-75.5059"
  nearby_rate_centers:
  - name: PENNSBURG
    distance_km: 0.77
  - name: BALLY
    distance_km: 7.09
  - name: GREEN LANE
    distance_km: 7.75
- country: US
  region: PA
  name: East Lansdowne
  lat: '39.9440'
  long: "-75.2608"
  nearby_rate_centers:
  - name: PHPHSBZN17
    distance_km: 1.55
  - name: PHPHSBZN21
    distance_km: 4.12
  - name: PHPHSBZN14
    distance_km: 5.78
- country: US
  region: PA
  name: East McKeesport
  lat: '40.3848'
  long: "-79.8073"
  nearby_rate_centers:
  - name: PTGSBNZN22
    distance_km: 3.24
  - name: PTGSBNZN10
    distance_km: 6.43
  - name: PTGSBNZN23
    distance_km: 9.87
- country: US
  region: PA
  name: East Petersburg
  lat: '40.1006'
  long: "-76.3511"
  nearby_rate_centers:
  - name: LANDISVL
    distance_km: 5.67
  - name: LITITZ
    distance_km: 7.23
  - name: MANHEIM
    distance_km: 7.28
- country: US
  region: PA
  name: East Pittsburgh
  lat: '40.3969'
  long: "-79.8382"
  nearby_rate_centers:
  - name: PTGSBNZN22
    distance_km: 1.8
  - name: PTGSBNZN10
    distance_km: 5.96
  - name: PTGSBNZN21
    distance_km: 9.56
- country: US
  region: PA
  name: East Prospect
  lat: '39.9711'
  long: "-76.5214"
  nearby_rate_centers:
  - name: WRIGHTSVL
    distance_km: 6.04
  - name: COLUMBIA
    distance_km: 7.4
  - name: MARIETTA
    distance_km: 10.1
- country: US
  region: PA
  name: East Rochester
  lat: '40.6980'
  long: "-80.2689"
  nearby_rate_centers:
  - name: ROCHESTER
    distance_km: 0.58
  - name: BEAVER FLS
    distance_km: 6.38
  - name: BADEN
    distance_km: 8.11
- country: US
  region: PA
  name: East Salem
  lat: '40.6087'
  long: "-77.2370"
  nearby_rate_centers:
  - name: THOMPSONTN
    distance_km: 4.86
  - name: MCALISTRVL
    distance_km: 4.94
  - name: MILLERSTN
    distance_km: 10.06
- country: US
  region: PA
  name: East Sharpsburg
  lat: '40.3346'
  long: "-78.3721"
  nearby_rate_centers:
  - name: ROARINGSPG
    distance_km: 3.76
  - name: MARTINSBG
    distance_km: 4.73
  - name: CLAYSBURG
    distance_km: 8.02
- country: US
  region: PA
  name: East Side
  lat: '41.0621'
  long: "-75.7595"
  nearby_rate_centers:
  - name: WHITEHAVEN
    distance_km: 1.63
  - name: FREELAND
    distance_km: 12.63
  - name: WEATHERLY
    distance_km: 14.59
- country: US
  region: PA
  name: East Stroudsburg
  lat: '41.0023'
  long: "-75.1779"
  nearby_rate_centers:
  - name: STROUDSBG
    distance_km: 1.89
  - name: PORTLAND
    distance_km: 11.43
  - name: BANGOR
    distance_km: 15.02
- country: US
  region: PA
  name: East Uniontown
  lat: '39.8960'
  long: "-79.6976"
  nearby_rate_centers:
  - name: UNIONTOWN
    distance_km: 2.38
  - name: FAIRCHANCE
    distance_km: 9.59
  - name: NEW SALEM
    distance_km: 12.52
- country: US
  region: PA
  name: East Vandergrift
  lat: '40.5973'
  long: "-79.5630"
  nearby_rate_centers:
  - name: VANDERGRFT
    distance_km: 0.79
  - name: APOLLO
    distance_km: 1.37
  - name: LEECHBURG
    distance_km: 4.91
- country: US
  region: PA
  name: East Washington
  lat: '40.1745'
  long: "-80.2325"
  nearby_rate_centers:
  - name: WASHINGTON
    distance_km: 1.27
  - name: CANONSBURG
    distance_km: 10.24
  - name: BUFFALO
    distance_km: 11.85
- country: US
  region: PA
  name: East Waterford
  lat: '40.3711'
  long: "-77.6048"
  nearby_rate_centers:
  - name: EWATERFORD
    distance_km: 0.53
  - name: BLAIN
    distance_km: 7.92
  - name: MCVEYTOWN
    distance_km: 18.87
- country: US
  region: PA
  name: East York
  lat: '39.9687'
  long: "-76.6755"
  nearby_rate_centers:
  - name: YORK
    distance_km: 4.49
  - name: RED LION
    distance_km: 9.49
  - name: MANCHESTER
    distance_km: 10.84
- country: US
  region: PA
  name: Eastlawn Gardens
  lat: '40.7480'
  long: "-75.2913"
  nearby_rate_centers:
  - name: NAZARETH
    distance_km: 1.48
  - name: BATH
    distance_km: 8.66
  - name: EASTON
    distance_km: 8.91
- country: US
  region: PA
  name: Easton
  lat: '40.6858'
  long: "-75.2209"
  nearby_rate_centers:
  - name: EASTON
    distance_km: 0.39
  - name: NAZARETH
    distance_km: 9.45
  - name: RIEGELSVL
    distance_km: 10.76
- country: US
  region: PA
  name: Eastvale
  lat: '40.7670'
  long: "-80.3148"
  nearby_rate_centers:
  - name: BEAVER FLS
    distance_km: 2.98
  - name: ROCHESTER
    distance_km: 8.05
  - name: DARLINGTON
    distance_km: 9.97
- country: US
  region: PA
  name: Eau Claire
  lat: '41.1368'
  long: "-79.7986"
  nearby_rate_centers:
  - name: EAU CLAIRE
    distance_km: 0.98
  - name: EMLENTON
    distance_km: 9.36
  - name: CLINTONVL
    distance_km: 9.46
- country: US
  region: PA
  name: Ebensburg
  lat: '40.4884'
  long: "-78.7264"
  nearby_rate_centers:
  - name: EBENSBURG
    distance_km: 0.6
  - name: COLVER
    distance_km: 7.48
  - name: NANTY GLO
    distance_km: 9.31
- country: US
  region: PA
  name: Eddington
  lat: '40.0865'
  long: "-74.9445"
  nearby_rate_centers:
  - name: PHPHSBZN41
    distance_km: 1.37
  - name: PHPHSBZN42
    distance_km: 8.41
  - name: PHPHSBZN43
    distance_km: 10.04
- country: US
  region: PA
  name: Eddystone
  lat: '39.8566'
  long: "-75.3342"
  nearby_rate_centers:
  - name: PHPHSBZN11
    distance_km: 2.16
  - name: PHPHSBZN13
    distance_km: 5.39
  - name: PHPHSBZN14
    distance_km: 5.85
- country: US
  region: PA
  name: Edenborn
  lat: '39.8821'
