---
rate_centers:
- country: US
  region: IA
  exchange: '036170'
  name: ACKLEY
  full_name: Ackley
  lata: '632'
  ilec_name: QWEST CORPORATION
  lat: '42.557892'
  long: "-93.047065"
  closest_city:
    name: Ackley
    distance_km: 0.82
- country: US
  region: IA
  exchange: '337918'
  name: ACKWORTH
  full_name: Ackworth
  lata: '632'
  ilec_name: QWEST CORPORATION
  lat:
  long:
- country: US
  region: IA
  exchange: '036180'
  name: ADAIR
  full_name: Adair
  lata: '632'
  ilec_name: WINDSTREAM IOWA COMMUNICATIONS, INC. - SYSTEMS
  lat: '41.49913'
  long: "-94.642273"
  closest_city:
    name: Adair
    distance_km: 0.17
- country: US
  region: IA
  exchange: '337920'
  name: ADAZA
  full_name: Adaza
  lata: '632'
  ilec_name: WEBSTER-CALHOUN COOP. TEL. ASSN.
  lat:
  long:
- country: US
  region: IA
  exchange: '036190'
  name: ADEL
  full_name: Adel
  lata: '632'
  ilec_name: QWEST CORPORATION
  lat: '41.618389'
  long: "-94.025143"
  closest_city:
    name: Adel
    distance_km: 1.4
- country: US
  region: IA
  exchange: '036200'
  name: AFTON
  full_name: Afton
  lata: '632'
  ilec_name: WINDSTREAM IOWA COMMUNICATIONS, INC.
  lat: '41.023867'
  long: "-94.199015"
  closest_city:
    name: Afton
    distance_km: 0.52
- country: US
  region: IA
  exchange: '036210'
  name: AGENCY
  full_name: Agency
  lata: '632'
  ilec_name: WINDSTREAM IOWA COMMUNICATIONS, INC.
  lat: '40.989717'
  long: "-92.301341"
  closest_city:
    name: Agency
    distance_km: 0.95
- country: US
  region: IA
  exchange: '036220'
  name: AINSWORTH
  full_name: Ainsworth
  lata: '634'
  ilec_name: WINDSTREAM IOWA COMMUNICATIONS, INC.
  lat: '41.293154'
  long: "-91.548093"
  closest_city:
    name: Ainsworth
    distance_km: 0.63
- country: US
  region: IA
  exchange: '036230'
  name: AKRON
  full_name: Akron
  lata: '630'
  ilec_name: HEARTLAND TELECO OF IA DBA PREMIER COMMUNICATIONS
  lat: '42.833506'
  long: "-96.549132"
  closest_city:
    name: Akron
    distance_km: 0.99
- country: US
  region: IA
  exchange: '036240'
  name: ALBERTCITY
  full_name: Albert City
  lata: '630'
  ilec_name: WINDSTREAM IOWA COMMUNICATIONS, INC.
  lat: '42.781041'
  long: "-94.942037"
  closest_city:
    name: Albert City
    distance_km: 0.58
- country: US
  region: IA
  exchange: '036250'
  name: ALBIA
  full_name: Albia
  lata: '632'
  ilec_name: WINDSTREAM IOWA COMMUNICATIONS, INC. - SYSTEMS
  lat: '41.027412'
  long: "-92.799732"
  closest_city:
    name: Albia
    distance_km: 0.35
- country: US
  region: IA
  exchange: '036260'
  name: ALBION
  full_name: Albion
  lata: '632'
  ilec_name: HEART OF IOWA COMMUNICATIONS COOPERATIVE - IA
  lat: '42.119'
  long: "-92.983226"
  closest_city:
    name: Albion
    distance_km: 0.85
- country: US
  region: IA
  exchange: '036270'
  name: ALBURNETT
  full_name: Alburnett
  lata: '635'
  ilec_name: FARMERS MUTUAL TEL. CO.
  lat: '42.147889'
  long: "-91.616756"
  closest_city:
    name: Alburnett
    distance_km: 0.32
- country: US
  region: IA
  exchange: '036280'
  name: ALDEN
  full_name: Alden
  lata: '632'
  ilec_name: WINDSTREAM IOWA COMMUNICATIONS, INC.
  lat: '42.515459'
  long: "-93.37318"
  closest_city:
    name: Alden
    distance_km: 0.74
- country: US
  region: IA
  exchange: '036290'
  name: ALEXANDER
  full_name: Alexander
  lata: '632'
  ilec_name: FRONTIER COMMUNICATIONS OF IOWA, INC.
  lat: '42.808264'
  long: "-93.474434"
  closest_city:
    name: Alexander
    distance_km: 0.55
- country: US
  region: IA
  exchange: '036300'
  name: ALGONA
  full_name: Algona
  lata: '632'
  ilec_name: QWEST CORPORATION
  lat: '43.068205'
  long: "-94.234012"
  closest_city:
    name: Algona
    distance_km: 0.72
- country: US
  region: IA
  exchange: '337929'
  name: ALLEMAN
  full_name: Alleman
  lata: '632'
  ilec_name: WINDSTREAM IOWA COMMUNICATIONS, INC. - NORTH
  lat:
  long:
- country: US
  region: IA
  exchange: '337728'
  name: ALLENDORF
  full_name: Allendorf
  lata: '630'
  ilec_name: WINDSTREAM IOWA COMMUNICATIONS, INC. - NORTH
  lat:
  long:
- country: US
  region: IA
  exchange: '036310'
  name: ALLERTON
  full_name: Allerton
  lata: '632'
  ilec_name: GRAND RIVER MUTUAL TEL CO
  lat: '40.711074'
  long: "-93.368069"
  closest_city:
    name: Allerton
    distance_km: 0.39
- country: US
  region: IA
  exchange: '036320'
  name: ALLISON
  full_name: Allison
  lata: '635'
  ilec_name: DUMONT TEL. CO.
  lat: '42.756858'
  long: "-92.793736"
  closest_city:
    name: Allison
    distance_km: 0.56
- country: US
  region: IA
  exchange: '036330'
  name: ALPHA
  full_name: Alpha
  lata: '635'
  ilec_name: WINDSTREAM IOWA COMMUNICATIONS, INC.
  lat: '42.998538'
  long: "-92.041929"
  closest_city:
    name: Waucoma
    distance_km: 6.36
- country: US
  region: IA
  exchange: '036340'
  name: ALTA
  full_name: Alta
  lata: '630'
  ilec_name: QWEST CORPORATION
  lat: '42.673793'
  long: "-95.302244"
  closest_city:
    name: Alta
    distance_km: 0.3
- country: US
  region: IA
  exchange: '036350'
  name: ALTA VISTA
  full_name: Alta Vista
  lata: '632'
  ilec_name: WINDSTREAM IOWA COMMUNICATIONS, INC. - NORTH
  lat: '43.199817'
  long: "-92.418542"
  closest_city:
    name: Alta Vista
    distance_km: 0.37
- country: US
  region: IA
  exchange: '036360'
  name: ALTON
  full_name: Alton
  lata: '630'
  ilec_name: WEST IOWA TEL. CO.
  lat: '42.993603'
  long: "-96.006829"
  closest_city:
    name: Alton
    distance_km: 0.7
- country: US
  region: IA
  exchange: '036370'
  name: ALTOONA
  full_name: Altoona
  lata: '632'
  ilec_name: QWEST CORPORATION
  lat: '41.650009'
  long: "-93.456392"
  closest_city:
    name: Altoona
    distance_km: 1.83
- country: US
  region: IA
  exchange: '036380'
  name: ALVORD
  full_name: Alvord
  lata: '630'
  ilec_name: ALLIANCE COMMUNICATIONS COOPERATIVE, INC. - IA
  lat: '43.331958'
  long: "-96.311743"
  closest_city:
    name: Alvord
    distance_km: 1.26
- country: US
  region: IA
  exchange: '036390'
  name: AMANA
  full_name: Amana
  lata: '635'
  ilec_name: SOUTH SLOPE COOP. TEL. CO., INC.
  lat: '41.808776'
  long: "-91.872858"
  closest_city:
    name: Amana
    distance_km: 0.61
- country: US
  region: IA
  exchange: '338668'
  name: AMBER
  full_name: Amber
  lata: '635'
  ilec_name: QWEST CORPORATION
  lat:
  long:
- country: US
  region: IA
  exchange: '036400'
  name: AMES
  full_name: Ames
  lata: '632'
  ilec_name: QWEST CORPORATION
  lat: '42.023645'
  long: "-93.616309"
  closest_city:
    name: Ames
    distance_km: 0.5
- country: US
  region: IA
  exchange: '036410'
  name: AMUND
  full_name: Amund
  lata: '620'
  ilec_name: CITIZENS TELECOM CO MN-FRONTIER CITIZENS COM-MN
  lat: '43.473887'
  long: "-93.692477"
  closest_city:
    name: Scarville
    distance_km: 6.25
- country: US
  region: IA
  exchange: '036420'
  name: ANAMOSA
  full_name: Anamosa
  lata: '635'
  ilec_name: QWEST CORPORATION
  lat: '42.111176'
  long: "-91.284603"
  closest_city:
    name: Anamosa
    distance_km: 0.76
- country: US
  region: IA
  exchange: '340379'
  name: ANDERSON
  full_name: Anderson
  lata: '644'
  ilec_name: WINDSTREAM IOWA COMMUNICATIONS, INC. - NORTH
  lat:
  long:
- country: US
  region: IA
  exchange: '338416'
  name: ANDOVER
  full_name: Andover
  lata: '634'
  ilec_name: MILES COOP. TEL. ASSN.
  lat:
  long:
- country: US
  region: IA
  exchange: '036430'
  name: ANDREW
  full_name: Andrew
  lata: '634'
  ilec_name: ANDREW TEL. CO., INC.
  lat: '42.150801'
  long: "-90.600203"
  closest_city:
    name: Andrew
    distance_km: 0.71
- country: US
  region: IA
  exchange: '337934'
  name: ANGUS
  full_name: Angus
  lata: '632'
  ilec_name: QWEST CORPORATION
  lat:
  long:
- country: US
  region: IA
  exchange: '036440'
  name: ANITA
  full_name: Anita
  lata: '644'
  ilec_name: WEST IOWA TEL. CO.
  lat: '41.448403'
  long: "-94.764638"
  closest_city:
    name: Anita
    distance_km: 0.54
- country: US
  region: IA
  exchange: '036450'
  name: ANKENY
  full_name: Ankeny
  lata: '632'
  ilec_name: QWEST CORPORATION
  lat: '41.734396'
  long: "-93.600804"
  closest_city:
    name: Ankeny
    distance_km: 0.65
- country: US
  region: IA
  exchange: '036460'
  name: ANTHON
  full_name: Anthon
  lata: '630'
  ilec_name: QWEST CORPORATION
  lat: '42.380642'
  long: "-95.873175"
  closest_city:
    name: Anthon
    distance_km: 1.04
- country: US
  region: IA
  exchange: '036470'
  name: APLINGTON
  full_name: Aplington
  lata: '635'
  ilec_name: WINDSTREAM IOWA COMMUNICATIONS, INC. - SYSTEMS
  lat: '42.581049'
  long: "-92.875594"
  closest_city:
    name: Aplington
    distance_km: 0.65
- country: US
  region: IA
  exchange: '036480'
  name: ARCADIA
  full_name: Arcadia
  lata: '644'
  ilec_name: WESTSIDE INDEPENDENT TEL. CO.
  lat: '42.08449'
  long: "-95.047918"
  closest_city:
    name: Arcadia
    distance_km: 0.43
- country: US
  region: IA
  exchange: '036490'
  name: ARCHER
  full_name: Archer
  lata: '630'
  ilec_name: C-M-L TEL. COOP. ASSN. OF MERIDEN IOWA
  lat: '43.117013'
  long: "-95.739939"
  closest_city:
    name: Archer
    distance_km: 0.41
- country: US
  region: IA
  exchange: '338418'
  name: ARDON
  full_name: Ardon
  lata: '634'
  ilec_name: WINDSTREAM IOWA COMMUNICATIONS, INC.
  lat:
  long:
- country: US
  region: IA
  exchange: '036500'
  name: AREDALE
  full_name: Aredale
  lata: '632'
  ilec_name: ROCKWELL COOP. TEL. ASSN.
  lat: '42.832183'
  long: "-93.000731"
  closest_city:
    name: Aredale
    distance_km: 0.4
- country: US
  region: IA
  exchange: '338419'
  name: ARGO
  full_name: Argo
  lata: '634'
  ilec_name: WINDSTREAM IOWA COMMUNICATIONS, INC. - SYSTEMS
  lat:
  long:
- country: US
  region: IA
  exchange: '036510'
  name: ARGYLE
  full_name: Argyle
  lata: '634'
  ilec_name: WINDSTREAM IOWA COMMUNICATIONS, INC.
  lat: '40.532031'
  long: "-91.568698"
  closest_city:
    name: Argyle
    distance_km: 0.44
- country: US
  region: IA
  exchange: '340382'
  name: ARION
  full_name: Arion
  lata: '644'
  ilec_name: FRONTIER COMMUNICATIONS OF IOWA, INC.
  lat:
  long:
- country: US
  region: IA
  exchange: '036520'
  name: ARISPE
  full_name: Arispe
  lata: '632'
  ilec_name: WINDSTREAM IOWA COMMUNICATIONS, INC.
  lat: '40.948663'
  long: "-94.21605"
  closest_city:
    name: Arispe
    distance_km: 0.27
- country: US
  region: IA
  exchange: '036530'
  name: ARLINGTON
  full_name: Arlington
  lata: '635'
  ilec_name: WINDSTREAM IOWA COMMUNICATIONS, INC. - NORTH
  lat: '42.748415'
  long: "-91.67774"
  closest_city:
    name: Arlington
    distance_km: 0.55
- country: US
  region: IA
  exchange: '036540'
  name: ARMSTRONG
  full_name: Armstrong
  lata: '630'
  ilec_name: WINDSTREAM IOWA COMMUNICATIONS, INC. - NORTH
  lat: '43.392523'
  long: "-94.471927"
  closest_city:
    name: Armstrong
    distance_km: 0.97
- country: US
  region: IA
  exchange: '036550'
  name: ARNOLDS PK
  full_name: Arnolds Park
  lata: '630'
  ilec_name: QWEST CORPORATION
  lat: '43.367569'
  long: "-95.124458"
  closest_city:
    name: Arnolds Park
    distance_km: 0.83
- country: US
  region: IA
  exchange: '044001'
  name: ARTESIAN
  full_name: Artesian
  lata: '635'
  ilec_name: QWEST CORPORATION
  lat:
  long:
- country: US
  region: IA
  exchange: '036560'
  name: ARTHUR
  full_name: Arthur
  lata: '630'
  ilec_name: SAC COUNTY MUTUAL TEL. CO.
  lat: '42.334204'
  long: "-95.34166"
  closest_city:
    name: Arthur
    distance_km: 0.44
- country: US
  region: IA
  exchange: '338421'
  name: ASBURY
  full_name: Asbury
  lata: '634'
  ilec_name: QWEST CORPORATION
  lat:
  long:
- country: US
  region: IA
  exchange: '337938'
  name: ASH GROVE
  full_name: Ash Grove
  lata: '632'
  ilec_name: WINDSTREAM IOWA COMMUNICATIONS, INC.
  lat:
  long:
- country: US
  region: IA
  exchange: '036570'
  name: ASHTON
  full_name: Ashton
  lata: '630'
  ilec_name: FRONTIER COMMUNICATIONS OF IOWA, INC.
  lat: '43.317708'
  long: "-95.788635"
  closest_city:
    name: Ashton
    distance_km: 1.05
- country: US
  region: IA
  exchange: '340383'
  name: ASPINWALL
  full_name: Aspinwall
  lata: '644'
  ilec_name: WINDSTREAM IOWA COMMUNICATIONS, INC. - SYSTEMS
  lat:
  long:
- country: US
  region: IA
  exchange: '036580'
  name: ATALISSA
  full_name: Atalissa
  lata: '634'
  ilec_name: WINDSTREAM IOWA COMMUNICATIONS, INC. - SYSTEMS
  lat: '41.575289'
  long: "-91.165543"
  closest_city:
    name: Atalissa
    distance_km: 0.43
- country: US
  region: IA
  exchange: '337939'
  name: ATHELSTAN
  full_name: Athelstan
  lata: '632'
  ilec_name: GRAND RIVER MUTUAL TEL CO
  lat:
  long:
- country: US
  region: IA
  exchange: '036590'
  name: ATKINS
  full_name: Atkins
  lata: '635'
  ilec_name: ATKINS TEL. CO., INC.
  lat: '41.999175'
  long: "-91.861442"
  closest_city:
    name: Atkins
    distance_km: 0.59
- country: US
  region: IA
  exchange: '036600'
  name: ATLANTIC
  full_name: Atlantic
  lata: '644'
  ilec_name: QWEST CORPORATION
  lat: '41.406694'
  long: "-95.007828"
  closest_city:
    name: Atlantic
    distance_km: 1.3
- country: US
  region: IA
  exchange: '036610'
  name: ATTICA
  full_name: Attica
  lata: '632'
  ilec_name: WINDSTREAM IOWA COMMUNICATIONS, INC.
  lat: '41.201791'
  long: "-93.08207"
  closest_city:
    name: Marysville
    distance_km: 10.98
- country: US
  region: IA
  exchange: '036620'
  name: AUBURN
  full_name: Auburn
  lata: '644'
  ilec_name: WINDSTREAM IOWA COMMUNICATIONS, INC.
  lat: '42.249035'
  long: "-94.885879"
  closest_city:
    name: Auburn
    distance_km: 0.68
- country: US
  region: IA
  exchange: '338673'
  name: AUBURNDOUG
  full_name: Auburn Douglas
  lata: '635'
  ilec_name: QWEST CORPORATION
  lat:
  long:
- country: US
  region: IA
  exchange: '036630'
  name: AUDUBON
  full_name: Audubon
  lata: '644'
  ilec_name: WINDSTREAM IOWA COMMUNICATIONS, INC. - SYSTEMS
  lat: '41.714622'
  long: "-94.932023"
  closest_city:
    name: Audubon
    distance_km: 0.48
- country: US
  region: IA
  exchange: '036640'
  name: AURELIA
  full_name: Aurelia
  lata: '630'
  ilec_name: PEOPLES TEL. CO.
  lat: '42.715285'
  long: "-95.434007"
  closest_city:
    name: Aurelia
    distance_km: 0.33
- country: US
  region: IA
  exchange: '036650'
  name: AURORA
  full_name: Aurora
  lata: '635'
  ilec_name: EAST BUCHANAN TEL. COOP.
  lat: '42.617418'
  long: "-91.727571"
  closest_city:
    name: Aurora
    distance_km: 0.27
- country: US
  region: IA
  exchange: '337941'
  name: AUSTINVL
  full_name: Austinville
  lata: '632'
  ilec_name: QWEST CORPORATION
  lat:
  long:
- country: US
  region: IA
  exchange: '337942'
  name: AVERY
  full_name: Avery
  lata: '632'
  ilec_name: WINDSTREAM IOWA COMMUNICATIONS, INC. - SYSTEMS
  lat:
  long:
- country: US
  region: IA
  exchange: '036660'
  name: AVOCA
  full_name: Avoca
  lata: '644'
  ilec_name: WINDSTREAM IOWA COMMUNICATIONS, INC. - SYSTEMS
  lat: '41.482693'
  long: "-95.33669"
  closest_city:
    name: Avoca
    distance_km: 0.05
- country: US
  region: IA
  exchange: '337943'
  name: AVON
  full_name: Avon
  lata: '632'
  ilec_name: QWEST CORPORATION
  lat:
  long:
- country: US
  region: IA
  exchange: '036670'
  name: AYRSHIRE
  full_name: Ayrshire
  lata: '630'
  ilec_name: AYRSHIRE FARMERS MUTUAL TEL. CO.
  lat: '43.042644'
  long: "-94.82982"
  closest_city:
    name: Ayrshire
    distance_km: 0.47
- country: US
  region: IA
  exchange: '036680'
  name: BADGER
  full_name: Badger
  lata: '632'
  ilec_name: WEBSTER-CALHOUN COOP. TEL. ASSN.
  lat: '42.618243'
  long: "-94.141409"
  closest_city:
    name: Badger
    distance_km: 0.53
- country: US
  region: IA
  exchange: '036690'
  name: BAGLEY
  full_name: Bagley
  lata: '632'
  ilec_name: WINDSTREAM IOWA COMMUNICATIONS, INC.
  lat: '41.851759'
  long: "-94.424538"
  closest_city:
    name: Bagley
    distance_km: 0.76
- country: US
  region: IA
  exchange: '036700'
  name: BAILEY
  full_name: Bailey
  lata: '620'
  ilec_name: CITIZENS TELECOM CO MN-FRONTIER CITIZENS COM-MN
  lat: '43.468518'
  long: "-92.608461"
  closest_city:
    name: McIntire
    distance_km: 3.81
- country: US
  region: IA
  exchange: '036710'
  name: BALDWIN
  full_name: Baldwin
  lata: '634'
  ilec_name: BALDWIN NASHVILLE TEL. CO., INC.
  lat: '42.074553'
  long: "-90.842476"
  closest_city:
    name: Baldwin
    distance_km: 0.36
- country: US
  region: IA
  exchange: '338424'
  name: BALLTOWN
  full_name: Balltown
  lata: '634'
  ilec_name: QWEST CORPORATION
  lat:
  long:
- country: US
  region: IA
  exchange: '036720'
  name: BANCROFT
  full_name: Bancroft
  lata: '632'
  ilec_name: WINNEBAGO COOP. TEL. ASSN. - IA
  lat: '43.292176'
  long: "-94.222984"
  closest_city:
    name: Bancroft
    distance_km: 0.45
- country: US
  region: IA
  exchange: '338425'
  name: BANKSTON
  full_name: Bankston
  lata: '634'
  ilec_name: WINDSTREAM IOWA COMMUNICATIONS, INC. - NORTH
  lat:
  long:
- country: US
  region: IA
  exchange: '036730'
  name: BARNESCITY
  full_name: Barnes City
  lata: '632'
  ilec_name: BARNES CITY COOP. TEL. CO.
  lat: '41.507216'
  long: "-92.466632"
  closest_city:
    name: Barnes City
    distance_km: 0.24
- country: US
  region: IA
  exchange: '036740'
  name: BARNUM
  full_name: Barnum
  lata: '632'
  ilec_name: WEBSTER-CALHOUN COOP. TEL. ASSN.
  lat: '42.506663'
  long: "-94.356953"
  closest_city:
    name: Barnum
    distance_km: 0.72
- country: US
  region: IA
  exchange: '340388'
  name: BARTLETT
  full_name: Bartlett
  lata: '644'
  ilec_name: WINDSTREAM IOWA COMMUNICATIONS, INC. - NORTH
  lat:
  long:
- country: US
  region: IA
  exchange: '337949'
  name: BASSETT
  full_name: Bassett
  lata: '632'
  ilec_name: QWEST CORPORATION
  lat:
  long:
- country: US
  region: IA
  exchange: '036750'
  name: BATAVIA
  full_name: Batavia
  lata: '632'
  ilec_name: FARMERS TEL. CO.
  lat: '40.998745'
  long: "-92.16861"
  closest_city:
    name: Batavia
    distance_km: 0.44
- country: US
  region: IA
  exchange: '036760'
  name: BATTLE CRK
  full_name: Battle Creek
  lata: '630'
  ilec_name: FRONTIER COMMUNICATIONS OF IOWA, INC.
  lat: '42.315544'
  long: "-95.600967"
  closest_city:
    name: Battle Creek
    distance_km: 0.18
- country: US
  region: IA
  exchange: '036770'
  name: BAXTER
  full_name: Baxter
  lata: '632'
  ilec_name: PARTNER COMMUNICATIONS COOPERATIVE
  lat: '41.827056'
  long: "-93.14093"
  closest_city:
    name: Baxter
    distance_km: 0.98
- country: US
  region: IA
  exchange: '036780'
  name: BAYARD
  full_name: Bayard
  lata: '644'
  ilec_name: WINDSTREAM IOWA COMMUNICATIONS, INC. - SYSTEMS
  lat: '41.860834'
  long: "-94.560057"
  closest_city:
    name: Bayard
    distance_km: 0.97
- country: US
  region: IA
  exchange: '337952'
  name: BEACON
  full_name: Beacon
  lata: '632'
  ilec_name: QWEST CORPORATION
  lat:
  long:
- country: US
  region: IA
  exchange: '337953'
  name: BEACONSFLD
  full_name: Beaconsfield
  lata: '632'
  ilec_name: WINDSTREAM IOWA COMMUNICATIONS, INC.
  lat:
  long:
- country: US
  region: IA
  exchange: '037701'
  name: BEAMAN
  full_name: Beaman
  lata: '632'
  ilec_name: HEART OF IOWA COMMUNICATIONS COOPERATIVE - IA
  lat:
  long:
- country: US
  region: IA
  exchange: '337955'
  name: BEAVER
  full_name: Beaver
  lata: '632'
  ilec_name: OGDEN TEL. CO.
  lat:
  long:
- country: US
  region: IA
  exchange: '338426'
  name: BEAVERDALE
  full_name: Beaverdale
  lata: '634'
  ilec_name: QWEST CORPORATION
  lat:
  long:
- country: US
  region: IA
  exchange: '036790'
  name: BEDFORD
  full_name: Bedford
  lata: '644'
  ilec_name: FRONTIER COMMUNICATIONS OF IOWA, INC.
  lat: '40.675678'
  long: "-94.715577"
  closest_city:
    name: Bedford
    distance_km: 0.87
- country: US
  region: IA
  exchange: '337956'
  name: BEECH
  full_name: Beech
  lata: '632'
  ilec_name: WINDSTREAM IOWA COMMUNICATIONS, INC.
  lat:
  long:
- country: US
  region: IA
  exchange: '337957'
  name: BELKNAP
  full_name: Belknap
  lata: '632'
  ilec_name: CITIZENS MUTUAL TELEPHONE COOPERATIVE
  lat:
  long:
- country: US
  region: IA
  exchange: '036800'
  name: BELLEPLAIN
  full_name: Belle Plaine
  lata: '635'
  ilec_name: WINDSTREAM IOWA COMMUNICATIONS, INC. - NORTH
  lat: '41.900183'
  long: "-92.277164"
  closest_city:
    name: Belle Plaine
    distance_km: 0.56
- country: US
  region: IA
  exchange: '036810'
  name: BELLEVUE
  full_name: Bellevue
  lata: '634'
  ilec_name: WINDSTREAM IOWA COMMUNICATIONS, INC. - SYSTEMS
  lat: '42.257182'
  long: "-90.426618"
  closest_city:
    name: Bellevue
    distance_km: 0.72
- country: US
  region: IA
  exchange: '036820'
  name: BELMOND
  full_name: Belmond
  lata: '632'
  ilec_name: FRONTIER COMMUNICATIONS OF IOWA, INC.
  lat: '42.847553'
  long: "-93.607817"
  closest_city:
    name: Belmond
    distance_km: 0.14
- country: US
  region: IA
  exchange: '036830'
  name: BELOIT
  full_name: Beloit
  lata: '640'
  ilec_name: QWEST CORPORATION
  lat: '43.274213'
  long: "-96.568299"
  closest_city:
    name: Inwood
    distance_km: 11.51
- country: US
  region: IA
  exchange: '036840'
  name: BENNETT
  full_name: Bennett
  lata: '634'
  ilec_name: WINDSTREAM IOWA COMMUNICATIONS, INC. - SYSTEMS
  lat: '41.742685'
  long: "-90.976096"
  closest_city:
    name: Bennett
    distance_km: 0.37
- country: US
  region: IA
  exchange: '340391'
  name: BENTLEY
  full_name: Bentley
  lata: '644'
  ilec_name: QWEST CORPORATION
  lat:
  long:
- country: US
  region: IA
  exchange: '036850'
  name: BENTON
  full_name: Benton
  lata: '632'
  ilec_name: WINDSTREAM IOWA COMMUNICATIONS, INC.
  lat: '40.69865'
  long: "-94.360046"
  closest_city:
    name: Benton
    distance_km: 0.68
- country: US
  region: IA
  exchange: '042991'
  name: BENTON TWP
  full_name: Benton Township
  lata: '635'
  ilec_name: FARMERS MUTUAL TEL. CO.
  lat:
  long:
- country: US
  region: IA
  exchange: '340392'
  name: BEREA
  full_name: Berea
  lata: '644'
  ilec_name: WEST IOWA TEL. CO.
  lat:
  long:
- country: US
  region: IA
  exchange: '337960'
  name: BERKLEY
  full_name: Berkley
  lata: '632'
  ilec_name: QWEST CORPORATION
  lat:
  long:
- country: US
  region: IA
  exchange: '036860'
  name: BERNARD
  full_name: Bernard
  lata: '634'
  ilec_name: BERNARD TEL. CO., INC.
  lat: '42.318429'
  long: "-90.834003"
  closest_city:
    name: Bernard
    distance_km: 0.6
- country: US
  region: IA
  exchange: '338677'
  name: BERTRAM
  full_name: Bertram
  lata: '635'
  ilec_name: QWEST CORPORATION
  lat:
  long:
- country: US
  region: IA
  exchange: '337961'
  name: BERWICK
  full_name: Berwick
  lata: '632'
  ilec_name: QWEST CORPORATION
  lat:
  long:
- country: US
  region: IA
  exchange: '036870'
  name: BETHESDA
  full_name: Bethesda
  lata: '644'
  ilec_name: FARMERS MUTUAL TELEPHONE COMPANY
  lat: '40.842941'
  long: "-95.101556"
  closest_city:
    name: Hepburn
    distance_km: 7.16
- country: US
  region: IA
  exchange: '338430'
  name: BETTENDORF
  full_name: Bettendorf
  lata: '634'
  ilec_name: QWEST CORPORATION
  lat:
  long:
- country: US
  region: IA
  exchange: '337962'
  name: BEVINGTON
  full_name: Bevington
  lata: '632'
  ilec_name: QWEST CORPORATION
  lat:
  long:
- country: US
  region: IA
  exchange: '338431'
  name: BIG ROCK
  full_name: Big Rock
  lata: '634'
  ilec_name: DIXON ACQUISITION, LLC
  lat:
  long:
- country: US
  region: IA
  exchange: '036880'
  name: BIRMINGHAM
  full_name: Birmingham
  lata: '634'
  ilec_name: VAN BUREN TEL. CO., INC.
  lat: '40.881252'
  long: "-91.939922"
  closest_city:
    name: Birmingham
    distance_km: 0.71
- country: US
  region: IA
  exchange: '036890'
  name: BLADENSBG
  full_name: Bladensburg
  lata: '632'
  ilec_name: WINDSTREAM IOWA COMMUNICATIONS, INC.
  lat: '41.051229'
  long: "-92.23006"
  closest_city:
    name: Batavia
    distance_km: 8.18
- country: US
  region: IA
  exchange: '036900'
  name: BLAIRSBURG
  full_name: Blairsburg
  lata: '632'
  ilec_name: QWEST CORPORATION
  lat: '42.484257'
  long: "-93.643945"
  closest_city:
    name: Blairsburg
    distance_km: 0.66
- country: US
  region: IA
  exchange: '036910'
  name: BLAIRSTOWN
  full_name: Blairstown
  lata: '635'
  ilec_name: SHELLSBURG CABLEVISION, INC.
  lat: '41.908271'
  long: "-92.081984"
  closest_city:
    name: Blairstown
    distance_km: 0.25
- country: US
  region: IA
  exchange: '036920'
  name: BLAKESBURG
  full_name: Blakesburg
  lata: '632'
  ilec_name: WINDSTREAM IOWA COMMUNICATIONS, INC.
  lat: '40.969548'
  long: "-92.634485"
  closest_city:
    name: Blakesburg
    distance_km: 0.84
- country: US
  region: IA
  exchange: '340394'
  name: BLANCHARD
  full_name: Blanchard
  lata: '644'
  ilec_name: IAMO COMMUNICATIONS, INC.
  lat:
  long:
- country: US
  region: IA
  exchange: '036930'
  name: BLENCOE
  full_name: Blencoe
  lata: '644'
  ilec_name: WINDSTREAM IOWA COMMUNICATIONS, INC. - NORTH
  lat: '41.932509'
  long: "-96.076309"
  closest_city:
    name: Blencoe
    distance_km: 0.53
- country: US
  region: IA
  exchange: '036940'
  name: BLOCKTON
  full_name: Blockton
  lata: '632'
  ilec_name: GRAND RIVER MUTUAL TEL CO
  lat: '40.615365'
  long: "-94.473557"
  closest_city:
    name: Blockton
    distance_km: 0.4
- country: US
  region: IA
  exchange: '036950'
  name: BLOOMFIELD
  full_name: Bloomfield
  lata: '632'
  ilec_name: CITIZENS MUTUAL TELEPHONE COOPERATIVE
  lat: '40.749307'
  long: "-92.414924"
  closest_city:
    name: Bloomfield
    distance_km: 0.22
- country: US
  region: IA
  exchange: '338433'
  name: BLUE GRASS
  full_name: Blue Grass
  lata: '634'
  ilec_name: QWEST CORPORATION
  lat:
  long:
- country: US
  region: IA
  exchange: '040471'
  name: BODE
  full_name: Bode
  lata: '632'
  ilec_name: QWEST CORPORATION
  lat:
  long:
- country: US
  region: IA
  exchange: '036960'
  name: BONAPARTE
  full_name: Bonaparte
  lata: '634'
  ilec_name: VAN BUREN TEL. CO., INC.
  lat: '40.697711'
  long: "-91.799553"
  closest_city:
    name: Bonaparte
    distance_km: 0.4
- country: US
  region: IA
  exchange: '337969'
  name: BONDURANT
  full_name: Bondurant
  lata: '632'
  ilec_name: QWEST CORPORATION
  lat:
  long:
- country: US
  region: IA
  exchange: '036970'
  name: BOONE
  full_name: Boone
  lata: '632'
  ilec_name: QWEST CORPORATION
  lat: '42.066517'
  long: "-93.88092"
  closest_city:
    name: Boone
    distance_km: 1.53
- country: US
  region: IA
  exchange: '337971'
  name: BOONEVILLE
  full_name: Booneville
  lata: '632'
  ilec_name: QWEST CORPORATION
  lat:
  long:
- country: US
  region: IA
  exchange: '340396'
  name: BOTNA
  full_name: Botna
  lata: '644'
  ilec_name: FARMERS MUTUAL COOP. TEL. CO.
  lat:
  long:
- country: US
  region: IA
  exchange: '036980'
  name: BOUTON
  full_name: Bouton
  lata: '632'
  ilec_name: WINDSTREAM IOWA COMMUNICATIONS, INC. - SYSTEMS
  lat: '41.850853'
  long: "-94.008834"
  closest_city:
    name: Bouton
    distance_km: 0.16
- country: US
  region: IA
  exchange: '036990'
  name: BOXHOLM
  full_name: Boxholm
  lata: '632'
  ilec_name: WEBSTER-CALHOUN COOP. TEL. ASSN.
  lat: '42.176516'
  long: "-94.105816"
  closest_city:
    name: Boxholm
    distance_km: 0.33
- country: US
  region: IA
  exchange: '037000'
  name: BOYDEN
  full_name: Boyden
  lata: '630'
  ilec_name: HEARTLAND TELECO OF IA DBA PREMIER COMMUNICATIONS
  lat: '43.182518'
  long: "-96.00174"
  closest_city:
    name: Boyden
    distance_km: 0.75
- country: US
  region: IA
  exchange: '337742'
  name: BOYER
  full_name: Boyer
  lata: '630'
  ilec_name: SCHALLER TEL. CO.
  lat:
  long:
- country: US
  region: IA
  exchange: '037010'
  name: BRADDYVL
  full_name: Braddyville
  lata: '644'
  ilec_name: WINDSTREAM IOWA COMMUNICATIONS, INC. - NORTH
  lat: '40.575108'
  long: "-95.021887"
  closest_city:
    name: Braddyville
    distance_km: 1.0
- country: US
  region: IA
  exchange: '337974'
  name: BRADFORD
  full_name: Bradford
  lata: '632'
  ilec_name: QWEST CORPORATION
  lat:
  long:
- country: US
  region: IA
  exchange: '037020'
  name: BRADGATE
  full_name: Bradgate
  lata: '632'
  ilec_name: QWEST CORPORATION
  lat: '42.808758'
  long: "-94.415908"
  closest_city:
    name: Bradgate
    distance_km: 0.73
- country: US
  region: IA
  exchange: '037030'
  name: BRANDON
  full_name: Brandon
  lata: '635'
  ilec_name: WINDSTREAM IOWA COMMUNICATIONS, INC.
  lat: '42.319185'
  long: "-92.000149"
  closest_city:
    name: Brandon
    distance_km: 0.53
- country: US
  region: IA
  exchange: '037040'
  name: BRAYTON
  full_name: Brayton
  lata: '644'
  ilec_name: MARNE & ELK HORN TEL. CO.
  lat: '41.548813'
  long: "-94.933504"
  closest_city:
    name: Brayton
    distance_km: 0.53
- country: US
  region: IA
  exchange: '337976'
  name: BRAZIL
  full_name: Brazil
  lata: '632'
  ilec_name: WINDSTREAM IOWA COMMUNICATIONS, INC.
  lat:
  long:
- country: US
  region: IA
  exchange: '037050'
  name: BREDA
  full_name: Breda
  lata: '644'
  ilec_name: BREDA TEL. CORP.
  lat: '42.18471'
  long: "-94.983568"
  closest_city:
    name: Breda
    distance_km: 0.71
- country: US
  region: IA
  exchange: '044002'
  name: BREMER
  full_name: Bremer
  lata: '635'
  ilec_name: QWEST CORPORATION
  lat:
  long:
- country: US
  region: IA
  exchange: '037060'
  name: BRIDGEWTR
  full_name: Bridgewater
  lata: '632'
  ilec_name: WINDSTREAM IOWA COMMUNICATIONS, INC. - SYSTEMS
  lat: '41.247158'
  long: "-94.673966"
  closest_city:
    name: Bridgewater
    distance_km: 0.42
- country: US
  region: IA
  exchange: '037070'
  name: BRIGHTON
  full_name: Brighton
  lata: '634'
  ilec_name: WINDSTREAM IOWA COMMUNICATIONS, INC.
  lat: '41.175027'
  long: "-91.817638"
  closest_city:
    name: Brighton
    distance_km: 0.3
- country: US
  region: IA
  exchange: '037080'
  name: BRISTOW
  full_name: Bristow
  lata: '632'
  ilec_name: ROCKWELL COOP. TEL. ASSN.
  lat: '42.772763'
  long: "-92.900433"
  closest_city:
    name: Bristow
    distance_km: 0.62
- country: US
  region: IA
  exchange: '037090'
  name: BRITT
  full_name: Britt
  lata: '632'
  ilec_name: QWEST CORPORATION
  lat: '43.093748'
  long: "-93.800654"
  closest_city:
    name: Britt
    distance_km: 0.57
- country: US
  region: IA
  exchange: '037100'
  name: BRONSON
  full_name: Bronson
  lata: '630'
  ilec_name: WESTERN IOWA TEL. ASSN.
  lat: '42.408672'
  long: "-96.206471"
  closest_city:
    name: Bronson
    distance_km: 0.33
- country: US
  region: IA
  exchange: '037110'
  name: BROOKLYN
  full_name: Brooklyn
  lata: '632'
  ilec_name: BROOKLYN MUTUAL TEL. CO.
  lat: '41.733214'
  long: "-92.441861"
  closest_city:
    name: Brooklyn
    distance_km: 0.29
- country: US
  region: IA
  exchange: '337981'
  name: BROOKS
  full_name: Brooks
  lata: '632'
  ilec_name: FRONTIER COMMUNICATIONS OF IOWA, INC.
  lat:
  long:
- country: US
  region: IA
  exchange: '037120'
  name: BRUNSVILLE
  full_name: Brunsville
  lata: '630'
  ilec_name: FRONTIER COMMUNICATIONS OF IOWA, INC.
  lat: '42.818016'
  long: "-96.26772"
  closest_city:
    name: Brunsville
    distance_km: 0.79
- country: US
  region: IA
  exchange: '338436'
  name: BRYANT
  full_name: Bryant
  lata: '634'
  ilec_name: MILES COOP. TEL. ASSN.
  lat:
  long:
- country: US
  region: IA
  exchange: '340400'
  name: BUCK GROVE
  full_name: Buck Grove
  lata: '644'
  ilec_name: FRONTIER COMMUNICATIONS OF IOWA, INC.
  lat:
  long:
- country: US
  region: IA
  exchange: '037130'
  name: BUCKEYE
  full_name: Buckeye
  lata: '632'
  ilec_name: WINDSTREAM IOWA COMMUNICATIONS, INC.
  lat: '42.414059'
  long: "-93.373667"
  closest_city:
    name: Buckeye
    distance_km: 0.63
- country: US
  region: IA
  exchange: '338681'
  name: BUCKINGHAM
  full_name: Buckingham
  lata: '635'
  ilec_name: WINDSTREAM IOWA COMMUNICATIONS, INC. - NORTH
  lat:
  long:
- country: US
  region: IA
  exchange: '338437'
  name: BUFFALO
  full_name: Buffalo
  lata: '634'
  ilec_name: QWEST CORPORATION
  lat:
  long:
- country: US
  region: IA
  exchange: '037140'
  name: BUFFALOCTR
  full_name: Buffalo Center
  lata: '632'
  ilec_name: WINNEBAGO COOP. TEL. ASSN. - IA
  lat: '43.382878'
  long: "-93.941178"
  closest_city:
    name: Buffalo Center
    distance_km: 0.74
- country: US
  region: IA
  exchange: '337984'
  name: BURCHINAL
  full_name: Burchinal
  lata: '632'
  ilec_name: ROCKWELL COOP. TEL. ASSN.
  lat:
  long:
- country: US
  region: IA
  exchange: '037150'
  name: BURLINGTON
  full_name: Burlington
  lata: '634'
  ilec_name: QWEST CORPORATION
  lat: '40.815356'
  long: "-91.109652"
  closest_city:
    name: Burlington
    distance_km: 1.56
- country: US
  region: IA
  exchange: '337985'
  name: BURNSIDE
  full_name: Burnside
  lata: '632'
  ilec_name: LEHIGH VALLEY COOP. TEL. ASSN.
  lat:
  long:
- country: US
  region: IA
  exchange: '037160'
  name: BURR OAK
  full_name: Burr Oak
  lata: '620'
  ilec_name: MABEL COOP. TEL. CO. - IA
  lat: '43.456494'
  long: "-91.857679"
  closest_city:
    name: Burr Oak
    distance_km: 0.38
- country: US
  region: IA
  exchange: '037170'
  name: BURT
  full_name: Burt
  lata: '632'
  ilec_name: TITONKA TEL. CO. DBA TITONKA-BURT COMMUNICATIONS
  lat: '43.201101'
  long: "-94.222815"
  closest_city:
    name: Burt
    distance_km: 0.24
- country: US
  region: IA
  exchange: '037180'
  name: BUSSEY
  full_name: Bussey
  lata: '632'
  ilec_name: WINDSTREAM IOWA COMMUNICATIONS, INC.
  lat: '41.209332'
  long: "-92.883538"
  closest_city:
    name: Bussey
    distance_km: 0.44
- country: US
  region: IA
  exchange: '037190'
  name: CALAMUS
  full_name: Calamus
  lata: '634'
  ilec_name: F&B COMMUNICATIONS, INC.
  lat: '41.833509'
  long: "-90.760126"
  closest_city:
    name: Calamus
    distance_km: 0.79
- country: US
  region: IA
  exchange: '037200'
  name: CALLENDER
  full_name: Callender
  lata: '632'
  ilec_name: LEHIGH VALLEY COOP. TEL. ASSN.
  lat: '42.358108'
  long: "-94.288987"
  closest_city:
    name: Callender
    distance_km: 0.66
- country: US
  region: IA
  exchange: '037210'
  name: CALMAR
  full_name: Calmar
  lata: '635'
  ilec_name: QWEST CORPORATION
  lat: '43.183512'
  long: "-91.867532"
  closest_city:
    name: Calmar
    distance_km: 0.27
- country: US
  region: IA
  exchange: '337745'
  name: CALUMET
  full_name: Calumet
  lata: '630'
  ilec_name: WEST IOWA TEL. CO.
  lat:
  long:
- country: US
  region: IA
  exchange: '338440'
  name: CAMANCHE
  full_name: Camanche
  lata: '634'
  ilec_name: QWEST CORPORATION
  lat:
  long:
- country: US
  region: IA
  exchange: '337989'
  name: CAMBRIA
  full_name: Cambria
  lata: '632'
  ilec_name: GRAND RIVER MUTUAL TEL CO
  lat:
  long:
- country: US
  region: IA
  exchange: '037220'
  name: CAMBRIDGE
  full_name: Cambridge
  lata: '632'
  ilec_name: WINDSTREAM IOWA COMMUNICATIONS, INC. - NORTH
  lat: '41.900438'
  long: "-93.521573"
  closest_city:
    name: Cambridge
    distance_km: 1.19
- country: US
  region: IA
  exchange: '337991'
  name: CAMP DODGE
  full_name: Camp Dodge
  lata: '632'
  ilec_name: QWEST CORPORATION
  lat:
  long:
- country: US
  region: IA
  exchange: '338441'
  name: CANTON
  full_name: Canton
  lata: '634'
  ilec_name: QWEST CORPORATION
  lat:
  long:
- country: US
  region: IA
  exchange: '037230'
  name: CANTRIL
  full_name: Cantril
  lata: '634'
  ilec_name: VAN BUREN TEL. CO., INC.
  lat: '40.651278'
  long: "-92.068399"
  closest_city:
    name: Cantril
    distance_km: 0.93
- country: US
  region: IA
  exchange: '337992'
  name: CARBON
  full_name: Carbon
  lata: '632'
  ilec_name: FRONTIER COMMUNICATIONS OF IOWA, INC.
  lat:
  long:
- country: US
  region: IA
  exchange: '337993'
  name: CARL
  full_name: Carl
  lata: '632'
  ilec_name: FRONTIER COMMUNICATIONS OF IOWA, INC.
  lat:
  long:
- country: US
  region: IA
  exchange: '037240'
  name: CARLISLE
  full_name: Carlisle
  lata: '632'
  ilec_name: QWEST CORPORATION
  lat: '41.499861'
  long: "-93.492497"
  closest_city:
    name: Carlisle
    distance_km: 1.34
- country: US
  region: IA
  exchange: '340401'
  name: CARNARVON
  full_name: Carnarvon
  lata: '644'
  ilec_name: CORN BELT TEL. CO.
  lat:
  long:
- country: US
  region: IA
  exchange: '337995'
  name: CARPENTER
  full_name: Carpenter
  lata: '632'
  ilec_name: WINDSTREAM IOWA COMMUNICATIONS, INC. - NORTH
  lat:
  long:
- country: US
  region: IA
  exchange: '037250'
  name: CARROLL
  full_name: Carroll
  lata: '644'
  ilec_name: QWEST CORPORATION
  lat: '42.065608'
  long: "-94.864132"
  closest_city:
    name: Carroll
    distance_km: 0.48
- country: US
  region: IA
  exchange: '340403'
  name: CARROLLTON
  full_name: Carrollton
  lata: '644'
  ilec_name: WINDSTREAM IOWA COMMUNICATIONS, INC. - NORTH
  lat:
  long:
- country: US
  region: IA
  exchange: '037260'
  name: CARSON
  full_name: Carson
  lata: '644'
  ilec_name: FRONTIER COMMUNICATIONS OF IOWA, INC.
  lat: '41.234619'
  long: "-95.409716"
  closest_city:
    name: Carson
    distance_km: 0.86
- country: US
  region: IA
  exchange: '037270'
  name: CARTERLAKE
  full_name: Carter Lake
  lata: '644'
  ilec_name: QWEST CORPORATION
  lat: '41.291772'
  long: "-95.91971"
  closest_city:
    name: Carter Lake
    distance_km: 0.43
- country: US
  region: IA
  exchange: '337996'
  name: CARTERSVL
  full_name: Cartersville
  lata: '632'
  ilec_name: ROCKWELL COOP. TEL. ASSN.
  lat:
  long:
- country: US
  region: IA
  exchange: '037280'
  name: CASCADE
  full_name: Cascade
  lata: '634'
  ilec_name: CASCADE COMMUNICATIONS COMPANY
  lat: '42.302257'
  long: "-91.016588"
  closest_city:
    name: Cascade
    distance_km: 0.97
- country: US
  region: IA
  exchange: '037290'
  name: CASEY
  full_name: Casey
  lata: '632'
  ilec_name: CASEY MUTUAL TEL. CO.
  lat: '41.506018'
  long: "-94.524986"
  closest_city:
    name: Casey
    distance_km: 0.34
- country: US
  region: IA
  exchange: '037300'
  name: CASTALIA
  full_name: Castalia
  lata: '635'
  ilec_name: ACE TEL. ASSN. - IA
  lat: '43.116336'
  long: "-91.67504"
  closest_city:
    name: Castalia
    distance_km: 0.44
- country: US
  region: IA
  exchange: '037310'
  name: CASTANA
  full_name: Castana
  lata: '630'
  ilec_name: WESTERN IOWA TEL. ASSN.
  lat: '42.084605'
  long: "-95.904985"
  closest_city:
    name: Castana
    distance_km: 1.32
- country: US
  region: IA
  exchange: '337998'
  name: CEDAR
  full_name: Cedar
  lata: '632'
  ilec_name: WINDSTREAM IOWA COMMUNICATIONS, INC. - SYSTEMS
  lat:
  long:
- country: US
  region: IA
  exchange: '338444'
  name: CEDARBLUFF
  full_name: Cedar Bluff
  lata: '634'
  ilec_name: WINDSTREAM IOWA COMMUNICATIONS, INC. - SYSTEMS
  lat:
  long:
- country: US
  region: IA
  exchange: '037320'
  name: CEDARFALLS
  full_name: Cedar Falls
  lata: '635'
  ilec_name: QWEST CORPORATION
  lat: '42.527119'
  long: "-92.450795"
  closest_city:
    name: Cedar Falls
    distance_km: 0.88
- country: US
  region: IA
  exchange: '037330'
  name: CEDAR RPDS
  full_name: Cedar Rapids
  lata: '635'
  ilec_name: QWEST CORPORATION
  lat: '41.981726'
  long: "-91.668084"
  closest_city:
    name: Cedar Rapids
    distance_km: 1.92
- country: US
  region: IA
  exchange: '037333'
  name: CEDAR RAPIDS (SSCT)
  full_name: Cedar Rapids (SSCT)
  lata: '635'
  ilec_name: SOUTH SLOPE COOP. TEL. CO., INC.
  lat: '41.981726'
  long: "-91.668084"
  closest_city:
    name: Cedar Rapids
    distance_km: 1.92
- country: US
  region: IA
  exchange: '037340'
  name: CENTER JCT
  full_name: Center Junction
  lata: '635'
  ilec_name: CENTER JUNCTION TEL. CO.
  lat: '42.117597'
  long: "-91.088675"
  closest_city:
    name: Center Junction
    distance_km: 0.4
- country: US
  region: IA
  exchange: '037350'
  name: CENTER PT
  full_name: Center Point
  lata: '635'
  ilec_name: QWEST CORPORATION
  lat: '42.192942'
  long: "-91.772598"
  closest_city:
    name: Center Point
    distance_km: 1.08
- country: US
  region: IA
  exchange: '037360'
  name: CENTERVL
  full_name: Centerville
  lata: '632'
  ilec_name: WINDSTREAM IOWA COMMUNICATIONS, INC.
  lat: '40.733637'
  long: "-92.876861"
  closest_city:
    name: Centerville
    distance_km: 0.66
- country: US
  region: IA
  exchange: '037370'
  name: CENTRAL CY
  full_name: Central City
  lata: '635'
  ilec_name: WINDSTREAM IOWA COMMUNICATIONS, INC. - NORTH
  lat: '42.192641'
  long: "-91.526543"
  closest_city:
    name: Central City
    distance_km: 1.08
- country: US
  region: IA
  exchange: '338445'
  name: CENTRALIA
  full_name: Centralia
  lata: '634'
  ilec_name: QWEST CORPORATION
  lat:
  long:
- country: US
  region: IA
  exchange: '338000'
  name: CHAPIN
  full_name: Chapin
  lata: '632'
  ilec_name: FRONTIER COMMUNICATIONS OF IOWA, INC.
  lat:
  long:
- country: US
  region: IA
  exchange: '037380'
  name: CHARITON
  full_name: Chariton
  lata: '632'
  ilec_name: WINDSTREAM IOWA COMMUNICATIONS, INC.
  lat: '41.015125'
  long: "-93.307201"
  closest_city:
    name: Chariton
    distance_km: 0.34
- country: US
  region: IA
  exchange: '037390'
  name: CHARLES CY
  full_name: Charles City
  lata: '632'
  ilec_name: QWEST CORPORATION
  lat: '43.067893'
  long: "-92.674687"
  closest_city:
    name: Charles City
    distance_km: 0.37
- country: US
  region: IA
  exchange: '037400'
  name: CHARLOTTE
  full_name: Charlotte
  lata: '634'
  ilec_name: WINDSTREAM IOWA COMMUNICATIONS, INC. - SYSTEMS
  lat: '41.967759'
  long: "-90.466691"
  closest_city:
    name: Charlotte
    distance_km: 0.64
- country: US
  region: IA
  exchange: '037410'
  name: CHARTEROAK
  full_name: Charter Oak
  lata: '644'
  ilec_name: FRONTIER COMMUNICATIONS OF IOWA, INC.
  lat: '42.067171'
  long: "-95.593807"
  closest_city:
    name: Charter Oak
    distance_km: 0.36
- country: US
  region: IA
  exchange: '337747'
  name: CHATSWORTH
  full_name: Chatsworth
  lata: '630'
  ilec_name: HEARTLAND TELECO OF IA DBA PREMIER COMMUNICATIONS
  lat:
  long:
- country: US
  region: IA
  exchange: '037420'
  name: CHELSEA
  full_name: Chelsea
  lata: '632'
  ilec_name: WINDSTREAM IOWA COMMUNICATIONS, INC. - NORTH
  lat: '41.924614'
  long: "-92.39087"
  closest_city:
    name: Chelsea
    distance_km: 0.56
- country: US
  region: IA
  exchange: '037430'
  name: CHEROKEE
  full_name: Cherokee
  lata: '630'
  ilec_name: QWEST CORPORATION
  lat: '42.751247'
  long: "-95.548724"
  closest_city:
    name: Cherokee
    distance_km: 0.37
- country: US
  region: IA
  exchange: '037440'
  name: CHESTER
  full_name: Chester
  lata: '635'
  ilec_name: CENTURYTEL OF CHESTER, INC. DBA CENTURYLINK
  lat: '43.482447'
  long: "-92.349348"
  closest_city:
    name: Chester
    distance_km: 1.56
- country: US
  region: IA
  exchange: '037450'
  name: CHILLICOTH
  full_name: Chillicothe
  lata: '632'
  ilec_name: WINDSTREAM IOWA COMMUNICATIONS, INC.
  lat: '41.08391'
  long: "-92.524744"
  closest_city:
    name: Chillicothe
    distance_km: 0.5
- country: US
  region: IA
  exchange: '338690'
  name: CHURCH
  full_name: Church
  lata: '635'
  ilec_name: ACE TEL. ASSN. - IA
  lat:
  long:
- country: US
  region: IA
  exchange: '037460'
  name: CHURDAN
  full_name: Churdan
  lata: '632'
  ilec_name: WEBSTER-CALHOUN COOP. TEL. ASSN.
  lat: '42.15016'
  long: "-94.472005"
  closest_city:
    name: Churdan
    distance_km: 0.67
- country: US
  region: IA
  exchange: '037470'
  name: CINCINNATI
  full_name: Cincinnati
  lata: '632'
  ilec_name: WINDSTREAM IOWA COMMUNICATIONS, INC.
  lat: '40.633038'
  long: "-92.923897"
  closest_city:
    name: Cincinnati
    distance_km: 0.28
- country: US
  region: IA
  exchange: '037480'
  name: CLARE
  full_name: Clare
  lata: '632'
  ilec_name: WEBSTER-CALHOUN COOP. TEL. ASSN.
  lat: '42.592191'
  long: "-94.340277"
  closest_city:
    name: Clare
    distance_km: 0.63
- country: US
  region: IA
  exchange: '037490'
  name: CLARENCE
  full_name: Clarence
  lata: '635'
  ilec_name: CLARENCE TEL. CO. INC.
  lat: '41.890621'
  long: "-91.057834"
  closest_city:
    name: Clarence
    distance_km: 0.54
- country: US
  region: IA
  exchange: '037500'
  name: CLARINDA
  full_name: Clarinda
  lata: '644'
  ilec_name: WINDSTREAM IOWA COMMUNICATIONS, INC. - NORTH
  lat: '40.734262'
  long: "-95.031047"
  closest_city:
    name: Clarinda
    distance_km: 0.45
- country: US
  region: IA
  exchange: '037510'
  name: CLARION
  full_name: Clarion
  lata: '632'
  ilec_name: QWEST CORPORATION
  lat: '42.731767'
  long: "-93.732726"
  closest_city:
    name: Clarion
    distance_km: 0.24
- country: US
  region: IA
  exchange: '037520'
  name: CLARKSVL
  full_name: Clarksville
  lata: '635'
  ilec_name: BUTLER-BREMER MUTUAL TEL. CO.
  lat: '42.791243'
  long: "-92.655571"
  closest_city:
    name: Clarksville
    distance_km: 1.63
- country: US
  region: IA
  exchange: '338693'
  name: CLAYTON
  full_name: Clayton
  lata: '635'
  ilec_name: ALPINE COMMUNICATIONS, L.C.
  lat:
  long:
- country: US
  region: IA
  exchange: '037530'
  name: CLEAR LAKE
  full_name: Clear Lake
  lata: '632'
  ilec_name: CLEAR LAKE INDEPENDENT TEL. CO.
  lat: '43.136048'
  long: "-93.376291"
  closest_city:
    name: Clear Lake
    distance_km: 0.24
- country: US
  region: IA
  exchange: '037540'
  name: CLEARFIELD
  full_name: Clearfield
  lata: '632'
  ilec_name: WINDSTREAM IOWA COMMUNICATIONS, INC.
  lat: '40.807929'
  long: "-94.475512"
  closest_city:
    name: Clearfield
    distance_km: 0.89
- country: US
  region: IA
  exchange: '037550'
  name: CLEGHORN
  full_name: Cleghorn
  lata: '630'
  ilec_name: C-M-L TEL. COOP. ASSN. OF MERIDEN IOWA
  lat: '42.809248'
  long: "-95.718617"
  closest_city:
    name: Cleghorn
    distance_km: 0.6
- country: US
  region: IA
  exchange: '037560'
  name: CLEMONS
  full_name: Clemons
  lata: '632'
  ilec_name: MINERVA VALLEY TEL. CO., INC.
  lat: '42.118238'
  long: "-93.159995"
  closest_city:
    name: Clemons
    distance_km: 0.49
- country: US
  region: IA
  exchange: '037570'
  name: CLERMONT
  full_name: Clermont
  lata: '635'
  ilec_name: ACE TEL. ASSN. - IA
  lat: '42.998747'
  long: "-91.661144"
  closest_city:
    name: Clermont
    distance_km: 0.73
- country: US
  region: IA
  exchange: '338012'
  name: CLEVES
  full_name: Cleves
  lata: '632'
  ilec_name: QWEST CORPORATION
  lat:
  long:
- country: US
  region: IA
  exchange: '037580'
  name: CLIMBINGHL
  full_name: Climbing Hill
  lata: '630'
  ilec_name: WESTERN IOWA TEL. ASSN.
  lat: '42.342396'
  long: "-96.089137"
  closest_city:
    name: Climbing Hill
    distance_km: 0.74
- country: US
  region: IA
  exchange: '037590'
  name: CLINTON
  full_name: Clinton
  lata: '634'
  ilec_name: QWEST CORPORATION
  lat: '41.859517'
  long: "-90.188383"
  closest_city:
    name: Clinton
    distance_km: 4.72
- country: US
  region: IA
  exchange: '338013'
  name: CLIO
  full_name: Clio
  lata: '632'
  ilec_name: GRAND RIVER MUTUAL TEL CO
  lat:
  long:
- country: US
  region: IA
  exchange: '338014'
  name: CLIVE
  full_name: Clive
  lata: '632'
  ilec_name: QWEST CORPORATION
  lat:
  long:
- country: US
  region: IA
  exchange: '037600'
  name: CLUTIER
  full_name: Clutier
  lata: '635'
  ilec_name: FARMERS COOP. TEL. CO.
  lat: '42.075399'
  long: "-92.398884"
  closest_city:
    name: Clutier
    distance_km: 0.58
- country: US
  region: IA
  exchange: '340408'
  name: COBURG
  full_name: Coburg
  lata: '644'
  ilec_name: QWEST CORPORATION
  lat:
  long:
- country: US
  region: IA
  exchange: '037610'
  name: COGGON
  full_name: Coggon
  lata: '635'
  ilec_name: QWEST CORPORATION
  lat: '42.281447'
  long: "-91.531201"
  closest_city:
    name: Coggon
    distance_km: 0.36
- country: US
  region: IA
  exchange: '037620'
  name: COIN
  full_name: Coin
  lata: '644'
  ilec_name: IAMO COMMUNICATIONS, INC.
  lat: '40.656851'
  long: "-95.225434"
  closest_city:
    name: Coin
    distance_km: 0.81
- country: US
  region: IA
  exchange: '037630'
  name: COLESBURG
  full_name: Colesburg
  lata: '634'
  ilec_name: WINDSTREAM IOWA COMMUNICATIONS, INC. - NORTH
  lat: '42.641187'
  long: "-91.20198"
  closest_city:
    name: Colesburg
    distance_km: 0.28
- country: US
  region: IA
  exchange: '037640'
  name: COLFAX
  full_name: Colfax
  lata: '632'
  ilec_name: QWEST CORPORATION
  lat: '41.673116'
  long: "-93.240802"
  closest_city:
    name: Colfax
    distance_km: 0.81
- country: US
  region: IA
  exchange: '037650'
  name: COLLEGESPG
  full_name: College Springs
  lata: '644'
  ilec_name: WINDSTREAM IOWA COMMUNICATIONS, INC. - NORTH
  lat: '40.616336'
  long: "-95.116865"
  closest_city:
    name: College Springs
    distance_km: 0.66
- country: US
  region: IA
  exchange: '037660'
  name: COLLINS
  full_name: Collins
  lata: '632'
  ilec_name: WINDSTREAM IOWA COMMUNICATIONS, INC. - NORTH
  lat: '41.901088'
  long: "-93.29856"
  closest_city:
    name: Collins
    distance_km: 0.8
- country: US
  region: IA
  exchange: '037670'
  name: COLO
  full_name: Colo
  lata: '632'
  ilec_name: COLO TEL. CO.
  lat: '42.01663'
  long: "-93.309724"
  closest_city:
    name: Colo
    distance_km: 0.77
- country: US
  region: IA
  exchange: '338018'
  name: COLUMBIA
  full_name: Columbia
  lata: '632'
  ilec_name: WINDSTREAM IOWA COMMUNICATIONS, INC.
  lat:
  long:
- country: US
  region: IA
  exchange: '338450'
  name: COLUMBUSCY
  full_name: Columbus City
  lata: '634'
  ilec_name: WINDSTREAM IOWA COMMUNICATIONS, INC.
  lat:
  long:
- country: US
  region: IA
  exchange: '037680'
  name: COLUMBSJCT
  full_name: Columbus Junction
  lata: '634'
  ilec_name: WINDSTREAM IOWA COMMUNICATIONS, INC.
  lat: '41.281397'
  long: "-91.359727"
  closest_city:
    name: Columbus Junction
    distance_km: 0.43
- country: US
  region: IA
  exchange: '338019'
  name: COLWELL
  full_name: Colwell
  lata: '632'
  ilec_name: QWEST CORPORATION
  lat:
  long:
- country: US
  region: IA
  exchange: '338020'
  name: COMMERCE
  full_name: Commerce
  lata: '632'
  ilec_name: QWEST CORPORATION
  lat:
  long:
- country: US
  region: IA
  exchange: '037690'
  name: CONESVILLE
  full_name: Conesville
  lata: '634'
  ilec_name: WINDSTREAM IOWA COMMUNICATIONS, INC.
  lat: '41.384905'
  long: "-91.348091"
  closest_city:
    name: Conesville
    distance_km: 0.6
- country: US
  region: IA
  exchange: '338021'
  name: CONFIDENCE
  full_name: Confidence
  lata: '632'
  ilec_name: GRAND RIVER MUTUAL TEL CO
  lat:
  long:
- country: US
  region: IA
  exchange: '037700'
  name: CONRAD
  full_name: Conrad
  lata: '632'
  ilec_name: HEART OF IOWA COMMUNICATIONS COOPERATIVE - IA
  lat: '42.231723'
  long: "-92.866424"
  closest_city:
    name: Conrad
    distance_km: 1.12
- country: US
  region: IA
  exchange: '037710'
  name: CONROY
  full_name: Conroy
  lata: '635'
  ilec_name: WINDSTREAM IOWA COMMUNICATIONS, INC. - NORTH
  lat: '41.723866'
  long: "-91.994088"
  closest_city:
    name: Conroy
    distance_km: 0.48
- country: US
  region: IA
  exchange: '340411'
  name: CONWAY
  full_name: Conway
  lata: '644'
  ilec_name: WINDSTREAM IOWA COMMUNICATIONS, INC.
  lat:
  long:
- country: US
  region: IA
  exchange: '037720'
  name: COONRAPIDS
  full_name: Coon Rapids
  lata: '644'
  ilec_name: WINDSTREAM IOWA COMMUNICATIONS, INC.
  lat: '41.872732'
  long: "-94.673789"
  closest_city:
    name: Coon Rapids
    distance_km: 0.45
- country: US
  region: IA
  exchange: '338023'
  name: COOPER
  full_name: Cooper
  lata: '632'
  ilec_name: JEFFERSON TEL. CO.
  lat:
  long:
- country: US
  region: IA
  exchange: '338452'
  name: COPPOCK
  full_name: Coppock
  lata: '634'
  ilec_name: FARMERS & MERCHANTS DBA KALON COOP TELE CO (KCTC)
  lat:
  long:
- country: US
  region: IA
  exchange: '338698'
  name: CORALVILLE
  full_name: Coralville
  lata: '635'
  ilec_name: QWEST CORPORATION
  lat:
  long:
- country: US
  region: IA
  exchange: '340413'
  name: CORLEY
  full_name: Corley
  lata: '644'
  ilec_name: WINDSTREAM IOWA COMMUNICATIONS, INC. - SYSTEMS
  lat:
  long:
- country: US
  region: IA
  exchange: '337752'
  name: CORNELL
  full_name: Cornell
  lata: '630'
  ilec_name: QWEST CORPORATION
  lat:
  long:
- country: US
  region: IA
  exchange: '037730'
  name: CORNING
  full_name: Corning
  lata: '632'
  ilec_name: FRONTIER COMMUNICATIONS OF IOWA, INC.
  lat: '40.991596'
  long: "-94.74047"
  closest_city:
    name: Corning
    distance_km: 0.1
- country: US
  region: IA
  exchange: '037740'
  name: CORECTINVL
  full_name: Correctionville
  lata: '630'
  ilec_name: QWEST CORPORATION
  lat: '42.482712'
  long: "-95.782109"
  closest_city:
    name: Correctionville
    distance_km: 0.59
- country: US
  region: IA
  exchange: '037750'
  name: CORWITH
  full_name: Corwith
  lata: '632'
  ilec_name: COMMUNICATIONS 1 NETWORKS, INC.
  lat: '42.993228'
  long: "-93.957444"
  closest_city:
    name: Corwith
    distance_km: 0.49
- country: US
  region: IA
  exchange: '037760'
  name: CORYDON
  full_name: Corydon
  lata: '632'
  ilec_name: SOUTH CENTRAL COMMUNICATIONS, INC.
  lat: '40.758294'
  long: "-93.313591"
  closest_city:
    name: Corydon
    distance_km: 0.34
- country: US
  region: IA
  exchange: '338453'
  name: COTTER
  full_name: Cotter
  lata: '634'
  ilec_name: WINDSTREAM IOWA COMMUNICATIONS, INC.
  lat:
  long:
- country: US
  region: IA
  exchange: '037770'
  name: COULTER
  full_name: Coulter
  lata: '632'
  ilec_name: FRONTIER COMMUNICATIONS OF IOWA, INC.
  lat: '42.732797'
  long: "-93.370118"
  closest_city:
    name: Coulter
    distance_km: 0.02
- country: US
  region: IA
  exchange: '037780'
  name: COUNCILBLF
  full_name: Council Bluffs
  lata: '644'
  ilec_name: QWEST CORPORATION
  lat: '41.264374'
  long: "-95.849008"
  closest_city:
    name: Council Bluffs
    distance_km: 3.06
- country: US
  region: IA
  exchange: '337753'
  name: CRAIG
  full_name: Craig
  lata: '630'
  ilec_name: FRONTIER COMMUNICATIONS OF IOWA, INC.
  lat:
  long:
- country: US
  region: IA
  exchange: '338454'
  name: CRANSTON
  full_name: Cranston
  lata: '634'
  ilec_name: WINDSTREAM IOWA COMMUNICATIONS, INC.
  lat:
  long:
- country: US
  region: IA
  exchange: '037790'
  name: CRAWFODSVL
  full_name: Crawfordsville
  lata: '634'
  ilec_name: WINDSTREAM IOWA COMMUNICATIONS, INC.
  lat: '41.216857'
  long: "-91.535493"
  closest_city:
    name: Crawfordsville
    distance_km: 0.34
- country: US
  region: IA
  exchange: '037800'
  name: CRESCENT
  full_name: Crescent
  lata: '644'
  ilec_name: QWEST CORPORATION
  lat: '41.365798'
  long: "-95.852421"
  closest_city:
    name: Crescent
    distance_km: 0.55
- country: US
  region: IA
  exchange: '037810'
  name: CRESCO
  full_name: Cresco
  lata: '635'
  ilec_name: WINDSTREAM IOWA COMMUNICATIONS, INC. - NORTH
  lat: '43.373553'
  long: "-92.106254"
  closest_city:
    name: Cresco
    distance_km: 0.84
- country: US
  region: IA
  exchange: '037820'
  name: CRESTON
  full_name: Creston
  lata: '632'
  ilec_name: WINDSTREAM IOWA COMMUNICATIONS, INC. - NORTH
  lat: '41.058866'
  long: "-94.364386"
  closest_city:
    name: Creston
    distance_km: 0.12
- country: US
  region: IA
  exchange: '338029'
  name: CROMWELL
  full_name: Cromwell
  lata: '632'
  ilec_name: WINDSTREAM IOWA COMMUNICATIONS, INC. - NORTH
  lat:
  long:
- country: US
  region: IA
  exchange: '037830'
  name: CRYSTAL LK
  full_name: Crystal Lake
  lata: '632'
  ilec_name: WINNEBAGO COOP. TEL. ASSN. - IA
  lat: '43.222367'
  long: "-93.791102"
  closest_city:
    name: Crystal Lake
    distance_km: 0.15
- country: US
  region: IA
  exchange: '037840'
  name: CUMBERLAND
  full_name: Cumberland
  lata: '644'
  ilec_name: CUMBERLAND TEL. CO.
  lat: '41.274226'
  long: "-94.86418"
  closest_city:
    name: Cumberland
    distance_km: 0.54
- country: US
  region: IA
  exchange: '338031'
  name: CUMMING
  full_name: Cumming
  lata: '632'
  ilec_name: QWEST CORPORATION
  lat:
  long:
- country: US
  region: IA
  exchange: '037850'
  name: CURLEW
  full_name: Curlew
  lata: '630'
  ilec_name: NORTHWEST TEL. COOP. ASSN.
  lat: '42.976276'
  long: "-94.732487"
  closest_city:
    name: Curlew
    distance_km: 0.58
- country: US
  region: IA
  exchange: '037860'
  name: CUSHING
  full_name: Cushing
  lata: '630'
  ilec_name: SCHALLER TEL. CO.
  lat: '42.465139'
  long: "-95.677648"
  closest_city:
    name: Cushing
    distance_km: 0.16
- country: US
  region: IA
  exchange: '037870'
  name: CYLINDER
  full_name: Cylinder
  lata: '630'
  ilec_name: WINDSTREAM IOWA COMMUNICATIONS, INC. - NORTH
  lat: '43.09166'
  long: "-94.541451"
  closest_city:
    name: Cylinder
    distance_km: 0.82
- country: US
  region: IA
  exchange: '338032'
  name: DAKOTACITY
  full_name: Dakota City
  lata: '632'
  ilec_name: QWEST CORPORATION
  lat:
  long:
- country: US
  region: IA
  exchange: '338033'
  name: DALLAS
  full_name: Dallas
  lata: '632'
  ilec_name: WINDSTREAM IOWA COMMUNICATIONS, INC.
  lat:
  long:
- country: US
  region: IA
  exchange: '037880'
  name: DALLAS CTR
  full_name: Dallas Center
  lata: '632'
  ilec_name: QWEST CORPORATION
  lat: '41.682824'
  long: "-93.960378"
  closest_city:
    name: Dallas Center
    distance_km: 1.79
- country: US
  region: IA
  exchange: '338035'
  name: DANA
  full_name: Dana
  lata: '632'
  ilec_name: WINDSTREAM IOWA COMMUNICATIONS, INC. - NORTH
  lat:
  long:
- country: US
  region: IA
  exchange: '037890'
  name: DANBURY
  full_name: Danbury
  lata: '630'
  ilec_name: QWEST CORPORATION
  lat: '42.231083'
  long: "-95.715754"
  closest_city:
    name: Danbury
    distance_km: 0.76
- country: US
  region: IA
  exchange: '037900'
  name: DANVILLE
  full_name: Danville
  lata: '634'
  ilec_name: DANVILLE MUTUAL TEL. CO.
  lat: '40.866644'
  long: "-91.305534"
  closest_city:
    name: Danville
    distance_km: 1.06
- country: US
  region: IA
  exchange: '037910'
  name: DAVENPORT
  full_name: Davenport
  lata: '634'
  ilec_name: QWEST CORPORATION
  lat: '41.522913'
  long: "-90.573729"
  closest_city:
    name: Davenport
    distance_km: 4.57
- country: US
  region: IA
  exchange: '037920'
  name: DAVIS CITY
  full_name: Davis City
  lata: '632'
  ilec_name: GRAND RIVER MUTUAL TEL CO
  lat: '40.631975'
  long: "-93.817992"
  closest_city:
    name: Davis City
    distance_km: 1.0
- country: US
  region: IA
  exchange: '037930'
  name: DAWSON
  full_name: Dawson
  lata: '632'
  ilec_name: QWEST CORPORATION
  lat: '41.849373'
  long: "-94.217928"
  closest_city:
    name: Dawson
    distance_km: 0.72
- country: US
  region: IA
  exchange: '037940'
  name: DAYTON
  full_name: Dayton
  lata: '632'
  ilec_name: LEHIGH VALLEY COOP. TEL. ASSN.
  lat: '42.264877'
  long: "-94.066922"
  closest_city:
    name: Dayton
    distance_km: 0.45
- country: US
  region: IA
  exchange: '037950'
  name: DE SOTO
  full_name: De Soto
  lata: '632'
  ilec_name: WINDSTREAM IOWA COMMUNICATIONS, INC. - NORTH
  lat: '41.532016'
  long: "-94.009015"
  closest_city:
    name: De Soto
    distance_km: 0.58
- country: US
  region: IA
  exchange: '037960'
  name: DE WITT
  full_name: De Witt
  lata: '634'
  ilec_name: WINDSTREAM IOWA COMMUNICATIONS, INC. - SYSTEMS
  lat: '41.824774'
  long: "-90.540157"
  closest_city:
    name: DeWitt
    distance_km: 0.45
- country: US
  region: IA
  exchange: '338040'
  name: DEAN
  full_name: Dean
  lata: '632'
  ilec_name: FARMERS MUTUAL COOP. TEL. CO.
  lat:
  long:
- country: US
  region: IA
  exchange: '338041'
  name: DECATUR
  full_name: Decatur
  lata: '632'
  ilec_name: GRAND RIVER MUTUAL TEL CO
  lat:
  long:
- country: US
  region: IA
  exchange: '037970'
  name: DECORAH
  full_name: Decorah
  lata: '635'
  ilec_name: QWEST CORPORATION
  lat: '43.298528'
  long: "-91.786112"
  closest_city:
    name: Decorah
    distance_km: 0.35
- country: US
  region: IA
  exchange: '037980'
  name: DEDHAM
  full_name: Dedham
  lata: '644'
  ilec_name: WINDSTREAM IOWA COMMUNICATIONS, INC.
  lat: '41.908249'
  long: "-94.81407"
  closest_city:
    name: Dedham
    distance_km: 0.76
- country: US
  region: IA
  exchange: '037990'
  name: DEEP RIVER
  full_name: Deep River
  lata: '632'
  ilec_name: WINDSTREAM MONTEZUMA, LLC
  lat: '41.583949'
  long: "-92.365313"
  closest_city:
    name: Deep River
    distance_km: 0.68
- country: US
  region: IA
  exchange: '038000'
  name: DEFIANCE
  full_name: Defiance
  lata: '644'
  ilec_name: FARMERS MUTUAL COOP. TEL. CO.
  lat: '41.833173'
  long: "-95.331773"
  closest_city:
    name: Defiance
    distance_km: 1.12
- country: US
  region: IA
  exchange: '338701'
  name: DELAWARE
  full_name: Delaware
  lata: '635'
  ilec_name: WINDSTREAM IOWA COMMUNICATIONS, INC. - NORTH
  lat:
  long:
- country: US
  region: IA
  exchange: '038010'
  name: DELHI
  full_name: Delhi
  lata: '635'
  ilec_name: WINDSTREAM IOWA COMMUNICATIONS, INC. - NORTH
  lat: '42.4309'
  long: "-91.331822"
  closest_city:
    name: Delhi
    distance_km: 0.11
- country: US
  region: IA
  exchange: '038020'
  name: DELMAR
  full_name: Delmar
  lata: '634'
  ilec_name: WINDSTREAM IOWA COMMUNICATIONS, INC. - SYSTEMS
  lat: '42.001949'
  long: "-90.615691"
  closest_city:
    name: Delmar
    distance_km: 0.72
- country: US
  region: IA
  exchange: '340419'
  name: DELOIT
  full_name: Deloit
  lata: '644'
  ilec_name: FRONTIER COMMUNICATIONS OF IOWA, INC.
  lat:
  long:
- country: US
  region: IA
  exchange: '338043'
  name: DELPHOS
  full_name: Delphos
  lata: '632'
  ilec_name: WINDSTREAM IOWA COMMUNICATIONS, INC.
  lat:
  long:
- country: US
  region: IA
  exchange: '038030'
  name: DELTA
  full_name: Delta
  lata: '632'
  ilec_name: WINDSTREAM IOWA COMMUNICATIONS, INC. - NORTH
  lat: '41.32428'
  long: "-92.323593"
  closest_city:
    name: Delta
    distance_km: 0.6
- country: US
  region: IA
  exchange: '038040'
  name: DENISON
  full_name: Denison
  lata: '644'
  ilec_name: FRONTIER COMMUNICATIONS OF IOWA, INC.
  lat: '42.014722'
  long: "-95.349116"
  closest_city:
    name: Denison
    distance_km: 0.35
- country: US
  region: IA
  exchange: '038050'
  name: DENMARK
  full_name: Denmark
  lata: '634'
  ilec_name: WINDSTREAM IOWA COMMUNICATIONS, INC.
  lat: '40.740288'
  long: "-91.324754"
  closest_city:
    name: Denmark
    distance_km: 1.14
- country: US
  region: IA
  exchange: '038060'
  name: DENVER
  full_name: Denver
  lata: '635'
  ilec_name: QWEST CORPORATION
  lat: '42.666076'
  long: "-92.335951"
  closest_city:
    name: Denver
    distance_km: 0.26
- country: US
  region: IA
  exchange: '038070'
  name: DERBY
  full_name: Derby
  lata: '632'
  ilec_name: GRAND RIVER MUTUAL TEL CO
  lat: '40.933938'
  long: "-93.455184"
  closest_city:
    name: Derby
    distance_km: 0.42
- country: US
  region: IA
  exchange: '038080'
  name: DES MOINES
  full_name: Des Moines
  lata: '632'
  ilec_name: QWEST CORPORATION
  lat: '41.590759'
  long: "-93.626025"
  closest_city:
    name: Des Moines
    distance_km: 2.41
- country: US
  region: IA
  exchange: '338704'
  name: DEWAR
  full_name: Dewar
  lata: '635'
  ilec_name: QWEST CORPORATION
  lat:
  long:
- country: US
  region: IA
  exchange: '038090'
  name: DEXTER
  full_name: Dexter
  lata: '632'
  ilec_name: WINDSTREAM IOWA COMMUNICATIONS, INC. - NORTH
  lat: '41.515961'
  long: "-94.218914"
  closest_city:
    name: Dexter
    distance_km: 0.73
- country: US
  region: IA
  exchange: '038100'
  name: DIAGONAL
  full_name: Diagonal
  lata: '632'
  ilec_name: WINDSTREAM IOWA COMMUNICATIONS, INC.
  lat: '40.817586'
  long: "-94.337934"
  closest_city:
    name: Diagonal
    distance_km: 0.87
- country: US
  region: IA
  exchange: '038110'
  name: DICKENS
  full_name: Dickens
  lata: '630'
  ilec_name: WEBB-DICKENS TEL. CORP.
  lat: '43.133853'
  long: "-95.021941"
  closest_city:
    name: Dickens
    distance_km: 0.02
- country: US
  region: IA
  exchange: '038120'
  name: DIKE
  full_name: Dike
  lata: '635'
  ilec_name: QWEST CORPORATION
  lat: '42.465189'
  long: "-92.626321"
  closest_city:
    name: Dike
    distance_km: 0.14
- country: US
  region: IA
  exchange: '338706'
  name: DINSDALE
  full_name: Dinsdale
  lata: '635'
  ilec_name: WINDSTREAM IOWA COMMUNICATIONS, INC. - NORTH
  lat:
  long:
- country: US
  region: IA
  exchange: '038130'
  name: DIXON
  full_name: Dixon
  lata: '634'
  ilec_name: DIXON ACQUISITION, LLC
  lat: '41.744464'
  long: "-90.783955"
  closest_city:
    name: Dixon
    distance_km: 0.29
- country: US
  region: IA
  exchange: '038140'
  name: DODGEVILLE
  full_name: Dodgeville
  lata: '634'
  ilec_name: MEDIAPOLIS TEL. CO.
  lat: '40.942704'
  long: "-91.176797"
  closest_city:
    name: Sperry
    distance_km: 2.4
- country: US
  region: IA
  exchange: '038150'
  name: DOLLIVER
  full_name: Dolliver
  lata: '630'
  ilec_name: WINDSTREAM IOWA COMMUNICATIONS, INC. - NORTH
  lat: '43.465913'
  long: "-94.606802"
  closest_city:
    name: Dolliver
    distance_km: 0.65
- country: US
  region: IA
  exchange: '038160'
  name: DONAHUE
  full_name: Donahue
  lata: '634'
  ilec_name: CENTRAL SCOTT TEL.
  lat: '41.693688'
  long: "-90.673711"
  closest_city:
    name: Donahue
    distance_km: 0.25
- country: US
  region: IA
  exchange: '338707'
  name: DONNAN
  full_name: Donnan
  lata: '635'
  ilec_name: QWEST CORPORATION
  lat:
  long:
- country: US
  region: IA
  exchange: '038170'
  name: DONNELLSON
  full_name: Donnellson
  lata: '634'
  ilec_name: WINDSTREAM IOWA COMMUNICATIONS, INC.
  lat: '40.633389'
  long: "-91.565652"
  closest_city:
    name: Donnellson
    distance_km: 1.33
- country: US
  region: IA
  exchange: '038180'
  name: DOON
  full_name: Doon
  lata: '630'
  ilec_name: HEARTLAND TELECO OF IA DBA PREMIER COMMUNICATIONS
  lat: '43.28241'
  long: "-96.230812"
  closest_city:
    name: Doon
    distance_km: 0.42
- country: US
  region: IA
  exchange: '038190'
  name: DORCHESTER
  full_name: Dorchester
  lata: '620'
  ilec_name: ACE TEL. ASSN. - MN
  lat: '43.467991'
  long: "-91.508175"
  closest_city:
    name: New Albin
    distance_km: 18.07
- country: US
  region: IA
  exchange: '038200'
  name: DOUDS
  full_name: Douds
  lata: '632'
  ilec_name: WINDSTREAM IOWA COMMUNICATIONS, INC.
  lat: '40.832831'
  long: "-92.090197"
  closest_city:
    name: Leando
    distance_km: 1.21
- country: US
  region: IA
  exchange: '038210'
  name: DOUGHERTY
  full_name: Dougherty
  lata: '632'
  ilec_name: ROCKWELL COOP. TEL. ASSN.
  lat: '42.917906'
  long: "-93.043677"
  closest_city:
    name: Dougherty
    distance_km: 0.77
- country: US
  region: IA
  exchange: '038220'
  name: DOW CITY
  full_name: Dow City
  lata: '644'
  ilec_name: FRONTIER COMMUNICATIONS OF IOWA, INC.
  lat: '41.925575'
  long: "-95.479832"
  closest_city:
    name: Dow City
    distance_km: 1.22
- country: US
  region: IA
  exchange: '338708'
  name: DOWNEY
  full_name: Downey
  lata: '635'
  ilec_name: WEST LIBERTY TEL. CO.
  lat:
  long:
- country: US
  region: IA
  exchange: '038230'
  name: DOWS
  full_name: Dows
  lata: '632'
  ilec_name: WINDSTREAM IOWA COMMUNICATIONS, INC.
  lat: '42.658148'
  long: "-93.51128"
  closest_city:
    name: Dows
    distance_km: 0.83
- country: US
  region: IA
  exchange: '038240'
  name: DRAKESVL
  full_name: Drakesville
  lata: '632'
  ilec_name: CITIZENS MUTUAL TELEPHONE COOPERATIVE
  lat: '40.801663'
  long: "-92.476351"
  closest_city:
    name: Drakesville
    distance_km: 0.54
- country: US
  region: IA
  exchange: '038250'
  name: DUBUQUE
  full_name: Dubuque
  lata: '634'
  ilec_name: QWEST CORPORATION
  lat: '42.509806'
  long: "-90.66652"
  closest_city:
    name: Dubuque
    distance_km: 3.49
- country: US
  region: IA
  exchange: '038260'
  name: DUMONT
  full_name: Dumont
  lata: '632'
  ilec_name: DUMONT TEL. CO.
  lat: '42.750282'
  long: "-92.969222"
  closest_city:
    name: Dumont
    distance_km: 0.42
- country: US
  region: IA
  exchange: '338054'
  name: DUNBAR
  full_name: Dunbar
  lata: '632'
  ilec_name: WINDSTREAM IOWA COMMUNICATIONS, INC. - NORTH
  lat:
  long:
- country: US
  region: IA
  exchange: '038270'
  name: DUNCOMBE
  full_name: Duncombe
  lata: '632'
  ilec_name: WEBSTER-CALHOUN COOP. TEL. ASSN.
  lat: '42.472536'
  long: "-93.990646"
  closest_city:
    name: Duncombe
    distance_km: 0.59
- country: US
  region: IA
  exchange: '338709'
  name: DUNDEE
  full_name: Dundee
  lata: '635'
  ilec_name: WINDSTREAM IOWA COMMUNICATIONS, INC. - NORTH
  lat:
  long:
- country: US
  region: IA
  exchange: '038280'
  name: DUNKERTON
  full_name: Dunkerton
  lata: '635'
  ilec_name: DUNKERTON TEL. COOP.
  lat: '42.568407'
  long: "-92.157446"
  closest_city:
    name: Dunkerton
    distance_km: 0.29
- country: US
  region: IA
  exchange: '038290'
  name: DUNLAP
  full_name: Dunlap
  lata: '644'
  ilec_name: WINDSTREAM IOWA COMMUNICATIONS, INC. - NORTH
  lat: '41.860073'
  long: "-95.590154"
  closest_city:
    name: Dunlap
    distance_km: 1.24
- country: US
  region: IA
  exchange: '338466'
  name: DURANGO
  full_name: Durango
  lata: '634'
  ilec_name: QWEST CORPORATION
  lat:
  long:
- country: US
  region: IA
  exchange: '038300'
  name: DURANT
  full_name: Durant
  lata: '634'
  ilec_name: WINDSTREAM IOWA COMMUNICATIONS, INC. - SYSTEMS
  lat: '41.598594'
  long: "-90.9194"
  closest_city:
    name: Durant
    distance_km: 0.54
- country: US
  region: IA
  exchange: '038310'
  name: DYERSVILLE
  full_name: Dyersville
  lata: '634'
  ilec_name: WINDSTREAM IOWA COMMUNICATIONS, INC. - NORTH
  lat: '42.485018'
  long: "-91.124522"
  closest_city:
    name: Dyersville
    distance_km: 0.66
- country: US
  region: IA
  exchange: '038320'
  name: DYSART
  full_name: Dysart
  lata: '635'
  ilec_name: FARMERS COOP. TEL. CO.
  lat: '42.174661'
  long: "-92.302834"
  closest_city:
    name: Dysart
    distance_km: 0.59
- country: US
  region: IA
  exchange: '038330'
  name: EAGLEGROVE
  full_name: Eagle Grove
  lata: '632'
  ilec_name: QWEST CORPORATION
  lat: '42.666057'
  long: "-93.901873"
  closest_city:
    name: Eagle Grove
    distance_km: 0.05
- country: US
  region: IA
  exchange: '038340'
  name: EARLHAM
  full_name: Earlham
  lata: '632'
  ilec_name: QWEST CORPORATION
  lat: '41.492795'
  long: "-94.118908"
  closest_city:
    name: Earlham
    distance_km: 0.31
- country: US
  region: IA
  exchange: '038350'
  name: EARLING
  full_name: Earling
  lata: '644'
  ilec_name: FARMERS MUTUAL COOP. TEL. CO.
  lat: '41.781907'
  long: "-95.407465"
  closest_city:
    name: Earling
    distance_km: 1.14
- country: US
  region: IA
  exchange: '038360'
  name: EARLVILLE
  full_name: Earlville
  lata: '634'
  ilec_name: WINDSTREAM IOWA COMMUNICATIONS, INC. - NORTH
  lat: '42.483415'
  long: "-91.263345"
  closest_city:
    name: Earlville
    distance_km: 0.57
- country: US
  region: IA
  exchange: '038370'
  name: EARLY
  full_name: Early
  lata: '644'
  ilec_name: FRONTIER COMMUNICATIONS OF IOWA, INC.
  lat: '42.465178'
  long: "-95.152044"
  closest_city:
    name: Early
    distance_km: 0.47
- country: US
  region: IA
  exchange: '338712'
  name: EAST AMANA
  full_name: East Amana
  lata: '635'
  ilec_name: SOUTH SLOPE COOP. TEL. CO., INC.
  lat:
  long:
- country: US
  region: IA
  exchange: '339854'
  name: EASTCANTON
  full_name: East Canton
  lata: '640'
  ilec_name: QWEST CORPORATION
  lat:
  long:
- country: US
  region: IA
  exchange: '038380'
  name: E HARRISBG
  full_name: East Harrisburg
  lata: '640'
  ilec_name: QWEST CORPORATION
  lat: '43.443475'
  long: "-96.582674"
  closest_city:
    name: Larchwood
    distance_km: 11.88
- country: US
  region: IA
  exchange: '038390'
  name: EASTHUDSON
  full_name: East Hudson
  lata: '630'
  ilec_name: ALLIANCE COMMUNICATIONS COOPERATIVE, INC. (BALTIC)
  lat: '43.134362'
  long: "-96.436015"
  closest_city:
    name: Rock Valley
    distance_km: 14.1
- country: US
  region: IA
  exchange: '038400'
  name: ENBRASKACY
  full_name: East Nebraska City
  lata: '958'
  ilec_name: WINDSTREAM NEBRASKA, INC.
  lat: '40.69281'
  long: "-95.834609"
  closest_city:
    name: Percival
    distance_km: 6.75
- country: US
  region: IA
  exchange: '338058'
  name: EAST PERU
  full_name: East Peru
  lata: '632'
  ilec_name: WINDSTREAM IOWA COMMUNICATIONS, INC.
  lat:
  long:
- country: US
  region: IA
  exchange: '338473'
  name: EPLESANTPL
  full_name: East Pleasant Plain
  lata: '634'
  ilec_name: WINDSTREAM IOWA COMMUNICATIONS, INC.
  lat:
  long:
- country: US
  region: IA
  exchange: '038410'
  name: EDDYVILLE
  full_name: Eddyville
  lata: '632'
  ilec_name: WINDSTREAM IOWA COMMUNICATIONS, INC. - SYSTEMS
  lat: '41.157817'
  long: "-92.633645"
  closest_city:
    name: Eddyville
    distance_km: 0.32
- country: US
  region: IA
  exchange: '038420'
  name: EDGEWOOD
  full_name: Edgewood
  lata: '635'
  ilec_name: WINDSTREAM IOWA COMMUNICATIONS, INC. - NORTH
  lat: '42.640771'
  long: "-91.40241"
  closest_city:
    name: Edgewood
    distance_km: 0.38
- country: US
  region: IA
  exchange: '337762'
  name: EDNA
  full_name: Edna
  lata: '630'
  ilec_name: HEARTLAND TELECO OF IA DBA PREMIER COMMUNICATIONS
  lat:
  long:
- country: US
  region: IA
  exchange: '038430'
  name: ELBERON
  full_name: Elberon
  lata: '635'
  ilec_name: KEYSTONE FARMS COOP. TEL. CO.
  lat: '42.006817'
  long: "-92.319292"
  closest_city:
    name: Elberon
    distance_km: 0.3
- country: US
  region: IA
  exchange: '038440'
  name: ELDON
  full_name: Eldon
  lata: '632'
  ilec_name: WINDSTREAM IOWA COMMUNICATIONS, INC.
  lat: '40.923321'
  long: "-92.21502"
  closest_city:
    name: Eldon
    distance_km: 0.64
- country: US
  region: IA
  exchange: '038450'
  name: ELDORA
  full_name: Eldora
  lata: '632'
  ilec_name: HEART OF IOWA COMMUNICATIONS COOPERATIVE - IA
  lat: '42.368121'
  long: "-93.102345"
  closest_city:
    name: Eldora
    distance_km: 0.85
- country: US
  region: IA
  exchange: '338715'
  name: ELDORADO
  full_name: Eldorado
  lata: '635'
  ilec_name: QWEST CORPORATION
  lat:
  long:
- country: US
  region: IA
  exchange: '038460'
  name: ELDRIDGE
  full_name: Eldridge
  lata: '634'
  ilec_name: CENTRAL SCOTT TEL.
  lat: '41.659138'
  long: "-90.593907"
  closest_city:
    name: Eldridge
    distance_km: 2.49
- country: US
  region: IA
  exchange: '038470'
  name: ELGIN
  full_name: Elgin
  lata: '635'
  ilec_name: ALPINE COMMUNICATIONS, L.C.
  lat: '42.957851'
  long: "-91.632233"
  closest_city:
    name: Elgin
    distance_km: 0.38
- country: US
  region: IA
  exchange: '038480'
  name: ELK HORN
  full_name: Elk Horn
  lata: '644'
  ilec_name: MARNE & ELK HORN TEL. CO.
  lat: '41.599213'
  long: "-95.057929"
  closest_city:
    name: Elk Horn
    distance_km: 0.73
- country: US
  region: IA
  exchange: '338719'
  name: ELKRUNHTS
  full_name: Elk Run Heights
  lata: '635'
  ilec_name: QWEST CORPORATION
  lat:
  long:
- country: US
  region: IA
  exchange: '038490'
  name: ELKADER
  full_name: Elkader
  lata: '635'
  ilec_name: ALPINE COMMUNICATIONS, L.C.
  lat: '42.849546'
  long: "-91.39798"
  closest_city:
    name: Elkader
    distance_km: 0.96
- country: US
  region: IA
  exchange: '038500'
  name: ELKHART
  full_name: Elkhart
  lata: '632'
  ilec_name: WINDSTREAM IOWA COMMUNICATIONS, INC. - NORTH
  lat: '41.792913'
  long: "-93.518707"
  closest_city:
    name: Elkhart
    distance_km: 0.46
- country: US
  region: IA
  exchange: '338718'
  name: ELKPORT
  full_name: Elkport
  lata: '635'
  ilec_name: ALPINE COMMUNICATIONS, L.C.
  lat:
  long:
- country: US
  region: IA
  exchange: '038510'
  name: ELLIOTT
  full_name: Elliott
  lata: '644'
  ilec_name: GRISWOLD COOP. TEL. CO.
  lat: '41.149016'
  long: "-95.160272"
  closest_city:
    name: Elliott
    distance_km: 0.23
- country: US
  region: IA
  exchange: '338063'
  name: ELLSTON
  full_name: Ellston
  lata: '632'
  ilec_name: WINDSTREAM IOWA COMMUNICATIONS, INC.
  lat:
  long:
- country: US
  region: IA
  exchange: '038520'
  name: ELLSWORTH
  full_name: Ellsworth
  lata: '632'
  ilec_name: ELLSWORTH COOP. TEL. ASSN.
  lat: '42.316545'
  long: "-93.582201"
  closest_city:
    name: Ellsworth
    distance_km: 0.71
- country: US
  region: IA
  exchange: '038530'
  name: ELMA
  full_name: Elma
  lata: '632'
  ilec_name: WINDSTREAM IOWA COMMUNICATIONS, INC. - NORTH
  lat: '43.251163'
  long: "-92.434384"
  closest_city:
    name: Elma
    distance_km: 0.7
- country: US
  region: IA
  exchange: '338720'
  name: ELON
  full_name: Elon
  lata: '635'
  ilec_name: ACE TEL. ASSN. - IA
  lat:
  long:
- country: US
  region: IA
  exchange: '338471'
  name: ELWOOD
  full_name: Elwood
  lata: '634'
  ilec_name: LOST NATION-ELWOOD TEL. CO.
  lat:
  long:
- country: US
  region: IA
  exchange: '038540'
  name: ELY
  full_name: Ely
  lata: '635'
  ilec_name: SOUTH SLOPE COOP. TEL. CO., INC.
  lat: '41.873323'
  long: "-91.593993"
  closest_city:
    name: Ely
    distance_km: 0.77
- country: US
  region: IA
  exchange: '338472'
  name: EMELINE
  full_name: Emeline
  lata: '634'
  ilec_name: QWEST CORPORATION
  lat:
  long:
- country: US
  region: IA
  exchange: '038550'
  name: EMERSON
  full_name: Emerson
  lata: '644'
  ilec_name: SOUTHWEST TEL. EXCH., INC.
  lat: '41.017821'
  long: "-95.392254"
  closest_city:
    name: Emerson
    distance_km: 0.87
- country: US
  region: IA
  exchange: '038560'
  name: EMMETSBURG
  full_name: Emmetsburg
  lata: '630'
  ilec_name: WINDSTREAM IOWA COMMUNICATIONS, INC. - NORTH
  lat: '43.109106'
  long: "-94.674623"
  closest_city:
    name: Emmetsburg
    distance_km: 0.74
- country: US
  region: IA
  exchange: '338066'
  name: ENTERPRISE
  full_name: Enterprise
  lata: '632'
  ilec_name: QWEST CORPORATION
  lat:
  long:
- country: US
  region: IA
  exchange: '038570'
  name: EPWORTH
  full_name: Epworth
  lata: '634'
  ilec_name: WINDSTREAM IOWA COMMUNICATIONS, INC. - NORTH
  lat: '42.451842'
  long: "-90.932522"
  closest_city:
    name: Epworth
    distance_km: 0.6
- country: US
  region: IA
  exchange: '038580'
  name: ESSEX
  full_name: Essex
  lata: '644'
  ilec_name: FARMERS TEL. CO.
  lat: '40.831625'
  long: "-95.298679"
  closest_city:
    name: Essex
    distance_km: 0.45
- country: US
  region: IA
  exchange: '038590'
  name: ESTHERVL
  full_name: Estherville
  lata: '630'
  ilec_name: QWEST CORPORATION
  lat: '43.400886'
  long: "-94.830782"
  closest_city:
    name: Estherville
    distance_km: 0.31
- country: US
  region: IA
  exchange: '338722'
  name: EVANSDALE
  full_name: Evansdale
  lata: '635'
  ilec_name: QWEST CORPORATION
  lat:
  long:
- country: US
  region: IA
  exchange: '038600'
  name: EVERLY
  full_name: Everly
  lata: '630'
  ilec_name: UNITED FARMERS TEL. CO.
  lat: '43.157078'
  long: "-95.335749"
  closest_city:
    name: Everly
    distance_km: 1.42
- country: US
  region: IA
  exchange: '338067'
  name: EWART
  full_name: Ewart
  lata: '632'
  ilec_name: WINDSTREAM MONTEZUMA, LLC
  lat:
  long:
- country: US
  region: IA
  exchange: '038610'
  name: EXIRA
  full_name: Exira
  lata: '644'
  ilec_name: WINDSTREAM IOWA COMMUNICATIONS, INC. - SYSTEMS
  lat: '41.590683'
  long: "-94.876254"
  closest_city:
    name: Exira
    distance_km: 0.43
- country: US
  region: IA
  exchange: '338068'
  name: EXLINE
  full_name: Exline
  lata: '632'
  ilec_name: WINDSTREAM IOWA COMMUNICATIONS, INC.
  lat:
  long:
- country: US
  region: IA
  exchange: '038620'
  name: FAIRBANK
  full_name: Fairbank
  lata: '635'
  ilec_name: WINDSTREAM IOWA COMMUNICATIONS, INC. - NORTH
  lat: '42.632527'
  long: "-92.04807"
  closest_city:
    name: Fairbank
    distance_km: 0.84
- country: US
  region: IA
  exchange: '038630'
  name: FAIRFAX
  full_name: Fairfax
  lata: '635'
  ilec_name: SOUTH SLOPE COOP. TEL. CO., INC.
  lat: '41.917937'
  long: "-91.77669"
  closest_city:
    name: Fairfax
    distance_km: 1.17
- country: US
  region: IA
  exchange: '038640'
  name: FAIRFIELD
  full_name: Fairfield
  lata: '632'
  ilec_name: WINDSTREAM IOWA COMMUNICATIONS, INC. - SYSTEMS
  lat: '41.008928'
  long: "-91.968"
  closest_city:
    name: Fairfield
    distance_km: 0.3
- country: US
  region: IA
  exchange: '338475'
  name: FAIRPORT
  full_name: Fairport
  lata: '634'
  ilec_name: QWEST CORPORATION
  lat:
  long:
- country: US
  region: IA
  exchange: '038650'
  name: FARLEY
  full_name: Farley
  lata: '634'
  ilec_name: WINDSTREAM IOWA COMMUNICATIONS, INC. - NORTH
  lat: '42.442854'
  long: "-91.007344"
  closest_city:
    name: Farley
    distance_km: 0.19
- country: US
  region: IA
  exchange: '338070'
  name: FARLIN
  full_name: Farlin
  lata: '632'
  ilec_name: JEFFERSON TEL. CO.
  lat:
  long:
- country: US
  region: IA
  exchange: '038660'
  name: FARMERSBG
  full_name: Farmersburg
  lata: '635'
  ilec_name: NORTHEAST IOWA TEL. CO.
  lat: '42.957372'
  long: "-91.369219"
  closest_city:
    name: Farmersburg
    distance_km: 0.3
- country: US
  region: IA
  exchange: '038670'
  name: FARMINGTON
  full_name: Farmington
  lata: '634'
  ilec_name: WINDSTREAM IOWA COMMUNICATIONS, INC.
  lat: '40.643038'
  long: "-91.733293"
  closest_city:
    name: Farmington
    distance_km: 0.68
- country: US
  region: IA
  exchange: '038680'
  name: FARNHAMVL
  full_name: Farnhamville
  lata: '632'
  ilec_name: WEBSTER-CALHOUN COOP. TEL. ASSN.
  lat: '42.274946'
  long: "-94.405565"
  closest_city:
    name: Farnhamville
    distance_km: 0.27
- country: US
  region: IA
  exchange: '038690'
  name: FARRAGUT
  full_name: Farragut
  lata: '644'
  ilec_name: PRAIRIE TEL. CO., INC.
  lat: '40.714938'
  long: "-95.48175"
  closest_city:
    name: Farragut
    distance_km: 0.58
- country: US
  region: IA
  exchange: '338072'
  name: FARRAR
  full_name: Farrar
  lata: '632'
  ilec_name: WINDSTREAM IOWA COMMUNICATIONS, INC. - NORTH
  lat:
  long:
- country: US
  region: IA
  exchange: '038700'
  name: FARSON
  full_name: Farson
  lata: '632'
  ilec_name: WINDSTREAM IOWA COMMUNICATIONS, INC.
  lat: '41.125225'
  long: "-92.251528"
  closest_city:
    name: Martinsburg
    distance_km: 5.96
- country: US
  region: IA
  exchange: '338074'
  name: FAULKNER
  full_name: Faulkner
  lata: '632'
  ilec_name: QWEST CORPORATION
  lat:
  long:
- country: US
  region: IA
  exchange: '038710'
  name: FAYETTE
  full_name: Fayette
  lata: '635'
  ilec_name: WINDSTREAM IOWA COMMUNICATIONS, INC.
  lat: '42.841581'
  long: "-91.797204"
  closest_city:
    name: Fayette
    distance_km: 0.54
- country: US
  region: IA
  exchange: '038720'
  name: FENTON
  full_name: Fenton
  lata: '632'
  ilec_name: FENTON COOP. TEL. CO.
  lat: '43.216233'
  long: "-94.426264"
  closest_city:
    name: Fenton
    distance_km: 0.28
- country: US
  region: IA
  exchange: '038730'
  name: FERGUSON
  full_name: Ferguson
  lata: '632'
  ilec_name: HEART OF IOWA COMMUNICATIONS COOPERATIVE - IA
  lat: '41.944366'
  long: "-92.859854"
  closest_city:
    name: Ferguson
    distance_km: 0.69
- country: US
  region: IA
  exchange: '338077'
  name: FERNALD
  full_name: Fernald
  lata: '632'
  ilec_name: WINDSTREAM IOWA COMMUNICATIONS, INC. - NORTH
  lat:
  long:
- country: US
  region: IA
  exchange: '038740'
  name: FERTILE
  full_name: Fertile
  lata: '632'
  ilec_name: WINNEBAGO COOP. TEL. ASSN. - IA
  lat: '43.269066'
  long: "-93.425159"
  closest_city:
    name: Fertile
    distance_km: 0.77
- country: US
  region: IA
  exchange: '038801'
  name: FESTINA
  full_name: Festina
  lata: '635'
  ilec_name: ACE TEL. ASSN. - IA
  lat:
  long:
- country: US
  region: IA
  exchange: '038750'
  name: FLORIS
  full_name: Floris
  lata: '632'
  ilec_name: CITIZENS MUTUAL TELEPHONE COOPERATIVE
  lat: '40.865116'
  long: "-92.324216"
  closest_city:
    name: Floris
    distance_km: 0.71
- country: US
  region: IA
  exchange: '038760'
  name: FLOYD
  full_name: Floyd
  lata: '632'
  ilec_name: FARMERS MUTUAL TEL. CO. NORA SPRINGS
  lat: '43.124329'
  long: "-92.735812"
  closest_city:
    name: Floyd
    distance_km: 0.54
- country: US
  region: IA
  exchange: '038770'
  name: FONDA
  full_name: Fonda
  lata: '630'
  ilec_name: WINDSTREAM IOWA COMMUNICATIONS, INC.
  lat: '42.582379'
  long: "-94.840872"
  closest_city:
    name: Fonda
    distance_km: 0.39
- country: US
  region: IA
  exchange: '038780'
  name: FONTANELLE
  full_name: Fontanelle
  lata: '632'
  ilec_name: WINDSTREAM IOWA COMMUNICATIONS, INC. - SYSTEMS
  lat: '41.28931'
  long: "-94.556793"
  closest_city:
    name: Fontanelle
    distance_km: 0.3
- country: US
  region: IA
  exchange: '038790'
  name: FORESTCITY
  full_name: Forest City
  lata: '632'
  ilec_name: WINDSTREAM IOWA COMMUNICATIONS, INC. - NORTH
  lat: '43.258353'
  long: "-93.63841"
  closest_city:
    name: Forest City
    distance_km: 0.21
- country: US
  region: IA
  exchange: '038791'
  name: FORSTCTYRL
  full_name: Forest City Rural
  lata: '632'
  ilec_name: WINNEBAGO COOP. TEL. ASSN. - IA
  lat:
  long:
- country: US
  region: IA
  exchange: '038800'
  name: FTATKINSON
  full_name: Fort Atkinson
  lata: '635'
  ilec_name: ACE TEL. ASSN. - IA
  lat: '43.140989'
  long: "-91.936586"
  closest_city:
    name: Fort Atkinson
    distance_km: 0.4
- country: US
  region: IA
  exchange: '338084'
  name: FORTMOINES
  full_name: Fort Des Moines
  lata: '632'
  ilec_name: QWEST CORPORATION
  lat:
  long:
- country: US
  region: IA
  exchange: '038810'
  name: FORT DODGE
  full_name: Fort Dodge
  lata: '632'
  ilec_name: FRONTIER COMMUNICATIONS OF IOWA, INC.
  lat: '42.500743'
  long: "-94.184171"
  closest_city:
    name: Fort Dodge
    distance_km: 1.25
- country: US
  region: IA
  exchange: '038820'
  name: FT MADISON
  full_name: Fort Madison
  lata: '634'
  ilec_name: QWEST CORPORATION
  lat: '40.632784'
  long: "-91.32536"
  closest_city:
    name: Fort Madison
    distance_km: 2.54
- country: US
  region: IA
  exchange: '337767'
  name: FOSTORIA
  full_name: Fostoria
  lata: '630'
  ilec_name: QWEST CORPORATION
  lat:
  long:
- country: US
  region: IA
  exchange: '037301'
  name: FRANKVILLE
  full_name: Frankville
  lata: '635'
  ilec_name: ACE TEL. ASSN. - IA
  lat:
  long:
- country: US
  region: IA
  exchange: '338085'
  name: FRASER
  full_name: Fraser
  lata: '632'
  ilec_name: QWEST CORPORATION
  lat:
  long:
- country: US
  region: IA
  exchange: '038830'
  name: FREDECKSBG
  full_name: Fredericksburg
  lata: '635'
  ilec_name: WINDSTREAM IOWA COMMUNICATIONS, INC. - SYSTEMS
  lat: '42.968796'
  long: "-92.192205"
  closest_city:
    name: Fredericksburg
    distance_km: 0.57
- country: US
  region: IA
  exchange: '038840'
  name: FREDERIKA
  full_name: Frederika
  lata: '635'
  ilec_name: BUTLER-BREMER MUTUAL TEL. CO.
  lat: '42.883893'
  long: "-92.301357"
  closest_city:
    name: Frederika
    distance_km: 0.38
- country: US
  region: IA
  exchange: '338478'
  name: FREDONIA
  full_name: Fredonia
  lata: '634'
  ilec_name: WINDSTREAM IOWA COMMUNICATIONS, INC.
  lat:
  long:
- country: US
  region: IA
  exchange: '038850'
  name: FREMONT
  full_name: Fremont
  lata: '632'
  ilec_name: WINDSTREAM IOWA COMMUNICATIONS, INC. - SYSTEMS
  lat: '41.214321'
  long: "-92.431531"
  closest_city:
    name: Fremont
    distance_km: 0.28
- country: US
  region: IA
  exchange: '338731'
  name: FROELICH
  full_name: Froelich
  lata: '635'
  ilec_name: ALPINE COMMUNICATIONS, L.C.
  lat:
  long:
- country: US
  region: IA
  exchange: '338479'
  name: FRUITLAND
  full_name: Fruitland
  lata: '634'
  ilec_name: QWEST CORPORATION
  lat:
  long:
- country: US
  region: IA
  exchange: '338481'
  name: FULTON
  full_name: Fulton
  lata: '634'
  ilec_name: ANDREW TEL. CO., INC.
  lat:
  long:
- country: US
  region: IA
  exchange: '338087'
  name: GALT
  full_name: Galt
  lata: '632'
  ilec_name: WINDSTREAM IOWA COMMUNICATIONS, INC.
  lat:
  long:
- country: US
  region: IA
  exchange: '038860'
  name: GALVA
  full_name: Galva
  lata: '630'
  ilec_name: SCHALLER TEL. CO.
  lat: '42.508866'
  long: "-95.417016"
  closest_city:
    name: Galva
    distance_km: 0.36
- country: US
  region: IA
  exchange: '038870'
  name: GARBER
  full_name: Garber
  lata: '635'
  ilec_name: ALPINE COMMUNICATIONS, L.C.
  lat: '42.741663'
  long: "-91.267696"
  closest_city:
    name: Garber
    distance_km: 0.55
- country: US
  region: IA
  exchange: '038880'
  name: GARDENCITY
  full_name: Garden City
  lata: '632'
  ilec_name: ELLSWORTH COOP. TEL. ASSN.
  lat: '42.241826'
  long: "-93.389981"
  closest_city:
    name: Garden City
    distance_km: 0.6
- country: US
  region: IA
  exchange: '038890'
  name: GARDEN GRV
  full_name: Garden Grove
  lata: '632'
  ilec_name: GRAND RIVER MUTUAL TEL CO
  lat: '40.825784'
  long: "-93.598664"
  closest_city:
    name: Garden Grove
    distance_km: 0.69
- country: US
  region: IA
  exchange: '038900'
  name: GARNAVILLO
  full_name: Garnavillo
  lata: '635'
  ilec_name: ALPINE COMMUNICATIONS, L.C.
  lat: '42.868114'
  long: "-91.23349"
  closest_city:
    name: Garnavillo
    distance_km: 0.27
- country: US
  region: IA
  exchange: '038910'
  name: GARNER
  full_name: Garner
  lata: '632'
  ilec_name: QWEST CORPORATION
  lat: '43.09821'
  long: "-93.598866"
  closest_city:
    name: Garner
    distance_km: 0.4
- country: US
  region: IA
  exchange: '038920'
  name: GARRISON
  full_name: Garrison
  lata: '635'
  ilec_name: KEYSTONE FARMS COOP. TEL. CO.
  lat: '42.142866'
  long: "-92.138768"
  closest_city:
    name: Garrison
    distance_km: 0.51
- country: US
  region: IA
  exchange: '038930'
  name: GARWIN
  full_name: Garwin
  lata: '632'
  ilec_name: WINDSTREAM IOWA COMMUNICATIONS, INC. - NORTH
  lat: '42.099998'
  long: "-92.675865"
  closest_city:
    name: Garwin
    distance_km: 0.77
- country: US
  region: IA
  exchange: '337769'
  name: GAZA
  full_name: Gaza
  lata: '630'
  ilec_name: WINDSTREAM IOWA COMMUNICATIONS, INC. - NORTH
  lat:
  long:
- country: US
  region: IA
  exchange: '038940'
  name: GENEVA
  full_name: Geneva
  lata: '632'
  ilec_name: QWEST CORPORATION
  lat: '42.683765'
  long: "-93.133542"
  closest_city:
    name: Geneva
    distance_km: 1.04
- country: US
  region: IA
  exchange: '038950'
  name: GEORGE
  full_name: George
  lata: '630'
  ilec_name: FRONTIER COMMUNICATIONS OF IOWA, INC.
  lat: '43.342252'
  long: "-95.999563"
  closest_city:
    name: George
    distance_km: 0.31
- country: US
  region: IA
  exchange: '338093'
  name: GIBSON
  full_name: Gibson
  lata: '632'
  ilec_name: WINDSTREAM IOWA COMMUNICATIONS, INC. - NORTH
  lat:
  long:
- country: US
  region: IA
  exchange: '338094'
  name: GIFFORD
  full_name: Gifford
  lata: '632'
  ilec_name: HEART OF IOWA COMMUNICATIONS COOPERATIVE - IA
  lat:
  long:
- country: US
  region: IA
  exchange: '338095'
  name: GILBERT
  full_name: Gilbert
  lata: '632'
  ilec_name: QWEST CORPORATION
  lat:
  long:
- country: US
  region: IA
  exchange: '338736'
  name: GILBERTVL
  full_name: Gilbertville
  lata: '635'
  ilec_name: QWEST CORPORATION
  lat:
  long:
- country: US
  region: IA
  exchange: '038960'
  name: GILLETTGRV
  full_name: Gillett Grove
  lata: '630'
  ilec_name: AYRSHIRE FARMERS MUTUAL TEL. CO.
  lat: '43.014834'
  long: "-95.043715"
  closest_city:
    name: Gillett Grove
    distance_km: 0.61
- country: US
  region: IA
  exchange: '038970'
  name: GILMAN
  full_name: Gilman
  lata: '632'
  ilec_name: PARTNER COMMUNICATIONS COOPERATIVE
  lat: '41.884495'
  long: "-92.774767"
  closest_city:
    name: Gilman
    distance_km: 1.27
- country: US
  region: IA
  exchange: '038980'
  name: GILMORE CY
  full_name: Gilmore City
  lata: '632'
  ilec_name: QWEST CORPORATION
  lat: '42.731158'
  long: "-94.441451"
  closest_city:
    name: Gilmore City
    distance_km: 0.62
- country: US
  region: IA
  exchange: '038990'
  name: GLADBROOK
  full_name: Gladbrook
  lata: '632'
  ilec_name: WINDSTREAM IOWA COMMUNICATIONS, INC. - NORTH
  lat: '42.192306'
  long: "-92.707136"
  closest_city:
    name: Gladbrook
    distance_km: 0.95
- country: US
  region: IA
  exchange: '338482'
  name: GLADWIN
  full_name: Gladwin
  lata: '634'
  ilec_name: WINDSTREAM IOWA COMMUNICATIONS, INC.
  lat:
  long:
- country: US
  region: IA
  exchange: '338483'
  name: GLASGOW
  full_name: Glasgow
  lata: '634'
  ilec_name: WINDSTREAM IOWA COMMUNICATIONS, INC.
  lat:
  long:
- country: US
  region: IA
  exchange: '039000'
  name: GLENWOOD
  full_name: Glenwood
  lata: '644'
  ilec_name: QWEST CORPORATION
  lat: '41.039742'
  long: "-95.74233"
  closest_city:
    name: Glenwood
    distance_km: 0.56
- country: US
  region: IA
  exchange: '039010'
  name: GLIDDEN
  full_name: Glidden
  lata: '644'
  ilec_name: WINDSTREAM IOWA COMMUNICATIONS, INC. - NORTH
  lat: '42.056881'
  long: "-94.728143"
  closest_city:
    name: Glidden
    distance_km: 0.16
- country: US
  region: IA
  exchange: '039020'
  name: GOLDFIELD
  full_name: Goldfield
  lata: '632'
  ilec_name: GOLDFIELD TEL. CO.
  lat: '42.742101'
  long: "-93.917474"
  closest_city:
    name: Goldfield
    distance_km: 0.72
- country: US
  region: IA
  exchange: '039030'
  name: GOODELL
  full_name: Goodell
  lata: '632'
  ilec_name: FRONTIER COMMUNICATIONS OF IOWA, INC.
  lat: '42.925962'
  long: "-93.614831"
  closest_city:
    name: Goodell
    distance_km: 0.25
- country: US
  region: IA
  exchange: '039040'
  name: GOOSE LAKE
  full_name: Goose Lake
  lata: '634'
  ilec_name: PRESTON TEL. CO.
  lat: '41.968195'
  long: "-90.384056"
  closest_city:
    name: Goose Lake
    distance_km: 0.21
- country: US
  region: IA
  exchange: '039050'
  name: GOWRIE
  full_name: Gowrie
  lata: '632'
  ilec_name: WEBSTER-CALHOUN COOP. TEL. ASSN.
  lat: '42.273109'
  long: "-94.291839"
  closest_city:
    name: Gowrie
    distance_km: 0.56
- country: US
  region: IA
  exchange: '039060'
  name: GRAETTINGR
  full_name: Graettinger
  lata: '630'
  ilec_name: RIVER VALLEY TELECOMMUNICATIONS COOP.
  lat: '43.242287'
  long: "-94.760049"
  closest_city:
    name: Graettinger
    distance_km: 0.98
- country: US
  region: IA
  exchange: '338485'
  name: GRAF
  full_name: Graf
  lata: '634'
  ilec_name: QWEST CORPORATION
  lat:
  long:
- country: US
  region: IA
  exchange: '039070'
  name: GRAFTON
  full_name: Grafton
  lata: '632'
  ilec_name: WINNEBAGO COOP. TEL. ASSN. - IA
  lat: '43.324582'
  long: "-93.073198"
  closest_city:
    name: Grafton
    distance_km: 0.77
- country: US
  region: IA
  exchange: '039080'
  name: GRAND JCT
  full_name: Grand Junction
  lata: '632'
  ilec_name: WINDSTREAM IOWA COMMUNICATIONS, INC. - NORTH
  lat: '42.031045'
  long: "-94.232152"
  closest_city:
    name: Grand Junction
    distance_km: 0.45
- country: US
  region: IA
  exchange: '039090'
  name: GRANDMOUND
  full_name: Grand Mound
  lata: '634'
  ilec_name: GRAND MOUND COOP. TEL. ASSN.
  lat: '41.826054'
  long: "-90.655605"
  closest_city:
    name: Grand Mound
    distance_km: 0.48
- country: US
  region: IA
  exchange: '039100'
  name: GRANDRIVER
  full_name: Grand River
  lata: '632'
  ilec_name: GRAND RIVER MUTUAL TEL CO
  lat: '40.815481'
  long: "-93.95573"
  closest_city:
    name: Grand River
    distance_km: 0.73
- country: US
  region: IA
  exchange: '039110'
  name: GRANDVIEW
  full_name: Grandview
  lata: '634'
  ilec_name: WINDSTREAM IOWA COMMUNICATIONS, INC.
  lat: '41.27334'
  long: "-91.182399"
  closest_city:
    name: Grandview
    distance_km: 0.63
- country: US
  region: IA
  exchange: '039120'
  name: GRANGER
  full_name: Granger
  lata: '632'
  ilec_name: QWEST CORPORATION
  lat: '41.756175'
  long: "-93.816306"
  closest_city:
    name: Granger
    distance_km: 0.86
- country: US
  region: IA
  exchange: '039130'
  name: GRANT
  full_name: Grant
  lata: '644'
  ilec_name: GRISWOLD COOP. TEL. CO.
  lat: '41.15098'
  long: "-94.980583"
  closest_city:
    name: Grant
    distance_km: 0.97
- country: US
  region: IA
  exchange: '337773'
  name: GRANT CTR
  full_name: Grant Center
  lata: '630'
  ilec_name: QWEST CORPORATION
  lat:
  long:
- country: US
  region: IA
  exchange: '039140'
  name: GRANVILLE
  full_name: Granville
  lata: '630'
  ilec_name: NORTHERN IOWA TEL. CO.
  lat: '42.985477'
  long: "-95.882664"
  closest_city:
    name: Granville
    distance_km: 0.63
- country: US
  region: IA
  exchange: '039150'
  name: GRAVITY
  full_name: Gravity
  lata: '644'
  ilec_name: WINDSTREAM IOWA COMMUNICATIONS, INC.
  lat: '40.767472'
  long: "-94.74909"
  closest_city:
    name: Gravity
    distance_km: 0.88
- country: US
  region: IA
  exchange: '340435'
  name: GRAY
  full_name: Gray
  lata: '644'
  ilec_name: WINDSTREAM IOWA COMMUNICATIONS, INC. - SYSTEMS
  lat:
  long:
- country: US
  region: IA
  exchange: '039160'
  name: GREELEY
  full_name: Greeley
  lata: '635'
  ilec_name: WINDSTREAM IOWA COMMUNICATIONS, INC. - NORTH
  lat: '42.583682'
  long: "-91.342917"
  closest_city:
    name: Greeley
    distance_km: 0.17
- country: US
  region: IA
  exchange: '338488'
  name: GREEN IS
  full_name: Green Island
  lata: '634'
  ilec_name: PRESTON TEL. CO.
  lat:
  long:
- country: US
  region: IA
  exchange: '039170'
  name: GREEN MT
  full_name: Green Mountain
  lata: '632'
  ilec_name: HEART OF IOWA COMMUNICATIONS COOPERATIVE - IA
  lat: '42.109165'
  long: "-92.806029"
  closest_city:
    name: Green Mountain
    distance_km: 1.38
- country: US
  region: IA
  exchange: '039180'
  name: GREENE
  full_name: Greene
  lata: '632'
  ilec_name: WINDSTREAM IOWA COMMUNICATIONS, INC. - SYSTEMS
  lat: '42.899554'
  long: "-92.793977"
  closest_city:
    name: Greene
    distance_km: 0.88
- country: US
  region: IA
  exchange: '039190'
  name: GREENFIELD
  full_name: Greenfield
  lata: '632'
  ilec_name: WINDSTREAM IOWA COMMUNICATIONS, INC. - SYSTEMS
  lat: '41.309593'
  long: "-94.465336"
  closest_city:
    name: Greenfield
    distance_km: 0.66
- country: US
  region: IA
  exchange: '337775'
  name: GREENVILLE
  full_name: Greenville
  lata: '630'
  ilec_name: QWEST CORPORATION
  lat:
  long:
- country: US
  region: IA
  exchange: '039200'
  name: GRIMES
  full_name: Grimes
  lata: '632'
  ilec_name: QWEST CORPORATION
  lat: '41.684802'
  long: "-93.784806"
  closest_city:
    name: Grimes
    distance_km: 1.12
- country: US
  region: IA
  exchange: '039210'
  name: GRINNELL
  full_name: Grinnell
  lata: '632'
  ilec_name: WINDSTREAM IOWA COMMUNICATIONS, INC. - NORTH
  lat: '41.751559'
  long: "-92.714419"
  closest_city:
    name: Grinnell
    distance_km: 1.93
- country: US
  region: IA
  exchange: '039220'
  name: GRISWOLD
  full_name: Griswold
  lata: '644'
  ilec_name: GRISWOLD COOP. TEL. CO.
  lat: '41.241381'
  long: "-95.134641"
  closest_city:
    name: Griswold
    distance_km: 0.88
- country: US
  region: IA
  exchange: '039230'
  name: GRUNDY CTR
  full_name: Grundy Center
  lata: '635'
  ilec_name: WINDSTREAM IOWA COMMUNICATIONS, INC. - SYSTEMS
  lat: '42.366566'
  long: "-92.769506"
  closest_city:
    name: Grundy Center
    distance_km: 0.49
- country: US
  region: IA
  exchange: '337776'
  name: GRUVER
  full_name: Gruver
  lata: '630'
  ilec_name: QWEST CORPORATION
  lat:
  long:
- country: US
  region: IA
  exchange: '039240'
  name: GUERNSEY
  full_name: Guernsey
  lata: '635'
  ilec_name: COOPERATIVE TEL. CO.
  lat: '41.64879'
  long: "-92.33191"
  closest_city:
    name: Guernsey
    distance_km: 1.19
- country: US
  region: IA
  exchange: '338112'
  name: GUSS
  full_name: Guss
  lata: '632'
  ilec_name: FRONTIER COMMUNICATIONS OF IOWA, INC.
  lat:
  long:
- country: US
  region: IA
  exchange: '039250'
  name: GUTHRIECTR
  full_name: Guthrie Center
  lata: '632'
  ilec_name: WINDSTREAM IOWA COMMUNICATIONS, INC. - SYSTEMS
  lat: '41.682693'
  long: "-94.50948"
  closest_city:
    name: Guthrie Center
    distance_km: 1.01
- country: US
  region: IA
  exchange: '039260'
  name: GUTTENBERG
  full_name: Guttenberg
  lata: '635'
  ilec_name: ALPINE COMMUNICATIONS, L.C.
  lat: '42.782869'
  long: "-91.095404"
  closest_city:
    name: Guttenberg
    distance_km: 1.05
- country: US
  region: IA
  exchange: '039270'
  name: HALBUR
  full_name: Halbur
  lata: '644'
  ilec_name: WINDSTREAM IOWA COMMUNICATIONS, INC. - SYSTEMS
  lat: '42.011017'
  long: "-94.976087"
  closest_city:
    name: Halbur
    distance_km: 0.73
- country: US
