---
rate_centers:
- country: US
  region: KS
  exchange: '332889'
  name: ABBYVILLE
  full_name: Abbyville
  lata: '532'
  ilec_name: UNITED TEL OF EASTERN KANSAS DBA CENTURYLINK
  lat:
  long:
- country: US
  region: KS
  exchange: '061640'
  name: ABBYVLPLVN
  full_name: Abbyville-Plevna
  lata: '532'
  ilec_name: UNITED TEL OF EASTERN KANSAS DBA CENTURYLINK
  lat: '37.964393'
  long: "-98.257328"
  closest_city:
    name: Plevna
    distance_km: 4.65
- country: US
  region: KS
  exchange: '061650'
  name: ABILENE
  full_name: Abilene
  lata: '534'
  ilec_name: SOUTHWESTERN BELL
  lat: '38.917862'
  long: "-97.210471"
  closest_city:
    name: Abilene
    distance_km: 1.4
- country: US
  region: KS
  exchange: '333353'
  name: ACHILLES
  full_name: Achilles
  lata: '534'
  ilec_name: SOUTHWESTERN BELL
  lat:
  long:
- country: US
  region: KS
  exchange: '333354'
  name: ACME
  full_name: Acme
  lata: '534'
  ilec_name: TRI-COUNTY TEL. ASSN., INC.
  lat:
  long:
- country: US
  region: KS
  exchange: '333355'
  name: ADA
  full_name: Ada
  lata: '534'
  ilec_name: SOUTHWESTERN BELL
  lat:
  long:
- country: US
  region: KS
  exchange: '332891'
  name: ADMIRE
  full_name: Admire
  lata: '532'
  ilec_name: S & A TEL. CO., INC.
  lat:
  long:
- country: US
  region: KS
  exchange: '061660'
  name: AGENDA
  full_name: Agenda
  lata: '534'
  ilec_name: J.B.N. TEL. CO., INC.
  lat: '39.709082'
  long: "-97.430289"
  closest_city:
    name: Agenda
    distance_km: 0.32
- country: US
  region: KS
  exchange: '061670'
  name: AGRA
  full_name: Agra
  lata: '534'
  ilec_name: RURAL TEL. SERVICE CO., INC. DBA NEX-TECH
  lat: '39.757975'
  long: "-99.116578"
  closest_city:
    name: Agra
    distance_km: 0.44
- country: US
  region: KS
  exchange: '333358'
  name: AGRICOLA
  full_name: Agricola
  lata: '534'
  ilec_name: SOUTHWESTERN BELL
  lat:
  long:
- country: US
  region: KS
  exchange: '332892'
  name: ALAMOTA
  full_name: Alamota
  lata: '532'
  ilec_name: S & T TEL. COOP. ASSN.
  lat:
  long:
- country: US
  region: KS
  exchange: '061680'
  name: ALBERT
  full_name: Albert
  lata: '532'
  ilec_name: GOLDEN BELT TEL. ASSN., INC.
  lat: '38.460096'
  long: "-99.009983"
  closest_city:
    name: Albert
    distance_km: 0.68
- country: US
  region: KS
  exchange: '061690'
  name: ALDEN
  full_name: Alden
  lata: '532'
  ilec_name: UNITED TEL OF EASTERN KANSAS DBA CENTURYLINK
  lat: '38.243271'
  long: "-98.308553"
  closest_city:
    name: Alden
    distance_km: 0.31
- country: US
  region: KS
  exchange: '061700'
  name: ALEXANDER
  full_name: Alexander
  lata: '534'
  ilec_name: GOLDEN BELT TEL. ASSN., INC.
  lat: '38.466376'
  long: "-99.550121"
  closest_city:
    name: Alexander
    distance_km: 0.43
- country: US
  region: KS
  exchange: '333360'
  name: ALICEVILLE
  full_name: Aliceville
  lata: '534'
  ilec_name: UNITED TEL. CO. OF KANSAS DBA CENTURYLINK
  lat:
  long:
- country: US
  region: KS
  exchange: '061710'
  name: ALLEN
  full_name: Allen
  lata: '532'
  ilec_name: S & A TEL. CO., INC.
  lat: '38.651588'
  long: "-96.175177"
  closest_city:
    name: Allen
    distance_km: 0.61
- country: US
  region: KS
  exchange: '333361'
  name: ALLISON
  full_name: Allison
  lata: '534'
  ilec_name: RURAL TEL. SERVICE CO., INC. DBA NEX-TECH
  lat:
  long:
- country: US
  region: KS
  exchange: '061720'
  name: ALMA
  full_name: Alma
  lata: '534'
  ilec_name: UNITED TEL. CO. OF KANSAS DBA CENTURYLINK
  lat: '39.01437'
  long: "-96.289694"
  closest_city:
    name: Alma
    distance_km: 0.24
- country: US
  region: KS
  exchange: '061730'
  name: ALMENA
  full_name: Almena
  lata: '534'
  ilec_name: SOUTHWESTERN BELL
  lat: '39.884709'
  long: "-99.710816"
  closest_city:
    name: Almena
    distance_km: 0.74
- country: US
  region: KS
  exchange: '061740'
  name: ALTA VISTA
  full_name: Alta Vista
  lata: '534'
  ilec_name: UNITED TEL OF EASTERN KANSAS DBA CENTURYLINK
  lat: '38.865307'
  long: "-96.495062"
  closest_city:
    name: Alta Vista
    distance_km: 0.61
- country: US
  region: KS
  exchange: '061750'
  name: ALTAMONT
  full_name: Altamont
  lata: '532'
  ilec_name: UNITED TEL. CO. OF KANSAS DBA CENTURYLINK
  lat: '37.191099'
  long: "-95.289606"
  closest_city:
    name: Altamont
    distance_km: 0.4
- country: US
  region: KS
  exchange: '061760'
  name: ALTON
  full_name: Alton
  lata: '534'
  ilec_name: RURAL TEL. SERVICE CO., INC. DBA NEX-TECH
  lat: '39.46757'
  long: "-98.952613"
  closest_city:
    name: Alton
    distance_km: 0.35
- country: US
  region: KS
  exchange: '061770'
  name: ALTOONA
  full_name: Altoona
  lata: '532'
  ilec_name: UNITED TEL OF EASTERN KANSAS DBA CENTURYLINK
  lat: '37.524209'
  long: "-95.664325"
  closest_city:
    name: Altoona
    distance_km: 0.26
- country: US
  region: KS
  exchange: '061780'
  name: AMERICUS
  full_name: Americus
  lata: '532'
  ilec_name: CONSOLIDATED COMMUNICATIONS OF KANSAS COMPANY - KS
  lat: '38.507843'
  long: "-96.256842"
  closest_city:
    name: Americus
    distance_km: 0.43
- country: US
  region: KS
  exchange: '333366'
  name: AMES
  full_name: Ames
  lata: '534'
  ilec_name: SOUTHWESTERN BELL
  lat:
  long:
- country: US
  region: KS
  exchange: '332899'
  name: AMY
  full_name: Amy
  lata: '532'
  ilec_name: S & T TEL. COOP. ASSN.
  lat:
  long:
- country: US
  region: KS
  exchange: '061790'
  name: ANDALE
  full_name: Andale
  lata: '532'
  ilec_name: SOUTHWESTERN BELL
  lat: '37.789936'
  long: "-97.633088"
  closest_city:
    name: Andale
    distance_km: 0.52
- country: US
  region: KS
  exchange: '06179E'
  name: ANDALE METRO
  full_name: Andale Metro
  lata: '532'
  ilec_name: SOUTHWESTERN BELL
  lat: '37.789936'
  long: "-97.633088"
  closest_city:
    name: Andale
    distance_km: 0.52
- country: US
  region: KS
  exchange: '061800'
  name: ANDOVER
  full_name: Andover
  lata: '532'
  ilec_name: SOUTHWESTERN BELL
  lat: '37.716168'
  long: "-97.133956"
  closest_city:
    name: Andover
    distance_km: 3.21
- country: US
  region: KS
  exchange: '332902'
  name: ANGOLA
  full_name: Angola
  lata: '532'
  ilec_name: CRAW-KAN TEL. COOP.,INC. - KS
  lat:
  long:
- country: US
  region: KS
  exchange: '332903'
  name: ANSON
  full_name: Anson
  lata: '532'
  ilec_name: HAVILAND TEL. CO., INC.
  lat:
  long:
- country: US
  region: KS
  exchange: '332904'
  name: ANTELOPE
  full_name: Antelope
  lata: '532'
  ilec_name: TRI-COUNTY TEL. ASSN., INC.
  lat:
  long:
- country: US
  region: KS
  exchange: '061810'
  name: ANTHONY
  full_name: Anthony
  lata: '532'
  ilec_name: SOUTHWESTERN BELL
  lat: '37.15992'
  long: "-98.034931"
  closest_city:
    name: Anthony
    distance_km: 0.62
- country: US
  region: KS
  exchange: '333367'
  name: ANTONINO
  full_name: Antonino
  lata: '534'
  ilec_name: SOUTHWESTERN BELL
  lat:
  long:
- country: US
  region: KS
  exchange: '061820'
  name: ARCADIA
  full_name: Arcadia
  lata: '532'
  ilec_name: CRAW-KAN TEL. COOP.,INC. - KS
  lat: '37.643507'
  long: "-94.627058"
  closest_city:
    name: Arcadia
    distance_km: 0.37
- country: US
  region: KS
  exchange: '330732'
  name: ARGENTINE
  full_name: Argentine
  lata: '524'
  ilec_name: SOUTHWESTERN BELL
  lat:
  long:
- country: US
  region: KS
  exchange: '061830'
  name: ARGONIA
  full_name: Argonia
  lata: '532'
  ilec_name: HAVILAND TEL. CO., INC.
  lat: '37.26486'
  long: "-97.767723"
  closest_city:
    name: Argonia
    distance_km: 0.54
- country: US
  region: KS
  exchange: '061840'
  name: ARKANSASCY
  full_name: Arkansas City
  lata: '532'
  ilec_name: SOUTHWESTERN BELL
  lat: '37.067881'
  long: "-97.042986"
  closest_city:
    name: Arkansas City
    distance_km: 0.66
- country: US
  region: KS
  exchange: '061850'
  name: ARLINGTON
  full_name: Arlington
  lata: '532'
  ilec_name: UNITED TEL OF EASTERN KANSAS DBA CENTURYLINK
  lat: '37.901483'
  long: "-98.182156"
  closest_city:
    name: Arlington
    distance_km: 0.69
- country: US
  region: KS
  exchange: '061860'
  name: ARMA
  full_name: Arma
  lata: '532'
  ilec_name: CRAW-KAN TEL. COOP.,INC. - KS
  lat: '37.548871'
  long: "-94.70351"
  closest_city:
    name: Arma
    distance_km: 0.67
- country: US
  region: KS
  exchange: '333368'
  name: ARNOLD
  full_name: Arnold
  lata: '534'
  ilec_name: GOLDEN BELT TEL. ASSN., INC.
  lat:
  long:
- country: US
  region: KS
  exchange: '333369'
  name: ARRINGTON
  full_name: Arrington
  lata: '534'
  ilec_name: RAINBOW TELECOMMUNICATIONS ASSOCIATION, INC.
  lat:
  long:
- country: US
  region: KS
  exchange: '333370'
  name: ASH GROVE
  full_name: Ash Grove
  lata: '534'
  ilec_name: WILSON TEL. CO., INC.
  lat:
  long:
- country: US
  region: KS
  exchange: '333371'
  name: ASHERVILLE
  full_name: Asherville
  lata: '534'
  ilec_name: SOUTHWESTERN BELL
  lat:
  long:
- country: US
  region: KS
  exchange: '061870'
  name: ASHLAND
  full_name: Ashland
  lata: '532'
  ilec_name: UNITED TEL. ASSN., INC.
  lat: '37.190568'
  long: "-99.777544"
  closest_city:
    name: Ashland
    distance_km: 0.82
- country: US
  region: KS
  exchange: '332912'
  name: ASHTON
  full_name: Ashton
  lata: '532'
  ilec_name: KANOKLA TEL ASSN
  lat:
  long:
- country: US
  region: KS
  exchange: '061880'
  name: ASSARIA
  full_name: Assaria
  lata: '534'
  ilec_name: HOME TEL. CO., INC.
  lat: '38.681476'
  long: "-97.601996"
  closest_city:
    name: Assaria
    distance_km: 0.22
- country: US
  region: KS
  exchange: '061890'
  name: ATCHISON
  full_name: Atchison
  lata: '524'
  ilec_name: SOUTHWESTERN BELL
  lat: '39.556774'
  long: "-95.125346"
  closest_city:
    name: Atchison
    distance_km: 1.16
- country: US
  region: KS
  exchange: '061900'
  name: ATHOL
  full_name: Athol
  lata: '534'
  ilec_name: RURAL TEL. SERVICE CO., INC. DBA NEX-TECH
  lat: '39.759459'
  long: "-98.918538"
  closest_city:
    name: Athol
    distance_km: 0.77
- country: US
  region: KS
  exchange: '061910'
  name: ATLANTA
  full_name: Atlanta
  lata: '532'
  ilec_name: SOUTHERN KANSAS TEL. CO., INC.
  lat: '37.432678'
  long: "-96.766321"
  closest_city:
    name: Atlanta
    distance_km: 0.35
- country: US
  region: KS
  exchange: '061920'
  name: ATTICA
  full_name: Attica
  lata: '532'
  ilec_name: SOUTHWESTERN BELL
  lat: '37.242439'
  long: "-98.235465"
  closest_city:
    name: Attica
    distance_km: 0.7
- country: US
  region: KS
  exchange: '061930'
  name: ATWOOD
  full_name: Atwood
  lata: '534'
  ilec_name: SOUTHWESTERN BELL
  lat: '39.798477'
  long: "-101.043676"
  closest_city:
    name: Atwood
    distance_km: 1.3
- country: US
  region: KS
  exchange: '333375'
  name: AUBURN
  full_name: Auburn
  lata: '534'
  ilec_name: SOUTHWESTERN BELL
  lat:
  long:
- country: US
  region: KS
  exchange: '061940'
  name: AUGUSTA
  full_name: Augusta
  lata: '532'
  ilec_name: SOUTHWESTERN BELL
  lat: '37.685086'
  long: "-96.974999"
  closest_city:
    name: Augusta
    distance_km: 1.88
- country: US
  region: KS
  exchange: '332916'
  name: AULNE
  full_name: Aulne
  lata: '532'
  ilec_name: SOUTHWESTERN BELL
  lat:
  long:
- country: US
  region: KS
  exchange: '061950'
  name: AURORA
  full_name: Aurora
  lata: '534'
  ilec_name: TWIN VALLEY TEL., INC.
  lat: '39.450973'
  long: "-97.530127"
  closest_city:
    name: Aurora
    distance_km: 0.11
- country: US
  region: KS
  exchange: '061960'
  name: AXTELL
  full_name: Axtell
  lata: '534'
  ilec_name: BLUE VALLEY TELE-COMMUNICATIONS, INC.
  lat: '39.866733'
  long: "-96.261459"
  closest_city:
    name: Axtell
    distance_km: 0.64
- country: US
  region: KS
  exchange: '333378'
  name: BAILEYVL
  full_name: Baileyville
  lata: '534'
  ilec_name: SOUTHWESTERN BELL
  lat:
  long:
- country: US
  region: KS
  exchange: '061970'
  name: BALDWIN
  full_name: Baldwin
  lata: '534'
  ilec_name: UNITED TEL. CO. OF KANSAS DBA CENTURYLINK
  lat: '38.774006'
  long: "-95.193367"
  closest_city:
    name: Baldwin City
    distance_km: 0.66
- country: US
  region: KS
  exchange: '333380'
  name: BANNER CRK
  full_name: Banner Creek
  lata: '534'
  ilec_name: RURAL TEL. SERVICE CO., INC. DBA NEX-TECH
  lat:
  long:
- country: US
  region: KS
  exchange: '333381'
  name: BARCLAY
  full_name: Barclay
  lata: '534'
  ilec_name: UNITED TEL OF EASTERN KANSAS DBA CENTURYLINK
  lat:
  long:
- country: US
  region: KS
  exchange: '061980'
  name: BARNARD
  full_name: Barnard
  lata: '534'
  ilec_name: TWIN VALLEY TEL., INC.
  lat: '39.190297'
  long: "-98.042946"
  closest_city:
    name: Barnard
    distance_km: 0.17
- country: US
  region: KS
  exchange: '061990'
  name: BARNES
  full_name: Barnes
  lata: '534'
  ilec_name: J.B.N. TEL. CO., INC.
  lat: '39.705664'
  long: "-96.874203"
  closest_city:
    name: Barnes
    distance_km: 0.66
- country: US
  region: KS
  exchange: '062000'
  name: BARTLETT
  full_name: Bartlett
  lata: '532'
  ilec_name: CRAW-KAN TEL. COOP.,INC. - KS
  lat: '37.058207'
  long: "-95.210121"
  closest_city:
    name: Bartlett
    distance_km: 0.38
- country: US
  region: KS
  exchange: '062010'
  name: BASEHOR
  full_name: Basehor
  lata: '524'
  ilec_name: SOUTHWESTERN BELL
  lat: '39.14251'
  long: "-94.940882"
  closest_city:
    name: Basehor
    distance_km: 1.22
- country: US
  region: KS
  exchange: 06201E
  name: BASEHOR METRO
  full_name: Basehor Metro
  lata: '524'
  ilec_name: SOUTHWESTERN BELL
  lat: '39.14251'
  long: "-94.940882"
  closest_city:
    name: Basehor
    distance_km: 1.22
- country: US
  region: KS
  exchange: '333384'
  name: BAVARIA
  full_name: Bavaria
  lata: '534'
  ilec_name: SOUTHWESTERN BELL
  lat:
  long:
- country: US
  region: KS
  exchange: '062020'
  name: BAXTER SPG
  full_name: Baxter Springs
  lata: '532'
  ilec_name: EMBARQ MISSOURI, INC. DBA CENTURYLINK - KS
  lat: '37.024998'
  long: "-94.734829"
  closest_city:
    name: Baxter Springs
    distance_km: 0.61
- country: US
  region: KS
  exchange: '332919'
  name: BAZAAR
  full_name: Bazaar
  lata: '532'
  ilec_name: SOUTHWESTERN BELL
  lat:
  long:
- country: US
  region: KS
  exchange: '062030'
  name: BAZINE
  full_name: Bazine
  lata: '534'
  ilec_name: GOLDEN BELT TEL. ASSN., INC.
  lat: '38.443545'
  long: "-99.691712"
  closest_city:
    name: Bazine
    distance_km: 0.32
- country: US
  region: KS
  exchange: '330735'
  name: BEAGLE
  full_name: Beagle
  lata: '524'
  ilec_name: UNITED TEL. CO. OF KANSAS DBA CENTURYLINK
  lat:
  long:
- country: US
  region: KS
  exchange: '333386'
  name: BEARDSLEY
  full_name: Beardsley
  lata: '534'
  ilec_name: SOUTHWESTERN BELL
  lat:
  long:
- country: US
  region: KS
  exchange: '062040'
  name: BEATTIE
  full_name: Beattie
  lata: '534'
  ilec_name: BLUE VALLEY TELE-COMMUNICATIONS, INC.
  lat: '39.855781'
  long: "-96.415639"
  closest_city:
    name: Beattie
    distance_km: 0.76
- country: US
  region: KS
  exchange: '062050'
  name: BEAUMONT
  full_name: Beaumont
  lata: '532'
  ilec_name: SOUTHERN KANSAS TEL. CO., INC.
  lat: '37.656901'
  long: "-96.533635"
  closest_city:
    name: Beaumont
    distance_km: 0.18
- country: US
  region: KS
  exchange: '332921'
  name: BEAVER
  full_name: Beaver
  lata: '532'
  ilec_name: UNITED TEL OF EASTERN KANSAS DBA CENTURYLINK
  lat:
  long:
- country: US
  region: KS
  exchange: '062060'
  name: BEELER
  full_name: Beeler
  lata: '534'
  ilec_name: GOLDEN BELT TEL. ASSN., INC.
  lat: '38.443099'
  long: "-100.202282"
  closest_city:
    name: Utica
    distance_km: 22.37
- country: US
  region: KS
  exchange: '332922'
  name: BEL AIRE
  full_name: Bel Aire
  lata: '532'
  ilec_name: SOUTHWESTERN BELL
  lat:
  long:
- country: US
  region: KS
  exchange: '333389'
  name: BELLAIRE
  full_name: Bellaire
  lata: '534'
  ilec_name: RURAL TEL. SERVICE CO., INC. DBA NEX-TECH
  lat:
  long:
- country: US
  region: KS
  exchange: '062070'
  name: BELLEPLAIN
  full_name: Belle Plaine
  lata: '532'
  ilec_name: UNITED TEL OF EASTERN KANSAS DBA CENTURYLINK
  lat: '37.390261'
  long: "-97.284678"
  closest_city:
    name: Belle Plaine
    distance_km: 0.58
- country: US
  region: KS
  exchange: '062080'
  name: BELLEVILLE
  full_name: Belleville
  lata: '534'
  ilec_name: SOUTHWESTERN BELL
  lat: '39.824447'
  long: "-97.627591"
  closest_city:
    name: Belleville
    distance_km: 0.52
- country: US
  region: KS
  exchange: '332924'
  name: BELMONT
  full_name: Belmont
  lata: '532'
  ilec_name: UNITED TEL OF EASTERN KANSAS DBA CENTURYLINK
  lat:
  long:
- country: US
  region: KS
  exchange: '062090'
  name: BELOIT
  full_name: Beloit
  lata: '534'
  ilec_name: SOUTHWESTERN BELL
  lat: '39.457939'
  long: "-98.106288"
  closest_city:
    name: Beloit
    distance_km: 0.75
- country: US
  region: KS
  exchange: '062100'
  name: BELPRE
  full_name: Belpre
  lata: '532'
  ilec_name: UNITED TEL OF EASTERN KANSAS DBA CENTURYLINK
  lat: '37.947108'
  long: "-99.098405"
  closest_city:
    name: Belpre
    distance_km: 0.42
- country: US
  region: KS
  exchange: '332926'
  name: BELVIDERE
  full_name: Belvidere
  lata: '532'
  ilec_name: HAVILAND TEL. CO., INC.
  lat:
  long:
- country: US
  region: KS
  exchange: '333392'
  name: BELVUE
  full_name: Belvue
  lata: '534'
  ilec_name: WAMEGO TEL. CO., INC.
  lat:
  long:
- country: US
  region: KS
  exchange: '062110'
  name: BENDENA
  full_name: Bendena
  lata: '534'
  ilec_name: RAINBOW TELECOMMUNICATIONS ASSOCIATION, INC.
  lat: '39.742595'
  long: "-95.184726"
  closest_city:
    name: Bendena
    distance_km: 0.33
- country: US
  region: KS
  exchange: '062120'
  name: BENEDICT
  full_name: Benedict
  lata: '532'
  ilec_name: UNITED TEL OF EASTERN KANSAS DBA CENTURYLINK
  lat: '37.625796'
  long: "-95.742561"
  closest_city:
    name: Benedict
    distance_km: 0.14
- country: US
  region: KS
  exchange: '062130'
  name: BENNINGTON
  full_name: Bennington
  lata: '534'
  ilec_name: TWIN VALLEY TEL., INC.
  lat: '39.034739'
  long: "-97.601181"
  closest_city:
    name: Bennington
    distance_km: 0.71
- country: US
  region: KS
  exchange: '332928'
  name: BENTLEY
  full_name: Bentley
  lata: '532'
  ilec_name: SOUTHWESTERN BELL
  lat:
  long:
- country: US
  region: KS
  exchange: '062140'
  name: BENTON
  full_name: Benton
  lata: '532'
  ilec_name: SOUTHWESTERN BELL
  lat: '37.792672'
  long: "-97.107921"
  closest_city:
    name: Benton
    distance_km: 0.5
- country: US
  region: KS
  exchange: '333395'
  name: BERN
  full_name: Bern
  lata: '534'
  ilec_name: SOUTHWESTERN BELL
  lat:
  long:
- country: US
  region: KS
  exchange: '333396'
  name: BERRYTON
  full_name: Berryton
  lata: '534'
  ilec_name: SOUTHWESTERN BELL
  lat:
  long:
- country: US
  region: KS
  exchange: '062150'
  name: BETHEL
  full_name: Bethel
  lata: '524'
  ilec_name: SOUTHWESTERN BELL
  lat: '39.149021'
  long: "-94.750853"
  closest_city:
    name: Kansas City
    distance_km: 2.89
- country: US
  region: KS
  exchange: '062160'
  name: BEVERLY
  full_name: Beverly
  lata: '534'
  ilec_name: TWIN VALLEY TEL., INC.
  lat: '39.01631'
  long: "-97.977683"
  closest_city:
    name: Beverly
    distance_km: 0.34
- country: US
  region: KS
  exchange: '062170'
  name: BIG BOW
  full_name: Big Bow
  lata: '532'
  ilec_name: PIONEER TEL. ASSN., INC.
  lat: '37.56793'
  long: "-101.560462"
  closest_city:
    name: Big Bow
    distance_km: 0.83
- country: US
  region: KS
  exchange: '333398'
  name: BIGSPRING
  full_name: Big Springs
  lata: '534'
  ilec_name: SOUTHWESTERN BELL
  lat:
  long:
- country: US
  region: KS
  exchange: '062180'
  name: BIRD CITY
  full_name: Bird City
  lata: '534'
  ilec_name: SOUTHWESTERN BELL
  lat: '39.741753'
  long: "-101.523353"
  closest_city:
    name: Bird City
    distance_km: 1.18
- country: US
  region: KS
  exchange: '062190'
  name: BISON
  full_name: Bison
  lata: '534'
  ilec_name: GOLDEN BELT TEL. ASSN., INC.
  lat: '38.516998'
  long: "-99.201583"
  closest_city:
    name: Bison
    distance_km: 0.48
- country: US
  region: KS
  exchange: '333401'
  name: BLAINE
  full_name: Blaine
  lata: '534'
  ilec_name: BLUE VALLEY TELE-COMMUNICATIONS, INC.
  lat:
  long:
- country: US
  region: KS
  exchange: '333402'
  name: BLAIR
  full_name: Blair
  lata: '534'
  ilec_name: UNITED TEL. CO. OF KANSAS DBA CENTURYLINK
  lat:
  long:
- country: US
  region: KS
  exchange: '333403'
  name: BLAKEMAN
  full_name: Blakeman
  lata: '534'
  ilec_name: SOUTHWESTERN BELL
  lat:
  long:
- country: US
  region: KS
  exchange: '330737'
  name: BLOCK
  full_name: Block
  lata: '524'
  ilec_name: UNITED TEL OF EASTERN KANSAS DBA CENTURYLINK
  lat:
  long:
- country: US
  region: KS
  exchange: '332931'
  name: BLOOM
  full_name: Bloom
  lata: '532'
  ilec_name: SOUTHWESTERN BELL
  lat:
  long:
- country: US
  region: KS
  exchange: '333404'
  name: BLOOMINGTN
  full_name: Bloomington
  lata: '534'
  ilec_name: RURAL TEL. SERVICE CO., INC. DBA NEX-TECH
  lat:
  long:
- country: US
  region: KS
  exchange: '062200'
  name: BLUE MOUND
  full_name: Blue Mound
  lata: '524'
  ilec_name: UNITED TEL OF EASTERN KANSAS DBA CENTURYLINK
  lat: '38.092409'
  long: "-95.009257"
  closest_city:
    name: Blue Mound
    distance_km: 0.38
- country: US
  region: KS
  exchange: '333406'
  name: BLUERAPIDS
  full_name: Blue Rapids
  lata: '534'
  ilec_name: SOUTHWESTERN BELL
  lat:
  long:
- country: US
  region: KS
  exchange: '062210'
  name: BLRP-WTVL
  full_name: Blue Rapids-Waterville
  lata: '534'
  ilec_name: SOUTHWESTERN BELL
  lat: '39.639793'
  long: "-96.696806"
  closest_city:
    name: Blue Rapids
    distance_km: 5.42
- country: US
  region: KS
  exchange: '062220'
  name: BLUFF CITY
  full_name: Bluff City
  lata: '532'
  ilec_name: KANOKLA TEL ASSN
  lat: '37.074228'
  long: "-97.873192"
  closest_city:
    name: Bluff City
    distance_km: 0.25
- country: US
  region: KS
  exchange: '333407'
  name: BOGUE
  full_name: Bogue
  lata: '534'
  ilec_name: RURAL TEL. SERVICE CO., INC. DBA NEX-TECH
  lat:
  long:
- country: US
  region: KS
  exchange: '330739'
  name: BOICOURT
  full_name: Boicourt
  lata: '524'
  ilec_name: PEOPLES TELECOMMUNICATIONS, LLC - KS
  lat:
  long:
- country: US
  region: KS
  exchange: '330740'
  name: BONITA
  full_name: Bonita
  lata: '524'
  ilec_name: SOUTHWESTERN BELL
  lat:
  long:
- country: US
  region: KS
  exchange: '062230'
  name: BONNER SPG
  full_name: Bonner Springs
  lata: '524'
  ilec_name: SOUTHWESTERN BELL
  lat: '39.058031'
  long: "-94.884574"
  closest_city:
    name: Bonner Springs
    distance_km: 2.7
- country: US
  region: KS
  exchange: '332933'
  name: BOYD
  full_name: Boyd
  lata: '532'
  ilec_name: UNITED TEL OF EASTERN KANSAS DBA CENTURYLINK
  lat:
  long:
- country: US
  region: KS
  exchange: '333408'
  name: BOYLE
  full_name: Boyle
  lata: '534'
  ilec_name: UNITED TEL. CO. OF KANSAS DBA CENTURYLINK
  lat:
  long:
- country: US
  region: KS
  exchange: '333409'
  name: BRANTFORD
  full_name: Brantford
  lata: '534'
  ilec_name: J.B.N. TEL. CO., INC.
  lat:
  long:
- country: US
  region: KS
  exchange: '062240'
  name: BRAZILTON
  full_name: Brazilton
  lata: '532'
  ilec_name: CRAW-KAN TEL. COOP.,INC. - KS
  lat: '37.555772'
  long: "-94.957591"
  closest_city:
    name: Girard
    distance_km: 11.14
- country: US
  region: KS
  exchange: '333410'
  name: BREMEN
  full_name: Bremen
  lata: '534'
  ilec_name: SOUTHWESTERN BELL
  lat:
  long:
- country: US
  region: KS
  exchange: '332935'
  name: BRENHAM
  full_name: Brenham
  lata: '532'
  ilec_name: SOUTHWESTERN BELL
  lat:
  long:
- country: US
  region: KS
  exchange: '333411'
  name: BRENNER
  full_name: Brenner
  lata: '534'
  ilec_name: UNITED TEL. CO. OF KANSAS DBA CENTURYLINK
  lat:
  long:
- country: US
  region: KS
  exchange: '062250'
  name: BREWSTER
  full_name: Brewster
  lata: '534'
  ilec_name: S & T TEL. COOP. ASSN.
  lat: '39.357325'
  long: "-101.386746"
  closest_city:
    name: Brewster
    distance_km: 1.05
- country: US
  region: KS
  exchange: '333413'
  name: BRIDGEPORT
  full_name: Bridgeport
  lata: '534'
  ilec_name: HOME TEL. CO., INC.
  lat:
  long:
- country: US
  region: KS
  exchange: '062260'
  name: BRONSON
  full_name: Bronson
  lata: '532'
  ilec_name: CRAW-KAN TEL. COOP.,INC. - KS
  lat: '37.898471'
  long: "-95.075819"
  closest_city:
    name: Bronson
    distance_km: 0.38
- country: US
  region: KS
  exchange: '062270'
  name: BROOKVILLE
  full_name: Brookville
  lata: '534'
  ilec_name: WILSON TEL. CO., INC.
  lat: '38.772964'
  long: "-97.865264"
  closest_city:
    name: Brookville
    distance_km: 0.1
- country: US
  region: KS
  exchange: '333415'
  name: BROUGHTON
  full_name: Broughton
  lata: '534'
  ilec_name: TWIN VALLEY TEL., INC.
  lat:
  long:
- country: US
  region: KS
  exchange: '062280'
  name: BROWNELL
  full_name: Brownell
  lata: '534'
  ilec_name: GOLDEN BELT TEL. ASSN., INC.
  lat: '38.642585'
  long: "-99.748408"
  closest_city:
    name: Brownell
    distance_km: 0.42
- country: US
  region: KS
  exchange: '062290'
  name: BUCKEYE
  full_name: Buckeye
  lata: '534'
  ilec_name: TRI-COUNTY TEL. ASSN., INC.
  lat: '39.040784'
  long: "-97.173038"
  closest_city:
    name: Talmage
    distance_km: 7.65
- country: US
  region: KS
  exchange: '062300'
  name: BUCKLIN
  full_name: Bucklin
  lata: '532'
  ilec_name: SOUTHWESTERN BELL
  lat: '37.547256'
  long: "-99.63164"
  closest_city:
    name: Bucklin
    distance_km: 0.29
- country: US
  region: KS
  exchange: '062310'
  name: BUCYRUS
  full_name: Bucyrus
  lata: '524'
  ilec_name: UNITED TEL OF EASTERN KANSAS DBA CENTURYLINK
  lat: '38.723613'
  long: "-94.716131"
  closest_city:
    name: Bucyrus
    distance_km: 0.19
- country: US
  region: KS
  exchange: 06231E
  name: BUCYRUS METRO
  full_name: Bucyrus Metro
  lata: '524'
  ilec_name: UNITED TEL OF EASTERN KANSAS DBA CENTURYLINK
  lat: '38.723613'
  long: "-94.716131"
  closest_city:
    name: Bucyrus
    distance_km: 0.19
- country: US
  region: KS
  exchange: '062320'
  name: BUFFALO
  full_name: Buffalo
  lata: '532'
  ilec_name: UNITED TEL OF EASTERN KANSAS DBA CENTURYLINK
  lat: '37.706938'
  long: "-95.699948"
  closest_city:
    name: Buffalo
    distance_km: 0.35
- country: US
  region: KS
  exchange: '333418'
  name: BUFFALO PK
  full_name: Buffalo Park
  lata: '534'
  ilec_name: RURAL TEL. SERVICE CO., INC. DBA NEX-TECH
  lat:
  long:
- country: US
  region: KS
  exchange: '062330'
  name: BUHLER
  full_name: Buhler
  lata: '532'
  ilec_name: UNITED TEL. CO. OF KANSAS DBA CENTURYLINK
  lat: '38.135726'
  long: "-97.767526"
  closest_city:
    name: Buhler
    distance_km: 0.39
- country: US
  region: KS
  exchange: '333419'
  name: BUNKERHILL
  full_name: Bunker Hill
  lata: '534'
  ilec_name: RURAL TEL. SERVICE CO., INC. DBA NEX-TECH
  lat:
  long:
- country: US
  region: KS
  exchange: '062340'
  name: BURDEN
  full_name: Burden
  lata: '532'
  ilec_name: SOUTHERN KANSAS TEL. CO., INC.
  lat: '37.317417'
  long: "-96.750096"
  closest_city:
    name: Burden
    distance_km: 0.54
- country: US
  region: KS
  exchange: '062350'
  name: BURDETT
  full_name: Burdett
  lata: '532'
  ilec_name: GOLDEN BELT TEL. ASSN., INC.
  lat: '38.202114'
  long: "-99.524656"
  closest_city:
    name: Burdett
    distance_km: 0.97
- country: US
  region: KS
  exchange: '333420'
  name: BURDICK
  full_name: Burdick
  lata: '534'
  ilec_name: TRI-COUNTY TEL. ASSN., INC.
  lat:
  long:
- country: US
  region: KS
  exchange: '062360'
  name: BURLINGAME
  full_name: Burlingame
  lata: '534'
  ilec_name: UNITED TEL. CO. OF KANSAS DBA CENTURYLINK
  lat: '38.74958'
  long: "-95.831118"
  closest_city:
    name: Burlingame
    distance_km: 0.42
- country: US
  region: KS
  exchange: '062370'
  name: BURLINGTON
  full_name: Burlington
  lata: '532'
  ilec_name: UNITED TEL. CO. OF KANSAS DBA CENTURYLINK
  lat: '38.198371'
  long: "-95.743011"
  closest_city:
    name: Burlington
    distance_km: 0.62
- country: US
  region: KS
  exchange: '062380'
  name: BURNS
  full_name: Burns
  lata: '532'
  ilec_name: SOUTHWESTERN BELL
  lat: '38.089805'
  long: "-96.882245"
  closest_city:
    name: Burns
    distance_km: 0.48
- country: US
  region: KS
  exchange: '062390'
  name: BURR OAK
  full_name: Burr Oak
  lata: '534'
  ilec_name: RURAL TEL. SERVICE CO., INC. DBA NEX-TECH
  lat: '39.866866'
  long: "-98.310393"
  closest_city:
    name: Burr Oak
    distance_km: 0.54
- country: US
  region: KS
  exchange: '062400'
  name: BURRTON
  full_name: Burrton
  lata: '532'
  ilec_name: UNITED TEL. CO. OF KANSAS DBA CENTURYLINK
  lat: '38.024476'
  long: "-97.666451"
  closest_city:
    name: Burrton
    distance_km: 0.45
- country: US
  region: KS
  exchange: '330743'
  name: BUSH CITY
  full_name: Bush City
  lata: '524'
  ilec_name: UNITED TEL OF EASTERN KANSAS DBA CENTURYLINK
  lat:
  long:
- country: US
  region: KS
  exchange: '332945'
  name: BUSHONG
  full_name: Bushong
  lata: '532'
  ilec_name: CONSOLIDATED COMMUNICATIONS OF KANSAS COMPANY - KS
  lat:
  long:
- country: US
  region: KS
  exchange: '062410'
  name: BUSHTON
  full_name: Bushton
  lata: '532'
  ilec_name: H & B COMMUNICATIONS, INC.
  lat: '38.514789'
  long: "-98.401399"
  closest_city:
    name: Bushton
    distance_km: 0.55
- country: US
  region: KS
  exchange: '332947'
  name: BUXTON
  full_name: Buxton
  lata: '532'
  ilec_name: UNITED TEL OF EASTERN KANSAS DBA CENTURYLINK
  lat:
  long:
- country: US
  region: KS
  exchange: '332948'
  name: BYERS
  full_name: Byers
  lata: '532'
  ilec_name: SOUTH CENTRAL TEL ASSN INC
  lat:
  long:
- country: US
  region: KS
  exchange: '330744'
  name: CADMUS
  full_name: Cadmus
  lata: '524'
  ilec_name: PEOPLES TELECOMMUNICATIONS, LLC - KS
  lat:
  long:
- country: US
  region: KS
  exchange: '332949'
  name: CAIRO
  full_name: Cairo
  lata: '532'
  ilec_name: SOUTHWESTERN BELL
  lat:
  long:
- country: US
  region: KS
  exchange: '062420'
  name: CALDWELL
  full_name: Caldwell
  lata: '532'
  ilec_name: KANOKLA TEL ASSN
  lat: '37.035195'
  long: "-97.608737"
  closest_city:
    name: Caldwell
    distance_km: 0.03
- country: US
  region: KS
  exchange: '333423'
  name: CALVERT
  full_name: Calvert
  lata: '534'
  ilec_name: SOUTHWESTERN BELL
  lat:
  long:
- country: US
  region: KS
  exchange: '062430'
  name: CAMBRIDGE
  full_name: Cambridge
  lata: '532'
  ilec_name: SOUTHERN KANSAS TEL. CO., INC.
  lat: '37.316246'
  long: "-96.66991"
  closest_city:
    name: Cambridge
    distance_km: 0.28
- country: US
  region: KS
  exchange: '332952'
  name: CANADA
  full_name: Canada
  lata: '532'
  ilec_name: SOUTHWESTERN BELL
  lat:
  long:
- country: US
  region: KS
  exchange: '062440'
  name: CANEY
  full_name: Caney
  lata: '532'
  ilec_name: SOUTHWESTERN BELL
  lat: '37.01756'
  long: "-95.934514"
  closest_city:
    name: Caney
    distance_km: 0.48
- country: US
  region: KS
  exchange: '062450'
  name: CANTON
  full_name: Canton
  lata: '532'
  ilec_name: SOUTHWESTERN BELL
  lat: '38.392364'
  long: "-97.426186"
  closest_city:
    name: Canton
    distance_km: 0.82
- country: US
  region: KS
  exchange: '333424'
  name: CARBONDALE
  full_name: Carbondale
  lata: '534'
  ilec_name: SOUTHWESTERN BELL
  lat:
  long:
- country: US
  region: KS
  exchange: '062460'
  name: CARLTON
  full_name: Carlton
  lata: '534'
  ilec_name: TRI-COUNTY TEL. ASSN., INC.
  lat: '38.694314'
  long: "-97.292566"
  closest_city:
    name: Carlton
    distance_km: 0.86
- country: US
  region: KS
  exchange: '332955'
  name: CARLYLE
  full_name: Carlyle
  lata: '532'
  ilec_name: SOUTHWESTERN BELL
  lat:
  long:
- country: US
  region: KS
  exchange: '332956'
  name: CARONA
  full_name: Carona
  lata: '532'
  ilec_name: EMBARQ MISSOURI, INC. DBA CENTURYLINK - KS
  lat:
  long:
- country: US
  region: KS
  exchange: '062470'
  name: CASSODAY
  full_name: Cassoday
  lata: '532'
  ilec_name: WHEAT STATE TEL., INC.
  lat: '38.042573'
  long: "-96.642798"
  closest_city:
    name: Cassoday
    distance_km: 0.57
- country: US
  region: KS
  exchange: '332958'
  name: CASTLETON
  full_name: Castleton
  lata: '532'
  ilec_name: UNITED TEL OF EASTERN KANSAS DBA CENTURYLINK
  lat:
  long:
- country: US
  region: KS
  exchange: '333426'
  name: CATHERINE
  full_name: Catherine
  lata: '534'
  ilec_name: SOUTHWESTERN BELL
  lat:
  long:
- country: US
  region: KS
  exchange: '332959'
  name: CAVE
  full_name: Cave
  lata: '532'
  ilec_name: SOUTHWESTERN BELL
  lat:
  long:
- country: US
  region: KS
  exchange: '062480'
  name: CAWKERCITY
  full_name: Cawker City
  lata: '534'
  ilec_name: CUNNINGHAM TEL. CO., INC.
  lat: '39.50634'
  long: "-98.432045"
  closest_city:
    name: Cawker City
    distance_km: 0.36
- country: US
  region: KS
  exchange: '333428'
  name: CEDAR
  full_name: Cedar
  lata: '534'
  ilec_name: RURAL TEL. SERVICE CO., INC. DBA NEX-TECH
  lat:
  long:
- country: US
  region: KS
  exchange: '062490'
  name: CEDARPOINT
  full_name: Cedar Point
  lata: '532'
  ilec_name: CONSOLIDATED COMMUNICATIONS OF KANSAS COMPANY - KS
  lat: '38.258114'
  long: "-96.815132"
  closest_city:
    name: Cedar Point
    distance_km: 0.68
- country: US
  region: KS
  exchange: '062500'
  name: CEDAR VALE
  full_name: Cedar Vale
  lata: '532'
  ilec_name: SOUTHWESTERN BELL
  lat: '37.110781'
  long: "-96.501135"
  closest_city:
    name: Cedar Vale
    distance_km: 0.52
- country: US
  region: KS
  exchange: '330745'
  name: CENTERVL
  full_name: Centerville
  lata: '524'
  ilec_name: UNITED TEL OF EASTERN KANSAS DBA CENTURYLINK
  lat:
  long:
- country: US
  region: KS
  exchange: '062510'
  name: CENTRALIA
  full_name: Centralia
  lata: '534'
  ilec_name: BLUE VALLEY TELE-COMMUNICATIONS, INC.
  lat: '39.724716'
  long: "-96.13093"
  closest_city:
    name: Centralia
    distance_km: 0.08
- country: US
  region: KS
  exchange: '062520'
  name: CENTROPOLS
  full_name: Centropolis
  lata: '534'
  ilec_name: UNITED TEL OF EASTERN KANSAS DBA CENTURYLINK
  lat: '38.716429'
  long: "-95.352102"
  closest_city:
    name: Centropolis
    distance_km: 0.2
- country: US
  region: KS
  exchange: '062530'
  name: CHANUTE
  full_name: Chanute
  lata: '532'
  ilec_name: SOUTHWESTERN BELL
  lat: '37.682164'
  long: "-95.461904"
  closest_city:
    name: Chanute
    distance_km: 1.41
- country: US
  region: KS
  exchange: '062540'
  name: CHAPMAN
  full_name: Chapman
  lata: '534'
  ilec_name: SOUTHWESTERN BELL
  lat: '38.965932'
  long: "-97.014585"
  closest_city:
    name: Chapman
    distance_km: 1.24
- country: US
  region: KS
  exchange: '332963'
  name: CHARLESTON
  full_name: Charleston
  lata: '532'
  ilec_name: UNITED TEL. ASSN., INC.
  lat:
  long:
- country: US
  region: KS
  exchange: '062550'
  name: CHASE
  full_name: Chase
  lata: '532'
  ilec_name: SOUTHWESTERN BELL
  lat: '38.357272'
  long: "-98.340475"
  closest_city:
    name: Chase
    distance_km: 0.77
- country: US
  region: KS
  exchange: '332965'
  name: CHATAUQUA
  full_name: Chautauqua
  lata: '532'
  ilec_name: SOUTHWESTERN BELL
  lat:
  long:
- country: US
  region: KS
  exchange: '062560'
  name: CHENEY
  full_name: Cheney
  lata: '532'
  ilec_name: SOUTHWESTERN BELL
  lat: '37.633588'
  long: "-97.784934"
  closest_city:
    name: Cheney
    distance_km: 0.5
- country: US
  region: KS
  exchange: 06256E
  name: CHENEY METRO
  full_name: Cheney Metro
  lata: '532'
  ilec_name: SOUTHWESTERN BELL
  lat: '37.633588'
  long: "-97.784934"
  closest_city:
    name: Cheney
    distance_km: 0.5
- country: US
  region: KS
  exchange: '062570'
  name: CHEROKEE
  full_name: Cherokee
  lata: '532'
  ilec_name: CRAW-KAN TEL. COOP.,INC. - KS
  lat: '37.344218'
  long: "-94.826363"
  closest_city:
    name: Cherokee
    distance_km: 0.44
- country: US
  region: KS
  exchange: '062580'
  name: CHERRYVALE
  full_name: Cherryvale
  lata: '532'
  ilec_name: SOUTHWESTERN BELL
  lat: '37.264723'
  long: "-95.550484"
  closest_city:
    name: Cherryvale
    distance_km: 0.55
- country: US
  region: KS
  exchange: '062590'
  name: CHETOPA
  full_name: Chetopa
  lata: '532'
  ilec_name: SOUTHWESTERN BELL
  lat: '37.032917'
  long: "-95.092574"
  closest_city:
    name: Chetopa
    distance_km: 0.52
- country: US
  region: KS
  exchange: '333432'
  name: CHEYENNE
  full_name: Cheyenne
  lata: '534'
  ilec_name: GORHAM TEL. CO., INC.
  lat:
  long:
- country: US
  region: KS
  exchange: '330746'
  name: CHILES
  full_name: Chiles
  lata: '524'
  ilec_name: UNITED TEL OF EASTERN KANSAS DBA CENTURYLINK
  lat:
  long:
- country: US
  region: KS
  exchange: '062600'
  name: CIMARRON
  full_name: Cimarron
  lata: '532'
  ilec_name: UNITED TEL. ASSN., INC.
  lat: '37.808981'
  long: "-100.343073"
  closest_city:
    name: Cimarron
    distance_km: 0.21
- country: US
  region: KS
  exchange: '062610'
  name: CIRCLEVL
  full_name: Circleville
  lata: '534'
  ilec_name: UNITED TEL OF EASTERN KANSAS DBA CENTURYLINK
  lat: '39.507164'
  long: "-95.861245"
  closest_city:
    name: Circleville
    distance_km: 0.56
- country: US
  region: KS
  exchange: '062620'
  name: CLAFLIN
  full_name: Claflin
  lata: '532'
  ilec_name: UNITED TEL OF EASTERN KANSAS DBA CENTURYLINK
  lat: '38.525294'
  long: "-98.534198"
  closest_city:
    name: Claflin
    distance_km: 0.23
- country: US
  region: KS
  exchange: '330747'
  name: CLARE
  full_name: Clare
  lata: '524'
  ilec_name: UNITED TEL OF EASTERN KANSAS DBA CENTURYLINK
  lat:
  long:
- country: US
  region: KS
  exchange: '062630'
  name: CLAYCENTER
  full_name: Clay Center
  lata: '534'
  ilec_name: SOUTHWESTERN BELL
  lat: '39.374254'
  long: "-97.122802"
  closest_city:
    name: Clay Center
    distance_km: 0.88
- country: US
  region: KS
  exchange: '333435'
  name: CLAYTON
  full_name: Clayton
  lata: '534'
  ilec_name: SOUTHWESTERN BELL
  lat:
  long:
- country: US
  region: KS
  exchange: '062640'
  name: CLEARWATER
  full_name: Clearwater
  lata: '532'
  ilec_name: SOUTHERN KANSAS TEL. CO., INC.
  lat: '37.505844'
  long: "-97.506503"
  closest_city:
    name: Clearwater
    distance_km: 0.9
- country: US
  region: KS
  exchange: '332973'
  name: CLEMENTS
  full_name: Clements
  lata: '532'
  ilec_name: CONSOLIDATED COMMUNICATIONS OF KANSAS COMPANY - KS
  lat:
  long:
- country: US
  region: KS
  exchange: '062650'
  name: CLIFTON
  full_name: Clifton
  lata: '534'
  ilec_name: TWIN VALLEY TEL., INC.
  lat: '39.569264'
  long: "-97.284431"
  closest_city:
    name: Clifton
    distance_km: 0.33
- country: US
  region: KS
  exchange: '332974'
  name: CLIMAX
  full_name: Climax
  lata: '532'
  ilec_name: SOUTHWESTERN BELL
  lat:
  long:
- country: US
  region: KS
  exchange: '062660'
  name: CLINTON
  full_name: Clinton
  lata: '534'
  ilec_name: SOUTHWESTERN BELL
  lat: '38.909543'
  long: "-95.388267"
  closest_city:
    name: Lawrence
    distance_km: 12.09
- country: US
  region: KS
  exchange: '332975'
  name: CLONMEL
  full_name: Clonmel
  lata: '532'
  ilec_name: SOUTHERN KANSAS TEL. CO., INC.
  lat:
  long:
- country: US
  region: KS
  exchange: '062670'
  name: CLYDE
  full_name: Clyde
  lata: '534'
  ilec_name: TWIN VALLEY TEL., INC.
  lat: '39.590552'
  long: "-97.40141"
  closest_city:
    name: Clyde
    distance_km: 0.17
- country: US
  region: KS
  exchange: '062680'
  name: COATS
  full_name: Coats
  lata: '532'
  ilec_name: HAVILAND TEL. CO., INC.
  lat: '37.514858'
  long: "-98.814571"
  closest_city:
    name: Coats
    distance_km: 1.05
- country: US
  region: KS
  exchange: '333439'
  name: CODELL
  full_name: Codell
  lata: '534'
  ilec_name: SOUTHWESTERN BELL
  lat:
  long:
- country: US
  region: KS
  exchange: '062690'
  name: COFFEYVL
  full_name: Coffeyville
  lata: '532'
  ilec_name: SOUTHWESTERN BELL
  lat: '37.030904'
  long: "-95.616806"
  closest_city:
    name: Coffeyville
    distance_km: 2.34
- country: US
  region: KS
  exchange: '062700'
  name: COLBY
  full_name: Colby
  lata: '534'
  ilec_name: SOUTHWESTERN BELL
  lat: '39.390443'
  long: "-101.058204"
  closest_city:
    name: Colby
    distance_km: 1.28
- country: US
  region: KS
  exchange: '062710'
  name: COLDWATER
  full_name: Coldwater
  lata: '532'
  ilec_name: SOUTHWESTERN BELL
  lat: '37.265353'
  long: "-99.332172"
  closest_city:
    name: Coldwater
    distance_km: 0.94
- country: US
  region: KS
  exchange: '062720'
  name: COLLYER
  full_name: Collyer
  lata: '534'
  ilec_name: RURAL TEL. SERVICE CO., INC. DBA NEX-TECH
  lat: '39.03427'
  long: "-100.116734"
  closest_city:
    name: Collyer
    distance_km: 0.36
- country: US
  region: KS
  exchange: '062730'
  name: COLONY
  full_name: Colony
  lata: '532'
  ilec_name: CRAW-KAN TEL. COOP.,INC. - KS
  lat: '38.066706'
  long: "-95.364497"
  closest_city:
    name: Colony
    distance_km: 0.52
- country: US
  region: KS
  exchange: '062740'
  name: COLUMBUS
  full_name: Columbus
  lata: '532'
  ilec_name: COLUMBUS TEL. CO.
  lat: '37.173434'
  long: "-94.842807"
  closest_city:
    name: Columbus
    distance_km: 0.23
- country: US
  region: KS
  exchange: '062750'
  name: COLUBSRURL
  full_name: Columbus Rural
  lata: '532'
  ilec_name: CRAW-KAN TEL. COOP.,INC. - KS
  lat: '37.164295'
  long: "-94.816427"
  closest_city:
    name: Columbus
    distance_km: 2.57
- country: US
  region: KS
  exchange: '332982'
  name: COLWICH
  full_name: Colwich
  lata: '532'
  ilec_name: SOUTHWESTERN BELL
  lat:
  long:
- country: US
  region: KS
  exchange: '062760'
  name: COLWIHBTLY
  full_name: Colwich Bentley
  lata: '532'
  ilec_name: SOUTHWESTERN BELL
  lat: '37.781683'
  long: "-97.543744"
  closest_city:
    name: Colwich
    distance_km: 0.65
- country: US
  region: KS
  exchange: '062770'
  name: CONCORDIA
  full_name: Concordia
  lata: '534'
  ilec_name: SOUTHWESTERN BELL
  lat: '39.575092'
  long: "-97.658496"
  closest_city:
    name: Concordia
    distance_km: 1.36
- country: US
  region: KS
  exchange: '062780'
  name: CONWAY
  full_name: Conway
  lata: '532'
  ilec_name: UNITED TEL OF EASTERN KANSAS DBA CENTURYLINK
  lat: '38.365144'
  long: "-97.785192"
  closest_city:
    name: McPherson
    distance_km: 10.89
- country: US
  region: KS
  exchange: '062790'
  name: CONWAY SPG
  full_name: Conway Springs
  lata: '532'
  ilec_name: HAVILAND TEL. CO., INC.
  lat: '37.390126'
  long: "-97.644301"
  closest_city:
    name: Conway Springs
    distance_km: 0.12
- country: US
  region: KS
  exchange: '062800'
  name: COOLIDGE
  full_name: Coolidge
  lata: '532'
  ilec_name: PIONEER TEL. ASSN., INC.
  lat: '38.040437'
  long: "-102.018241"
  closest_city:
    name: Coolidge
    distance_km: 0.92
- country: US
  region: KS
  exchange: '062810'
  name: COPELAND
  full_name: Copeland
  lata: '532'
  ilec_name: UNITED TEL. ASSN., INC.
  lat: '37.543301'
  long: "-100.634809"
  closest_city:
    name: Copeland
    distance_km: 0.61
- country: US
  region: KS
  exchange: '062820'
  name: CORBIN
  full_name: Corbin
  lata: '532'
  ilec_name: KANOKLA TEL ASSN
  lat: '37.126548'
  long: "-97.551481"
  closest_city:
    name: Caldwell
    distance_km: 11.38
- country: US
  region: KS
  exchange: '062830'
  name: CORNING
  full_name: Corning
  lata: '534'
  ilec_name: J.B.N. TEL. CO., INC.
  lat: '39.660125'
  long: "-96.023761"
  closest_city:
    name: Corning
    distance_km: 0.55
- country: US
  region: KS
  exchange: '332989'
  name: CORWIN
  full_name: Corwin
  lata: '532'
  ilec_name: SOUTH CENTRAL TEL ASSN INC
  lat:
  long:
- country: US
  region: KS
  exchange: '062840'
  name: COTONWDFLS
  full_name: Cottonwood Falls
  lata: '532'
  ilec_name: SOUTHWESTERN BELL
  lat: '38.364429'
  long: "-96.539935"
  closest_city:
    name: Cottonwood Falls
    distance_km: 0.51
- country: US
  region: KS
  exchange: '062850'
  name: COUNCILGRV
  full_name: Council Grove
  lata: '532'
  ilec_name: COUNCIL GROVE TEL. CO.
  lat: '38.666691'
  long: "-96.484312"
  closest_city:
    name: Council Grove
    distance_km: 0.8
- country: US
  region: KS
  exchange: '330748'
  name: COUNTRYSID
  full_name: Countryside
  lata: '524'
  ilec_name: SOUTHWESTERN BELL
  lat:
  long:
- country: US
  region: KS
  exchange: '062860'
  name: COURTLAND
  full_name: Courtland
  lata: '534'
  ilec_name: RURAL TEL. SERVICE CO., INC. DBA NEX-TECH
  lat: '39.782615'
  long: "-97.898565"
  closest_city:
    name: Courtland
    distance_km: 0.23
- country: US
  region: KS
  exchange: '333445'
  name: COVERT
  full_name: Covert
  lata: '534'
  ilec_name: RURAL TEL. SERVICE CO., INC. DBA NEX-TECH
  lat:
  long:
- country: US
  region: KS
  exchange: '062870'
  name: COYVILLE
  full_name: Coyville
  lata: '532'
  ilec_name: UNITED TEL OF EASTERN KANSAS DBA CENTURYLINK
  lat: '37.683521'
  long: "-95.900369"
  closest_city:
    name: Coyville
    distance_km: 0.58
- country: US
  region: KS
  exchange: '330749'
  name: CRAIG
  full_name: Craig
  lata: '524'
  ilec_name: SOUTHWESTERN BELL
  lat:
  long:
- country: US
  region: KS
  exchange: '062880'
  name: CRESTLINE
  full_name: Crestline
  lata: '532'
  ilec_name: CRAW-KAN TEL. COOP.,INC. - KS
  lat: '37.17385'
  long: "-94.698667"
  closest_city:
    name: Crestline
    distance_km: 0.81
- country: US
  region: KS
  exchange: '332994'
  name: CROFT
  full_name: Croft
  lata: '532'
  ilec_name: HAVILAND TEL. CO., INC.
  lat:
  long:
- country: US
  region: KS
  exchange: '332995'
  name: CRYSTALSPG
  full_name: Crystal Springs
  lata: '532'
  ilec_name: SOUTHWESTERN BELL
  lat:
  long:
- country: US
  region: KS
  exchange: '062890'
  name: CUBA
  full_name: Cuba
  lata: '534'
  ilec_name: J.B.N. TEL. CO., INC.
  lat: '39.80268'
  long: "-97.459219"
  closest_city:
    name: Cuba
    distance_km: 0.14
- country: US
  region: KS
  exchange: '062900'
  name: CULLISON
  full_name: Cullison
  lata: '532'
  ilec_name: HAVILAND TEL. CO., INC.
  lat: '37.634808'
  long: "-98.89969"
  closest_city:
    name: Cullison
    distance_km: 0.71
- country: US
  region: KS
  exchange: '333447'
  name: CULVER
  full_name: Culver
  lata: '534'
  ilec_name: TWIN VALLEY TEL., INC.
  lat:
  long:
- country: US
  region: KS
  exchange: '330750'
  name: CUMMINGS
  full_name: Cummings
  lata: '524'
  ilec_name: UNITED TEL OF EASTERN KANSAS DBA CENTURYLINK
  lat:
  long:
- country: US
  region: KS
  exchange: '062910'
  name: CUNNINGHAM
  full_name: Cunningham
  lata: '532'
  ilec_name: UNITED TEL OF EASTERN KANSAS DBA CENTURYLINK
  lat: '37.651332'
  long: "-98.43383"
  closest_city:
    name: Cunningham
    distance_km: 0.77
- country: US
  region: KS
  exchange: '062920'
  name: DAMAR
  full_name: Damar
  lata: '534'
  ilec_name: RURAL TEL. SERVICE CO., INC. DBA NEX-TECH
  lat: '39.315024'
  long: "-99.582427"
  closest_city:
    name: Damar
    distance_km: 0.49
- country: US
  region: KS
  exchange: '332998'
  name: DANVILLE
  full_name: Danville
  lata: '532'
  ilec_name: KANOKLA TEL ASSN
  lat:
  long:
- country: US
  region: KS
  exchange: '062930'
  name: DE SOTO
  full_name: De Soto
  lata: '524'
  ilec_name: SOUTHWESTERN BELL
  lat: '38.972976'
  long: "-94.97616"
  closest_city:
    name: De Soto
    distance_km: 1.9
- country: US
  region: KS
  exchange: '06293E'
  name: DE SOTO METRO
  full_name: De Soto Metro
  lata: '524'
  ilec_name: SOUTHWESTERN BELL
  lat: '38.972976'
  long: "-94.97616"
  closest_city:
    name: De Soto
    distance_km: 1.9
- country: US
  region: KS
  exchange: '332999'
  name: DEARING
  full_name: Dearing
  lata: '532'
  ilec_name: SOUTHWESTERN BELL
  lat:
  long:
- country: US
  region: KS
  exchange: '062940'
  name: DEERFIELD
  full_name: Deerfield
  lata: '532'
  ilec_name: PIONEER TEL. ASSN., INC.
  lat: '37.983618'
  long: "-101.133137"
  closest_city:
    name: Deerfield
    distance_km: 0.19
- country: US
  region: KS
  exchange: '062950'
  name: DELAVAN
  full_name: Delavan
  lata: '534'
  ilec_name: TRI-COUNTY TEL. ASSN., INC.
  lat: '38.659505'
  long: "-96.804626"
  closest_city:
    name: Herington
    distance_km: 6.17
- country: US
  region: KS
  exchange: '062960'
  name: DELIA
  full_name: Delia
  lata: '534'
  ilec_name: UNITED TEL OF EASTERN KANSAS DBA CENTURYLINK
  lat: '39.250447'
  long: "-95.966572"
  closest_city:
    name: Delia
    distance_km: 1.23
- country: US
  region: KS
  exchange: '333451'
  name: DELLVALE
  full_name: Dellvale
  lata: '534'
  ilec_name: SOUTHWESTERN BELL
  lat:
  long:
- country: US
  region: KS
  exchange: '062970'
  name: DELPHOS
  full_name: Delphos
  lata: '534'
  ilec_name: TWIN VALLEY TEL., INC.
  lat: '39.274625'
  long: "-97.765832"
  closest_city:
    name: Delphos
    distance_km: 0.05
- country: US
  region: KS
  exchange: '062980'
  name: DENISON
  full_name: Denison
  lata: '534'
  ilec_name: UNITED TEL OF EASTERN KANSAS DBA CENTURYLINK
  lat: '39.392665'
  long: "-95.633594"
  closest_city:
    name: Denison
    distance_km: 0.46
- country: US
  region: KS
  exchange: '062990'
  name: DENMARK
  full_name: Denmark
  lata: '534'
  ilec_name: WILSON TEL. CO., INC.
  lat: '39.089339'
  long: "-98.283005"
  closest_city:
    name: Lincoln Center
    distance_km: 12.84
- country: US
  region: KS
  exchange: '333001'
  name: DENNIS
  full_name: Dennis
  lata: '532'
  ilec_name: SOUTHWESTERN BELL
  lat:
  long:
- country: US
  region: KS
  exchange: '333455'
  name: DENSMORE
  full_name: Densmore
  lata: '534'
  ilec_name: RURAL TEL. SERVICE CO., INC. DBA NEX-TECH
  lat:
  long:
- country: US
  region: KS
  exchange: '063000'
  name: DENTON
  full_name: Denton
  lata: '534'
  ilec_name: RAINBOW TELECOMMUNICATIONS ASSOCIATION, INC.
  lat: '39.724179'
  long: "-95.266042"
  closest_city:
    name: Denton
    distance_km: 0.92
- country: US
  region: KS
  exchange: '063010'
  name: DERBY
  full_name: Derby
  lata: '532'
  ilec_name: SOUTHWESTERN BELL
  lat: '37.549328'
  long: "-97.267412"
  closest_city:
    name: Derby
    distance_km: 1.39
- country: US
  region: KS
  exchange: '063020'
  name: DEVON
  full_name: Devon
  lata: '532'
  ilec_name: CRAW-KAN TEL. COOP.,INC. - KS
  lat: '37.916739'
  long: "-94.819676"
  closest_city:
    name: Devon
    distance_km: 0.74
- country: US
  region: KS
  exchange: '063030'
  name: DEXTER
  full_name: Dexter
  lata: '532'
  ilec_name: SOUTHERN KANSAS TEL. CO., INC.
  lat: '37.182321'
  long: "-96.719138"
  closest_city:
    name: Dexter
    distance_km: 0.42
- country: US
  region: KS
  exchange: '333457'
  name: DIAMONDSPG
  full_name: Diamond Springs
  lata: '534'
  ilec_name: TRI-COUNTY TEL. ASSN., INC.
  lat:
  long:
- country: US
  region: KS
  exchange: '063040'
  name: DIGHTON
  full_name: Dighton
  lata: '532'
  ilec_name: S & T TEL. COOP. ASSN.
  lat: '38.477199'
  long: "-100.460183"
  closest_city:
    name: Dighton
    distance_km: 0.68
- country: US
  region: KS
  exchange: '333006'
  name: DILLWYN
  full_name: Dillwyn
  lata: '532'
  ilec_name: UNITED TEL OF EASTERN KANSAS DBA CENTURYLINK
  lat:
  long:
- country: US
  region: KS
  exchange: '063050'
  name: DODGE CITY
  full_name: Dodge City
  lata: '532'
  ilec_name: SOUTHWESTERN BELL
  lat: '37.758376'
  long: "-100.014898"
  closest_city:
    name: Dodge City
    distance_km: 0.42
- country: US
  region: KS
  exchange: '333458'
  name: DONIPHAN
  full_name: Doniphan
  lata: '534'
  ilec_name: UNITED TEL. CO. OF KANSAS DBA CENTURYLINK
  lat:
  long:
- country: US
  region: KS
  exchange: '063060'
  name: DORRANCE
  full_name: Dorrance
  lata: '534'
  ilec_name: H & B COMMUNICATIONS, INC.
  lat: '38.849528'
  long: "-98.589944"
  closest_city:
    name: Dorrance
    distance_km: 0.29
- country: US
  region: KS
  exchange: '063070'
  name: DOUGLASS
  full_name: Douglass
  lata: '532'
  ilec_name: SOUTHWESTERN BELL
  lat: '37.516633'
  long: "-97.010126"
  closest_city:
    name: Douglass
    distance_km: 0.04
- country: US
  region: KS
  exchange: 06307E
  name: DOUGLASS METRO
  full_name: Douglass Metro
  lata: '532'
  ilec_name: SOUTHWESTERN BELL
  lat: '37.516633'
  long: "-97.010126"
  closest_city:
    name: Douglass
    distance_km: 0.04
- country: US
  region: KS
  exchange: '333460'
  name: DOVER
  full_name: Dover
  lata: '534'
  ilec_name: SOUTHWESTERN BELL
  lat:
  long:
- country: US
  region: KS
  exchange: '063080'
  name: DOWNS
  full_name: Downs
  lata: '534'
  ilec_name: RURAL TEL. SERVICE CO., INC. DBA NEX-TECH
  lat: '39.508537'
  long: "-98.53902"
  closest_city:
    name: Downs
    distance_km: 0.83
- country: US
  region: KS
  exchange: '333462'
  name: DRESDEN
  full_name: Dresden
  lata: '534'
  ilec_name: SOUTHWESTERN BELL
  lat:
  long:
- country: US
  region: KS
  exchange: '333463'
  name: DULUTH
  full_name: Duluth
  lata: '534'
  ilec_name: BLUE VALLEY TELE-COMMUNICATIONS, INC.
  lat:
  long:
- country: US
  region: KS
  exchange: '330752'
  name: DUNAVANT
  full_name: Dunavant
  lata: '524'
  ilec_name: UNITED TEL OF EASTERN KANSAS DBA CENTURYLINK
  lat:
  long:
- country: US
  region: KS
  exchange: '333009'
  name: DUNDEE
  full_name: Dundee
  lata: '532'
  ilec_name: SOUTHWESTERN BELL
  lat:
  long:
- country: US
  region: KS
  exchange: '063090'
  name: DUNLAP
  full_name: Dunlap
  lata: '532'
  ilec_name: TRI-COUNTY TEL. ASSN., INC.
  lat: '38.573983'
  long: "-96.367909"
  closest_city:
    name: Dunlap
    distance_km: 0.26
- country: US
  region: KS
  exchange: '333011'
  name: DUQUOIN
  full_name: Duquoin
  lata: '532'
  ilec_name: SOUTHWESTERN BELL
  lat:
  long:
- country: US
  region: KS
  exchange: '063100'
  name: DURHAM
  full_name: Durham
  lata: '532'
  ilec_name: UNITED TEL OF EASTERN KANSAS DBA CENTURYLINK
  lat: '38.482062'
  long: "-97.236174"
  closest_city:
    name: Durham
    distance_km: 0.86
- country: US
  region: KS
  exchange: '063110'
  name: DWIGHT
  full_name: Dwight
  lata: '534'
  ilec_name: TRI-COUNTY TEL. ASSN., INC.
  lat: '38.848661'
  long: "-96.599009"
  closest_city:
    name: Dwight
    distance_km: 0.73
- country: US
  region: KS
  exchange: '333013'
  name: EARLTON
  full_name: Earlton
  lata: '532'
  ilec_name: UNITED TEL OF EASTERN KANSAS DBA CENTURYLINK
  lat:
  long:
- country: US
  region: KS
  exchange: '333030'
  name: ESTBOROUGH
  full_name: Eastborough
  lata: '532'
  ilec_name: SOUTHWESTERN BELL
  lat:
  long:
- country: US
  region: KS
  exchange: '063120'
  name: EASTON
  full_name: Easton
  lata: '524'
  ilec_name: UNITED TEL OF EASTERN KANSAS DBA CENTURYLINK
  lat: '39.341695'
  long: "-95.114519"
  closest_city:
    name: Easton
    distance_km: 0.49
- country: US
  region: KS
  exchange: '063130'
  name: EDGERTON
  full_name: Edgerton
  lata: '524'
  ilec_name: UNITED TEL OF EASTERN KANSAS DBA CENTURYLINK
  lat: '38.765744'
  long: "-95.019032"
  closest_city:
    name: Edgerton
    distance_km: 4.25
- country: US
  region: KS
  exchange: 06313E
  name: EDGERTON METRO
  full_name: Edgerton Metro
  lata: '524'
  ilec_name: UNITED TEL OF EASTERN KANSAS DBA CENTURYLINK
  lat: '38.765744'
  long: "-95.019032"
  closest_city:
    name: Edgerton
    distance_km: 4.25
- country: US
  region: KS
  exchange: '063140'
  name: EDMOND
  full_name: Edmond
  lata: '534'
  ilec_name: RURAL TEL. SERVICE CO., INC. DBA NEX-TECH
  lat: '39.623613'
  long: "-99.815585"
  closest_city:
    name: Edmond
    distance_km: 0.54
- country: US
  region: KS
  exchange: '063150'
  name: EDNA
  full_name: Edna
  lata: '532'
  ilec_name: CRAW-KAN TEL. COOP.,INC. - KS
  lat: '37.058943'
  long: "-95.359313"
  closest_city:
    name: Edna
    distance_km: 0.03
- country: US
  region: KS
  exchange: '333466'
  name: EDSON
  full_name: Edson
  lata: '534'
  ilec_name: SOUTHWESTERN BELL
  lat:
  long:
- country: US
  region: KS
  exchange: '330755'
  name: EDWARDSVL
  full_name: Edwardsville
  lata: '524'
  ilec_name: SOUTHWESTERN BELL
  lat:
  long:
- country: US
  region: KS
  exchange: '063160'
  name: EFFINGHAM
  full_name: Effingham
  lata: '524'
  ilec_name: UNITED TEL OF EASTERN KANSAS DBA CENTURYLINK
  lat: '39.516552'
  long: "-95.399011"
  closest_city:
    name: Effingham
    distance_km: 0.72
- country: US
  region: KS
  exchange: '063170'
  name: EL DORADO
  full_name: El Dorado
  lata: '532'
  ilec_name: SOUTHWESTERN BELL
  lat: '37.817237'
  long: "-96.858085"
  closest_city:
    name: El Dorado
    distance_km: 0.5
- country: US
  region: KS
  exchange: 06317E
  name: EL DORADO METRO
  full_name: El Dorado Metro
  lata: '532'
  ilec_name: SOUTHWESTERN BELL
  lat: '37.817237'
  long: "-96.858085"
  closest_city:
    name: El Dorado
    distance_km: 0.5
- country: US
  region: KS
  exchange: '333016'
  name: ELBING
  full_name: Elbing
  lata: '532'
  ilec_name: SOUTHWESTERN BELL
  lat:
  long:
- country: US
  region: KS
  exchange: '063180'
  name: ELGIN
  full_name: Elgin
  lata: '532'
  ilec_name: TOTAH COMMUNICATIONS, INC.
  lat: '37.006088'
  long: "-96.275492"
  closest_city:
    name: Elgin
    distance_km: 0.65
- country: US
  region: KS
  exchange: '063190'
  name: ELK CITY
  full_name: Elk City
  lata: '532'
  ilec_name: TOTAH COMMUNICATIONS, INC.
  lat: '37.290728'
  long: "-95.911191"
  closest_city:
    name: Elk City
    distance_km: 0.17
- country: US
  region: KS
  exchange: '063200'
  name: ELK FALLS
  full_name: Elk Falls
  lata: '532'
  ilec_name: SOUTHERN KANSAS TEL. CO., INC.
  lat: '37.374264'
  long: "-96.192112"
  closest_city:
    name: Elk Falls
    distance_km: 0.16
- country: US
  region: KS
  exchange: '333020'
  name: ELKADER
  full_name: Elkader
  lata: '532'
  ilec_name: SOUTHWESTERN BELL
  lat:
  long:
- country: US
  region: KS
  exchange: '063210'
  name: ELKHART
  full_name: Elkhart
  lata: '532'
  ilec_name: ELKHART TEL. CO., INC.
  lat: '37.00105'
  long: "-101.901299"
  closest_city:
    name: Elkhart
    distance_km: 0.68
- country: US
  region: KS
  exchange: '063220'
  name: ELLINWOOD
  full_name: Ellinwood
  lata: '532'
  ilec_name: UNITED TEL. CO. OF KANSAS DBA CENTURYLINK
  lat: '38.359723'
  long: "-98.576978"
  closest_city:
    name: Ellinwood
    distance_km: 0.64
- country: US
  region: KS
  exchange: '063230'
  name: ELLIS
  full_name: Ellis
  lata: '534'
  ilec_name: GOLDEN BELT TEL. ASSN., INC.
  lat: '38.932194'
  long: "-99.55596"
  closest_city:
    name: Ellis
    distance_km: 0.28
- country: US
  region: KS
  exchange: '063240'
  name: ELLSWORTH
  full_name: Ellsworth
  lata: '534'
  ilec_name: SOUTHWESTERN BELL
  lat: '38.731404'
  long: "-98.232387"
  closest_city:
    name: Ellsworth
    distance_km: 0.37
- country: US
  region: KS
  exchange: '333023'
  name: ELMDALE
  full_name: Elmdale
  lata: '532'
  ilec_name: SOUTHWESTERN BELL
  lat:
  long:
- country: US
  region: KS
  exchange: '333469'
  name: ELMO
  full_name: Elmo
  lata: '534'
  ilec_name: TRI-COUNTY TEL. ASSN., INC.
  lat:
  long:
- country: US
  region: KS
  exchange: '333470'
  name: ELMONT
  full_name: Elmont
  lata: '534'
  ilec_name: SOUTHWESTERN BELL
  lat:
  long:
- country: US
  region: KS
  exchange: '333024'
  name: ELSMORE
  full_name: Elsmore
  lata: '532'
  ilec_name: CRAW-KAN TEL. COOP.,INC. - KS
  lat:
  long:
- country: US
  region: KS
  exchange: '063250'
  name: ELWOOD
  full_name: Elwood
  lata: '524'
  ilec_name: SOUTHWESTERN BELL
  lat: '39.758588'
  long: "-94.884307"
  closest_city:
    name: Elwood
    distance_km: 0.84
- country: US
  region: KS
  exchange: '333025'
  name: ELYRIA
  full_name: Elyria
  lata: '532'
  ilec_name: SOUTHWESTERN BELL
  lat:
  long:
- country: US
  region: KS
  exchange: '063260'
  name: EMMETT
  full_name: Emmett
  lata: '534'
  ilec_name: UNITED TEL OF EASTERN KANSAS DBA CENTURYLINK
  lat: '39.308011'
  long: "-96.051204"
  closest_city:
    name: Emmett
    distance_km: 0.58
- country: US
  region: KS
  exchange: '063270'
  name: EMPORIA
  full_name: Emporia
  lata: '532'
  ilec_name: SOUTHWESTERN BELL
  lat: '38.398061'
  long: "-96.181425"
  closest_city:
    name: Emporia
    distance_km: 1.15
- country: US
  region: KS
  exchange: '063280'
  name: ENGLEWOOD
  full_name: Englewood
  lata: '532'
  ilec_name: UNITED TEL. ASSN., INC.
  lat: '37.034265'
  long: "-99.98341"
  closest_city:
    name: Englewood
    distance_km: 0.79
- country: US
  region: KS
  exchange: '063290'
  name: ENSIGN
  full_name: Ensign
  lata: '532'
  ilec_name: UNITED TEL. ASSN., INC.
  lat: '37.651463'
  long: "-100.223756"
  closest_city:
    name: Ensign
    distance_km: 0.83
- country: US
  region: KS
  exchange: '333472'
  name: ENTERPRISE
  full_name: Enterprise
  lata: '534'
  ilec_name: SOUTHWESTERN BELL
  lat:
  long:
- country: US
  region: KS
  exchange: '063300'
  name: ERIE
  full_name: Erie
  lata: '532'
  ilec_name: SOUTHWESTERN BELL
  lat: '37.566892'
  long: "-95.240555"
  closest_city:
    name: Erie
    distance_km: 0.55
- country: US
  region: KS
  exchange: '063310'
  name: ESBON
  full_name: Esbon
  lata: '534'
  ilec_name: RURAL TEL. SERVICE CO., INC. DBA NEX-TECH
  lat: '39.824308'
  long: "-98.433823"
  closest_city:
    name: Esbon
    distance_km: 0.27
- country: US
  region: KS
  exchange: '063320'
  name: ESKRIDGE
  full_name: Eskridge
  lata: '534'
  ilec_name: UNITED TEL. CO. OF KANSAS DBA CENTURYLINK
  lat: '38.860745'
  long: "-96.109519"
  closest_city:
    name: Eskridge
    distance_km: 0.42
- country: US
  region: KS
  exchange: '063330'
  name: EUDORA
  full_name: Eudora
  lata: '534'
  ilec_name: SOUTHWESTERN BELL
  lat: '38.944317'
  long: "-95.100725"
  closest_city:
    name: Eudora
    distance_km: 1.18
- country: US
  region: KS
  exchange: '063340'
  name: EUREKA
  full_name: Eureka
  lata: '532'
  ilec_name: SOUTHWESTERN BELL
  lat: '37.822977'
  long: "-96.291721"
  closest_city:
    name: Eureka
    distance_km: 0.42
- country: US
  region: KS
  exchange: '063350'
  name: EVEREST
  full_name: Everest
  lata: '534'
  ilec_name: RAINBOW TELECOMMUNICATIONS ASSOCIATION, INC.
  lat: '39.675049'
  long: "-95.422245"
  closest_city:
    name: Everest
    distance_km: 0.31
- country: US
  region: KS
  exchange: '333477'
  name: FAIRPORT
  full_name: Fairport
  lata: '534'
  ilec_name: RURAL TEL. SERVICE CO., INC. DBA NEX-TECH
  lat:
  long:
- country: US
  region: KS
  exchange: '063360'
  name: FAIRVIEW
  full_name: Fairview
  lata: '534'
  ilec_name: J.B.N. TEL. CO., INC.
  lat: '39.839915'
  long: "-95.726805"
  closest_city:
    name: Fairview
    distance_km: 0.12
- country: US
  region: KS
  exchange: '330758'
  name: FAIRWAY
  full_name: Fairway
  lata: '524'
  ilec_name: SOUTHWESTERN BELL
  lat:
  long:
- country: US
  region: KS
  exchange: '063370'
  name: FALL RIVER
  full_name: Fall River
  lata: '532'
  ilec_name: UNITED TEL OF EASTERN KANSAS DBA CENTURYLINK
  lat: '37.610038'
  long: "-96.026343"
  closest_city:
    name: Fall River
    distance_km: 0.32
- country: US
  region: KS
  exchange: '333479'
  name: FALUN
  full_name: Falun
  lata: '534'
  ilec_name: HOME TEL. CO., INC.
  lat:
  long:
- country: US
  region: KS
  exchange: '333480'
  name: FANNING
  full_name: Fanning
  lata: '534'
  ilec_name: UNITED TEL. CO. OF KANSAS DBA CENTURYLINK
  lat:
  long:
- country: US
  region: KS
  exchange: '063380'
  name: FARLINGTON
  full_name: Farlington
  lata: '532'
  ilec_name: CRAW-KAN TEL. COOP.,INC. - KS
  lat: '37.617728'
  long: "-94.82993"
  closest_city:
    name: Farlington
    distance_km: 0.69
- country: US
  region: KS
  exchange: '330759'
  name: FARLINVL
  full_name: Farlinville
  lata: '524'
  ilec_name: UNITED TEL OF EASTERN KANSAS DBA CENTURYLINK
  lat:
  long:
- country: US
  region: KS
  exchange: '333034'
  name: FAULKNER
  full_name: Faulkner
  lata: '532'
  ilec_name: CRAW-KAN TEL. COOP.,INC. - KS
  lat:
  long:
- country: US
  region: KS
  exchange: '063390'
  name: FLORENCE
  full_name: Florence
  lata: '532'
  ilec_name: SOUTHWESTERN BELL
  lat: '38.242907'
  long: "-96.923529"
  closest_city:
    name: Florence
    distance_km: 0.47
- country: US
  region: KS
  exchange: '333481'
  name: FLUSH
  full_name: Flush
  lata: '534'
  ilec_name: WAMEGO TEL. CO., INC.
  lat:
  long:
- country: US
  region: KS
  exchange: '063400'
  name: FONTANA
  full_name: Fontana
  lata: '524'
  ilec_name: UNITED TEL OF EASTERN KANSAS DBA CENTURYLINK
  lat: '38.4236'
  long: "-94.842193"
  closest_city:
    name: Fontana
    distance_km: 0.17
- country: US
  region: KS
  exchange: '063410'
  name: FORD
  full_name: Ford
  lata: '532'
  ilec_name: UNITED TEL. ASSN., INC.
  lat: '37.63226'
  long: "-99.752463"
  closest_city:
    name: Ford
    distance_km: 0.5
- country: US
  region: KS
  exchange: '063420'
  name: FORMOSO
  full_name: Formoso
  lata: '534'
  ilec_name: CUNNINGHAM TEL. CO., INC.
  lat: '39.775959'
  long: "-97.99147"
  closest_city:
    name: Formoso
    distance_km: 0.29
- country: US
  region: KS
  exchange: '333037'
  name: FORT DODGE
  full_name: Fort Dodge
  lata: '532'
  ilec_name: SOUTHWESTERN BELL
  lat:
  long:
- country: US
  region: KS
  exchange: '330761'
  name: FTLEAVEWTH
  full_name: Fort Leavenworth
  lata: '524'
  ilec_name: SOUTHWESTERN BELL
  lat:
  long:
- country: US
  region: KS
  exchange: '333485'
  name: FT RILEY
  full_name: Fort Riley
  lata: '534'
  ilec_name: UNITED TEL. CO. OF KANSAS DBA CENTURYLINK
  lat:
  long:
- country: US
  region: KS
  exchange: '063430'
  name: FORT SCOTT
  full_name: Fort Scott
  lata: '532'
  ilec_name: SOUTHWESTERN BELL
  lat: '37.841203'
  long: "-94.702695"
  closest_city:
    name: Fort Scott
    distance_km: 1.44
- country: US
  region: KS
  exchange: '333483'
  name: FOSTORIA
  full_name: Fostoria
  lata: '534'
  ilec_name: BLUE VALLEY TELE-COMMUNICATIONS, INC.
  lat:
  long:
- country: US
  region: KS
  exchange: '063440'
  name: FOWLER
  full_name: Fowler
  lata: '532'
  ilec_name: SOUTHWESTERN BELL
  lat: '37.382995'
  long: "-100.198241"
  closest_city:
    name: Fowler
    distance_km: 0.22
- country: US
  region: KS
  exchange: '063450'
  name: FRANKFORT
  full_name: Frankfort
  lata: '534'
  ilec_name: SOUTHWESTERN BELL
  lat: '39.700222'
  long: "-96.414363"
  closest_city:
    name: Frankfort
    distance_km: 0.46
- country: US
  region: KS
  exchange: '333040'
  name: FRANKLIN
  full_name: Franklin
  lata: '532'
  ilec_name: SOUTHWESTERN BELL
  lat:
  long:
- country: US
  region: KS
  exchange: '063460'
  name: FREDONIA
  full_name: Fredonia
  lata: '532'
  ilec_name: UNITED TEL. CO. OF KANSAS DBA CENTURYLINK
  lat: '37.532188'
  long: "-95.822879"
  closest_city:
    name: Fredonia
    distance_km: 0.1
- country: US
  region: KS
  exchange: '063470'
  name: FREEPORT
  full_name: Freeport
  lata: '532'
  ilec_name: KANOKLA TEL ASSN
  lat: '37.199831'
  long: "-97.86129"
  closest_city:
    name: Danville
    distance_km: 9.96
- country: US
  region: KS
  exchange: '333043'
  name: FRIEND
  full_name: Friend
  lata: '532'
  ilec_name: SOUTHWESTERN BELL
  lat:
  long:
- country: US
  region: KS
  exchange: '333044'
  name: FRIZELL
  full_name: Frizell
  lata: '532'
  ilec_name: SOUTHWESTERN BELL
  lat:
  long:
- country: US
  region: KS
  exchange: '333045'
  name: FRONTENAC
  full_name: Frontenac
  lata: '532'
  ilec_name: SOUTHWESTERN BELL
  lat:
  long:
- country: US
  region: KS
  exchange: '063480'
  name: FULTON
  full_name: Fulton
  lata: '532'
  ilec_name: CRAW-KAN TEL. COOP.,INC. - KS
  lat: '38.008364'
  long: "-94.719328"
  closest_city:
    name: Fulton
    distance_km: 0.16
- country: US
  region: KS
  exchange: '333047'
  name: FURLEY
  full_name: Furley
  lata: '532'
  ilec_name: SOUTHWESTERN BELL
  lat:
  long:
- country: US
  region: KS
  exchange: '063490'
  name: GALATIA
  full_name: Galatia
  lata: '532'
  ilec_name: RURAL TEL. SERVICE CO., INC. DBA NEX-TECH
  lat: '38.643142'
  long: "-98.959838"
  closest_city:
    name: Galatia
    distance_km: 0.29
- country: US
  region: KS
  exchange: '063500'
  name: GALENA
  full_name: Galena
  lata: '532'
  ilec_name: EMBARQ MISSOURI, INC. DBA CENTURYLINK - KS
  lat: '37.073398'
  long: "-94.627588"
  closest_city:
    name: Galena
    distance_km: 0.72
- country: US
  region: KS
  exchange: '063510'
  name: GALESBURG
  full_name: Galesburg
  lata: '532'
  ilec_name: CRAW-KAN TEL. COOP.,INC. - KS
  lat: '37.475942'
  long: "-95.357823"
  closest_city:
    name: Galesburg
    distance_km: 0.45
- country: US
  region: KS
  exchange: '063520'
  name: GALVA
  full_name: Galva
  lata: '532'
  ilec_name: HOME TEL. CO., INC.
  lat: '38.384284'
  long: "-97.543356"
  closest_city:
    name: Galva
    distance_km: 0.46
- country: US
  region: KS
  exchange: '063530'
  name: GARDENCITY
  full_name: Garden City
  lata: '532'
  ilec_name: SOUTHWESTERN BELL
  lat: '37.974367'
  long: "-100.872434"
  closest_city:
    name: Garden City
    distance_km: 1.73
- country: US
  region: KS
  exchange: '063540'
  name: GARDEN PL
  full_name: Garden Plain
  lata: '532'
  ilec_name: SOUTHWESTERN BELL
  lat: '37.657307'
  long: "-97.686253"
  closest_city:
    name: Garden Plain
    distance_km: 0.86
- country: US
  region: KS
  exchange: 06354E
  name: GARDEN PLAIN METRO
  full_name: Garden Plain Metro
  lata: '532'
  ilec_name: SOUTHWESTERN BELL
  lat: '37.657307'
  long: "-97.686253"
  closest_city:
    name: Garden Plain
    distance_km: 0.86
- country: US
  region: KS
  exchange: '063550'
  name: GARDNER
  full_name: Gardner
  lata: '524'
  ilec_name: UNITED TEL OF EASTERN KANSAS DBA CENTURYLINK
  lat: '38.809518'
  long: "-94.924802"
  closest_city:
    name: Gardner
    distance_km: 0.38
- country: US
  region: KS
  exchange: 06355E
  name: GARDNER METRO
  full_name: Gardner Metro
  lata: '524'
  ilec_name: UNITED TEL OF EASTERN KANSAS DBA CENTURYLINK
  lat: '38.809518'
  long: "-94.924802"
  closest_city:
    name: Gardner
    distance_km: 0.38
- country: US
  region: KS
  exchange: '063560'
  name: GARFIELD
  full_name: Garfield
  lata: '532'
  ilec_name: GOLDEN BELT TEL. ASSN., INC.
  lat: '38.074365'
  long: "-99.243062"
  closest_city:
    name: Garfield
    distance_km: 0.32
- country: US
  region: KS
  exchange: '333055'
  name: GARLAND
  full_name: Garland
  lata: '532'
  ilec_name: SOUTHWESTERN BELL
  lat:
  long:
- country: US
  region: KS
  exchange: '063570'
  name: GARNETT
  full_name: Garnett
  lata: '534'
  ilec_name: UNITED TEL. CO. OF KANSAS DBA CENTURYLINK
  lat: '38.282246'
  long: "-95.242668"
  closest_city:
    name: Garnett
    distance_km: 0.3
- country: US
  region: KS
  exchange: '333056'
  name: GAS
  full_name: Gas
  lata: '532'
  ilec_name: SOUTHWESTERN BELL
  lat:
  long:
- country: US
  region: KS
  exchange: '063580'
  name: GAYLORD
  full_name: Gaylord
  lata: '534'
  ilec_name: RURAL TEL. SERVICE CO., INC. DBA NEX-TECH
  lat: '39.648829'
  long: "-98.845284"
  closest_city:
    name: Gaylord
    distance_km: 0.33
- country: US
  region: KS
  exchange: '333488'
  name: GEM
  full_name: Gem
  lata: '534'
  ilec_name: SOUTHWESTERN BELL
  lat:
  long:
- country: US
  region: KS
  exchange: '063590'
  name: GENESEO
  full_name: Geneseo
  lata: '532'
  ilec_name: HOME TEL. CO., INC.
  lat: '38.514623'
  long: "-98.156813"
  closest_city:
    name: Geneseo
    distance_km: 0.33
- country: US
  region: KS
  exchange: '063600'
  name: GEUDA SPG
  full_name: Geuda Springs
  lata: '532'
  ilec_name: KANOKLA TEL ASSN
  lat: '37.116939'
  long: "-97.148364"
  closest_city:
    name: Geuda Springs
    distance_km: 0.64
- country: US
  region: KS
  exchange: '063610'
  name: GIRARD
  full_name: Girard
  lata: '532'
  ilec_name: CRAW-KAN TEL. COOP.,INC. - KS
  lat: '37.508951'
  long: "-94.850789"
  closest_city:
    name: Girard
    distance_km: 0.46
- country: US
  region: KS
  exchange: '333489'
  name: GLADE
  full_name: Glade
  lata: '534'
  ilec_name: SOUTHWESTERN BELL
  lat:
  long:
- country: US
  region: KS
  exchange: '063620'
  name: GLASCO
  full_name: Glasco
  lata: '534'
  ilec_name: TWIN VALLEY TEL., INC.
  lat: '39.359341'
  long: "-97.831269"
  closest_city:
    name: Glasco
    distance_km: 0.54
- country: US
  region: KS
  exchange: '063630'
  name: GLEN ELDER
  full_name: Glen Elder
  lata: '534'
  ilec_name: CUNNINGHAM TEL. CO., INC.
  lat: '39.499054'
  long: "-98.30847"
  closest_city:
    name: Glen Elder
    distance_km: 0.2
- country: US
  region: KS
  exchange: '333492'
  name: GLOBE
  full_name: Globe
  lata: '534'
  ilec_name: UNITED TEL OF EASTERN KANSAS DBA CENTURYLINK
  lat:
  long:
- country: US
  region: KS
  exchange: '063640'
  name: GODDARD
  full_name: Goddard
  lata: '532'
  ilec_name: SOUTHWESTERN BELL
  lat: '37.656919'
  long: "-97.574535"
  closest_city:
    name: Goddard
    distance_km: 1.46
- country: US
  region: KS
  exchange: '063650'
  name: GOESSEL
  full_name: Goessel
  lata: '532'
  ilec_name: MOUNDRIDGE TEL. CO.
  lat: '38.248941'
  long: "-97.36643"
  closest_city:
    name: Goessel
    distance_km: 1.85
- country: US
  region: KS
  exchange: '063660'
  name: GOFF
  full_name: Goff
  lata: '534'
  ilec_name: J.B.N. TEL. CO., INC.
  lat: '39.666976'
  long: "-95.936335"
  closest_city:
    name: Goff
    distance_km: 0.51
- country: US
  region: KS
  exchange: '063670'
  name: GOODLAND
  full_name: Goodland
  lata: '534'
  ilec_name: SOUTHWESTERN BELL
  lat: '39.34078'
  long: "-101.707264"
  closest_city:
    name: Goodland
    distance_km: 1.09
- country: US
  region: KS
  exchange: '330763'
  name: GOODRICH
  full_name: Goodrich
  lata: '524'
  ilec_name: UNITED TEL OF EASTERN KANSAS DBA CENTURYLINK
  lat:
  long:
- country: US
  region: KS
  exchange: '333062'
  name: GORDON
  full_name: Gordon
  lata: '532'
  ilec_name: SOUTHWESTERN BELL
  lat:
  long:
- country: US
  region: KS
  exchange: '063680'
  name: GORHAM
  full_name: Gorham
  lata: '534'
  ilec_name: GORHAM TEL. CO., INC.
  lat: '38.885353'
  long: "-99.025516"
  closest_city:
    name: Gorham
    distance_km: 0.55
- country: US
  region: KS
  exchange: '063690'
  name: GOVE
  full_name: Gove
  lata: '534'
  ilec_name: RURAL TEL. SERVICE CO., INC. DBA NEX-TECH
  lat: '38.956258'
  long: "-100.484634"
  closest_city:
    name: Gove City
    distance_km: 0.42
- country: US
  region: KS
  exchange: '063700'
  name: GRAINFIELD
  full_name: Grainfield
  lata: '534'
  ilec_name: RURAL TEL. SERVICE CO., INC. DBA NEX-TECH
  lat: '39.118412'
  long: "-100.466678"
  closest_city:
    name: Grainfield
    distance_km: 0.48
- country: US
  region: KS
  exchange: '333498'
  name: GRANTVILLE
  full_name: Grantville
  lata: '534'
  ilec_name: SOUTHWESTERN BELL
  lat:
  long:
- country: US
  region: KS
  exchange: '333063'
  name: GRAY
  full_name: Gray
  lata: '532'
  ilec_name: GOLDEN BELT TEL. ASSN., INC.
  lat:
  long:
- country: US
  region: KS
  exchange: '063710'
  name: GREAT BEND
  full_name: Great Bend
  lata: '532'
  ilec_name: SOUTHWESTERN BELL
  lat: '38.36751'
  long: "-98.766966"
  closest_city:
    name: Great Bend
    distance_km: 3.15
- country: US
  region: KS
  exchange: '063720'
  name: GREELEY
  full_name: Greeley
  lata: '534'
  ilec_name: UNITED TEL OF EASTERN KANSAS DBA CENTURYLINK
  lat: '38.366351'
  long: "-95.133895"
  closest_city:
    name: Greeley
    distance_km: 0.6
- country: US
  region: KS
  exchange: '063730'
  name: GREEN
  full_name: Green
  lata: '534'
  ilec_name: TWIN VALLEY TEL., INC.
  lat: '39.425728'
  long: "-97.000433"
  closest_city:
    name: Green
    distance_km: 0.49
- country: US
  region: KS
  exchange: '063740'
  name: GREENLEAF
  full_name: Greenleaf
  lata: '534'
  ilec_name: TWIN VALLEY TEL., INC.
  lat: '39.725641'
  long: "-96.985765"
  closest_city:
    name: Greenleaf
    distance_km: 0.53
- country: US
  region: KS
  exchange: '063750'
  name: GREENSBURG
  full_name: Greensburg
  lata: '532'
  ilec_name: SOUTHWESTERN BELL
  lat: '37.608385'
  long: "-99.288872"
  closest_city:
    name: Greensburg
    distance_km: 0.39
- country: US
  region: KS
  exchange: '333066'
  name: GREENWICH
  full_name: Greenwich
  lata: '532'
  ilec_name: SOUTHWESTERN BELL
  lat:
  long:
- country: US
  region: KS
  exchange: '063760'
  name: GRENOLA
  full_name: Grenola
  lata: '532'
  ilec_name: SOUTHERN KANSAS TEL. CO., INC.
  lat: '37.348623'
  long: "-96.448183"
  closest_city:
    name: Grenola
    distance_km: 0.25
- country: US
  region: KS
  exchange: '063770'
  name: GRIDLEY
  full_name: Gridley
  lata: '532'
  ilec_name: UNITED TEL OF EASTERN KANSAS DBA CENTURYLINK
  lat: '38.099433'
  long: "-95.883532"
  closest_city:
    name: Gridley
    distance_km: 0.16
- country: US
  region: KS
  exchange: '063780'
  name: GRINNELL
  full_name: Grinnell
  lata: '534'
  ilec_name: S & T TEL. COOP. ASSN.
  lat: '39.125539'
  long: "-100.632656"
  closest_city:
    name: Grinnell
    distance_km: 0.18
- country: US
  region: KS
  exchange: '333069'
  name: GROSS
  full_name: Gross
  lata: '532'
  ilec_name: CRAW-KAN TEL. COOP.,INC. - KS
  lat:
  long:
- country: US
  region: KS
  exchange: '333503'
  name: GROVE
  full_name: Grove
  lata: '534'
  ilec_name: UNITED TEL OF EASTERN KANSAS DBA CENTURYLINK
  lat:
  long:
- country: US
  region: KS
  exchange: '333070'
  name: GROVELAND
  full_name: Groveland
  lata: '532'
  ilec_name: UNITED TEL OF EASTERN KANSAS DBA CENTURYLINK
  lat:
  long:
- country: US
  region: KS
  exchange: '063790'
  name: GYPSUM
  full_name: Gypsum
  lata: '534'
  ilec_name: SOUTHWESTERN BELL
  lat: '38.706104'
  long: "-97.425527"
  closest_city:
    name: Gypsum
    distance_km: 0.1
- country: US
  region: KS
  exchange: '063800'
  name: HADDAM
  full_name: Haddam
  lata: '534'
  ilec_name: J.B.N. TEL. CO., INC.
  lat: '39.858855'
  long: "-97.301997"
  closest_city:
    name: Haddam
    distance_km: 0.45
- country: US
  region: KS
  exchange: '333071'
  name: HAGGARD
  full_name: Haggard
  lata: '532'
  ilec_name: UNITED TEL. ASSN., INC.
  lat:
  long:
- country: US
  region: KS
  exchange: '333506'
  name: HALFORD
  full_name: Halford
  lata: '534'
  ilec_name: SOUTHWESTERN BELL
  lat:
  long:
- country: US
  region: KS
  exchange: '063810'
  name: HALLOWELL
  full_name: Hallowell
  lata: '532'
  ilec_name: CRAW-KAN TEL. COOP.,INC. - KS
  lat: '37.176475'
  long: "-94.997506"
  closest_city:
    name: Hallowell
    distance_km: 0.58
- country: US
  region: KS
  exchange: '333073'
  name: HALLSSUMMT
  full_name: Halls Summit
  lata: '532'
  ilec_name: UNITED TEL OF EASTERN KANSAS DBA CENTURYLINK
  lat:
  long:
- country: US
  region: KS
  exchange: '063820'
  name: HALSTEAD
  full_name: Halstead
  lata: '532'
  ilec_name: SOUTHWESTERN BELL
  lat: '38.008758'
  long: "-97.50555"
  closest_city:
    name: Halstead
    distance_km: 1.07
- country: US
  region: KS
  exchange: '06382E'
  name: HALSTEAD METRO
  full_name: Halstead Metro
  lata: '532'
  ilec_name: SOUTHWESTERN BELL
  lat: '38.008758'
  long: "-97.50555"
  closest_city:
    name: Halstead
    distance_km: 1.07
- country: US
  region: KS
  exchange: '063830'
  name: HAMILTON
  full_name: Hamilton
  lata: '532'
  ilec_name: SOUTHWESTERN BELL
  lat: '37.981857'
  long: "-96.16536"
  closest_city:
    name: Hamilton
    distance_km: 0.2
- country: US
  region: KS
  exchange: '333507'
  name: HAMLIN
  full_name: Hamlin
  lata: '534'
  ilec_name: UNITED TEL. CO. OF KANSAS DBA CENTURYLINK
  lat:
  long:
- country: US
  region: KS
  exchange: '333076'
  name: HAMMOND
  full_name: Hammond
  lata: '532'
  ilec_name: CRAW-KAN TEL. COOP.,INC. - KS
  lat:
  long:
- country: US
  region: KS
  exchange: '333508'
  name: HANOVER
  full_name: Hanover
  lata: '534'
  ilec_name: SOUTHWESTERN BELL
  lat:
  long:
- country: US
  region: KS
  exchange: '063840'
  name: HANOVRHNBG
  full_name: Hanover-Hollenberg
  lata: '534'
  ilec_name: SOUTHWESTERN BELL
  lat: '39.89043'
  long: "-96.87411"
  closest_city:
    name: Hanover
    distance_km: 0.35
- country: US
  region: KS
  exchange: '063850'
  name: HANSTON
  full_name: Hanston
  lata: '532'
  ilec_name: UNITED TEL. ASSN., INC.
  lat: '38.123301'
  long: "-99.710434"
  closest_city:
    name: Hanston
    distance_km: 0.2
- country: US
  region: KS
  exchange: '063860'
  name: HARDTNER
  full_name: Hardtner
  lata: '532'
  ilec_name: KANOKLA TEL ASSN
  lat: '37.018465'
  long: "-98.650257"
  closest_city:
    name: Hardtner
    distance_km: 0.46
- country: US
  region: KS
  exchange: '333510'
  name: HARLAN
  full_name: Harlan
  lata: '534'
  ilec_name: RURAL TEL. SERVICE CO., INC. DBA NEX-TECH
  lat:
  long:
- country: US
  region: KS
  exchange: '063870'
  name: HARPER
  full_name: Harper
  lata: '532'
  ilec_name: SOUTHWESTERN BELL
  lat: '37.29153'
  long: "-98.026553"
  closest_city:
    name: Harper
    distance_km: 0.72
- country: US
  region: KS
  exchange: '333511'
  name: HARRIS
  full_name: Harris
  lata: '534'
  ilec_name: UNITED TEL. CO. OF KANSAS DBA CENTURYLINK
  lat:
  long:
- country: US
  region: KS
  exchange: '063880'
  name: HARTFORD
  full_name: Hartford
  lata: '532'
  ilec_name: SOUTHWESTERN BELL
  lat: '38.309113'
  long: "-95.956292"
  closest_city:
    name: Hartford
    distance_km: 0.08
- country: US
  region: KS
  exchange: '063890'
  name: HARVEYVL
  full_name: Harveyville
  lata: '534'
  ilec_name: UNITED TEL OF EASTERN KANSAS DBA CENTURYLINK
  lat: '38.794035'
  long: "-95.966604"
  closest_city:
    name: Harveyville
    distance_km: 0.61
- country: US
  region: KS
  exchange: '063900'
  name: HAVANA
  full_name: Havana
  lata: '532'
  ilec_name: TOTAH COMMUNICATIONS, INC.
  lat: '37.100178'
  long: "-95.941492"
  closest_city:
    name: Havana
    distance_km: 0.9
- country: US
  region: KS
  exchange: '063910'
  name: HAVEN
  full_name: Haven
  lata: '532'
  ilec_name: UNITED TEL. CO. OF KANSAS DBA CENTURYLINK
  lat: '37.907816'
  long: "-97.786637"
  closest_city:
    name: Haven
    distance_km: 0.76
- country: US
  region: KS
  exchange: '063920'
  name: HAVENSVL
  full_name: Havensville
  lata: '534'
  ilec_name: J.B.N. TEL. CO., INC.
  lat: '39.499122'
  long: "-96.084092"
  closest_city:
    name: Havensville
    distance_km: 1.53
- country: US
  region: KS
  exchange: '333083'
  name: HAVERHILL
  full_name: Haverhill
  lata: '532'
  ilec_name: SOUTHWESTERN BELL
  lat:
  long:
- country: US
  region: KS
  exchange: '063930'
  name: HAVILAND
  full_name: Haviland
  lata: '532'
  ilec_name: HAVILAND TEL. CO., INC.
  lat: '37.616075'
  long: "-99.100085"
  closest_city:
    name: Haviland
    distance_km: 0.53
- country: US
  region: KS
  exchange: '063940'
  name: HAYS
  full_name: Hays
  lata: '534'
  ilec_name: SOUTHWESTERN BELL
  lat: '38.874896'
  long: "-99.325763"
  closest_city:
    name: Hays
    distance_km: 0.86
- country: US
  region: KS
  exchange: '333085'
  name: HAYSVILLE
  full_name: Haysville
  lata: '532'
  ilec_name: SOUTHWESTERN BELL
  lat:
  long:
- country: US
  region: KS
  exchange: '063950'
  name: HAZELTON
  full_name: Hazelton
  lata: '532'
  ilec_name: SOUTH CENTRAL TEL ASSN INC
  lat: '37.090273'
  long: "-98.400994"
  closest_city:
    name: Hazelton
    distance_km: 0.11
- country: US
  region: KS
  exchange: '063960'
  name: HEALY
  full_name: Healy
  lata: '532'
  ilec_name: S & T TEL. COOP. ASSN.
  lat: '38.599847'
  long: "-100.615837"
  closest_city:
    name: Healy
    distance_km: 0.38
- country: US
  region: KS
  exchange: '333088'
  name: HEIZER
  full_name: Heizer
  lata: '532'
  ilec_name: SOUTHWESTERN BELL
  lat:
  long:
- country: US
  region: KS
  exchange: '063970'
  name: HEPLER
  full_name: Hepler
  lata: '532'
  ilec_name: CRAW-KAN TEL. COOP.,INC. - KS
  lat: '37.659094'
  long: "-94.964994"
  closest_city:
    name: Hepler
    distance_km: 0.66
- country: US
  region: KS
  exchange: '063980'
  name: HERINGTON
  full_name: Herington
  lata: '534'
  ilec_name: SOUTHWESTERN BELL
  lat: '38.67359'
  long: "-96.942878"
  closest_city:
    name: Herington
    distance_km: 6.74
- country: US
  region: KS
  exchange: '333516'
  name: HERKIMER
  full_name: Herkimer
  lata: '534'
  ilec_name: BLUE VALLEY TELE-COMMUNICATIONS, INC.
  lat:
  long:
- country: US
  region: KS
  exchange: '063990'
  name: HERNDON
  full_name: Herndon
  lata: '534'
  ilec_name: SOUTHWESTERN BELL
  lat: '39.898966'
  long: "-100.782824"
  closest_city:
    name: Herndon
    distance_km: 1.18
- country: US
  region: KS
  exchange: '064000'
  name: HESSTON
  full_name: Hesston
  lata: '532'
  ilec_name: UNITED TEL OF EASTERN KANSAS DBA CENTURYLINK
  lat: '38.140483'
  long: "-97.433418"
  closest_city:
    name: Hesston
    distance_km: 0.56
- country: US
  region: KS
  exchange: '064010'
  name: HEWINS
  full_name: Hewins
  lata: '532'
  ilec_name: TOTAH COMMUNICATIONS, INC.
  lat: '37.039701'
  long: "-96.407116"
  closest_city:
    name: Cedar Vale
    distance_km: 11.18
- country: US
  region: KS
  exchange: '064020'
  name: HIATTVILLE
  full_name: Hiattville
  lata: '532'
  ilec_name: CRAW-KAN TEL. COOP.,INC. - KS
  lat: '37.723511'
  long: "-94.873641"
  closest_city:
    name: Hepler
    distance_km: 10.75
- country: US
  region: KS
  exchange: '064030'
  name: HIAWATHA
  full_name: Hiawatha
  lata: '534'
  ilec_name: UNITED TEL. CO. OF KANSAS DBA CENTURYLINK
  lat: '39.853771'
  long: "-95.538109"
  closest_city:
    name: Hiawatha
    distance_km: 0.21
- country: US
  region: KS
  exchange: '333093'
  name: HICKOK
  full_name: Hickok
  lata: '532'
  ilec_name: PIONEER TEL. ASSN., INC.
  lat:
  long:
- country: US
  region: KS
  exchange: '064040'
  name: HIGHLAND
  full_name: Highland
  lata: '534'
  ilec_name: UNITED TEL. CO. OF KANSAS DBA CENTURYLINK
  lat: '39.859071'
  long: "-95.263128"
  closest_city:
    name: Highland
    distance_km: 0.2
- country: US
  region: KS
  exchange: '064050'
  name: HILL CITY
  full_name: Hill City
  lata: '534'
  ilec_name: RURAL TEL. SERVICE CO., INC. DBA NEX-TECH
  lat: '39.366694'
  long: "-99.848226"
  closest_city:
    name: Hill City
    distance_km: 0.19
- country: US
  region: KS
  exchange: '064060'
  name: HILLSBORO
  full_name: Hillsboro
  lata: '532'
  ilec_name: UNITED TEL. CO. OF KANSAS DBA CENTURYLINK
  lat: '38.355726'
  long: "-97.199461"
  closest_city:
    name: Hillsboro
    distance_km: 0.34
- country: US
  region: KS
  exchange: '064070'
  name: HILLSDALE
  full_name: Hillsdale
  lata: '524'
  ilec_name: MO-KAN DIAL INC
  lat: '38.667894'
  long: "-94.848943"
  closest_city:
    name: Hillsdale
    distance_km: 1.14
- country: US
  region: KS
  exchange: '064080'
  name: HOISINGTON
  full_name: Hoisington
  lata: '532'
  ilec_name: UNITED TEL OF EASTERN KANSAS DBA CENTURYLINK
  lat: '38.518684'
  long: "-98.775436"
  closest_city:
    name: Hoisington
    distance_km: 0.18
- country: US
  region: KS
  exchange: '063531'
  name: HOLCOMB
  full_name: Holcomb
  lata: '532'
  ilec_name: SOUTHWESTERN BELL
  lat:
  long:
- country: US
  region: KS
  exchange: '333521'
  name: HOLLENBERG
  full_name: Hollenberg
  lata: '534'
  ilec_name: SOUTHWESTERN BELL
  lat:
  long:
- country: US
  region: KS
  exchange: '330765'
  name: HOLLIDAY
  full_name: Holliday
  lata: '524'
  ilec_name: SOUTHWESTERN BELL
  lat:
  long:
- country: US
  region: KS
  exchange: '064090'
  name: HOLTON
  full_name: Holton
  lata: '534'
  ilec_name: UNITED TEL. CO. OF KANSAS DBA CENTURYLINK
  lat: '39.466155'
  long: "-95.73539"
  closest_city:
    name: Holton
    distance_km: 0.51
- country: US
  region: KS
  exchange: '064100'
  name: HOLYROOD
  full_name: Holyrood
  lata: '534'
  ilec_name: H & B COMMUNICATIONS, INC.
  lat: '38.59122'
  long: "-98.407988"
  closest_city:
    name: Holyrood
    distance_km: 0.53
- country: US
  region: KS
  exchange: '064110'
  name: HOME
  full_name: Home
  lata: '534'
  ilec_name: BLUE VALLEY TELE-COMMUNICATIONS, INC.
  lat: '39.840961'
  long: "-96.526608"
  closest_city:
    name: Home
    distance_km: 0.58
- country: US
  region: KS
  exchange: '333525'
  name: HOMER
  full_name: Homer
  lata: '534'
  ilec_name: RURAL TEL. SERVICE CO., INC. DBA NEX-TECH
  lat:
  long:
- country: US
  region: KS
  exchange: '064120'
  name: HOPE
  full_name: Hope
  lata: '534'
  ilec_name: TRI-COUNTY TEL. ASSN., INC.
  lat: '38.690081'
  long: "-97.073548"
  closest_city:
    name: Hope
    distance_km: 0.28
- country: US
  region: KS
  exchange: '333097'
  name: HOPEWELL
  full_name: Hopewell
  lata: '532'
  ilec_name: UNITED TEL OF EASTERN KANSAS DBA CENTURYLINK
  lat:
  long:
- country: US
  region: KS
  exchange: '333098'
  name: HORACE
  full_name: Horace
  lata: '532'
  ilec_name: CONSOLIDATED COMMUNICATIONS OF KANSAS COMPANY
  lat:
  long:
- country: US
  region: KS
  exchange: '064130'
  name: HORTON
  full_name: Horton
  lata: '534'
  ilec_name: UNITED TEL. CO. OF KANSAS DBA CENTURYLINK
  lat: '39.667916'
  long: "-95.52301"
  closest_city:
    name: Horton
    distance_km: 0.96
- country: US
  region: KS
  exchange: '064140'
  name: HOWARD
  full_name: Howard
  lata: '532'
  ilec_name: SOUTHWESTERN BELL
  lat: '37.46945'
  long: "-96.267791"
  closest_city:
    name: Howard
    distance_km: 0.41
- country: US
  region: KS
  exchange: '333100'
  name: HOWELL
  full_name: Howell
  lata: '532'
  ilec_name: SOUTHWESTERN BELL
  lat:
  long:
- country: US
  region: KS
  exchange: '064150'
  name: HOXIE
  full_name: Hoxie
  lata: '534'
  ilec_name: SOUTHWESTERN BELL
  lat: '39.352139'
  long: "-100.440851"
  closest_city:
    name: Hoxie
    distance_km: 0.42
- country: US
  region: KS
  exchange: '064160'
  name: HOYT
  full_name: Hoyt
  lata: '534'
  ilec_name: UNITED TEL OF EASTERN KANSAS DBA CENTURYLINK
  lat: '39.251819'
  long: "-95.709497"
  closest_city:
    name: Hoyt
    distance_km: 0.31
- country: US
  region: KS
  exchange: '064170'
  name: HUDSON
  full_name: Hudson
  lata: '532'
  ilec_name: UNITED TEL OF EASTERN KANSAS DBA CENTURYLINK
  lat: '38.107621'
  long: "-98.661267"
  closest_city:
    name: Hudson
    distance_km: 0.3
- country: US
  region: KS
  exchange: '064180'
  name: HUGOTON
  full_name: Hugoton
  lata: '532'
  ilec_name: PIONEER TEL. ASSN., INC.
  lat: '37.181085'
  long: "-101.350346"
  closest_city:
    name: Hugoton
    distance_km: 0.89
- country: US
  region: KS
  exchange: '064190'
  name: HUMBOLDT
  full_name: Humboldt
  lata: '532'
  ilec_name: SOUTHWESTERN BELL
  lat: '37.805649'
  long: "-95.440443"
  closest_city:
    name: Humboldt
    distance_km: 0.84
- country: US
  region: KS
  exchange: '333104'
  name: HUNNEWELL
  full_name: Hunnewell
  lata: '532'
  ilec_name: KANOKLA TEL ASSN
  lat:
  long:
- country: US
  region: KS
  exchange: '064200'
  name: HUNTER
  full_name: Hunter
  lata: '534'
  ilec_name: WILSON TEL. CO., INC.
  lat: '39.241207'
  long: "-98.391607"
  closest_city:
    name: Hunter
    distance_km: 0.8
- country: US
  region: KS
  exchange: '333105'
  name: HUNTSVILLE
  full_name: Huntsville
  lata: '532'
  ilec_name: UNITED TEL OF EASTERN KANSAS DBA CENTURYLINK
  lat:
  long:
- country: US
  region: KS
  exchange: '064210'
  name: HURON
  full_name: Huron
  lata: '534'
  ilec_name: RAINBOW TELECOMMUNICATIONS ASSOCIATION, INC.
  lat: '39.630964'
  long: "-95.349446"
  closest_city:
    name: Huron
    distance_km: 0.84
- country: US
  region: KS
  exchange: '333532'
  name: HUSCHER
  full_name: Huscher
  lata: '534'
  ilec_name: SOUTHWESTERN BELL
  lat:
  long:
- country: US
  region: KS
  exchange: '064220'
  name: HUTCHINSON
  full_name: Hutchinson
  lata: '532'
  ilec_name: SOUTHWESTERN BELL
  lat: '38.055674'
  long: "-97.925817"
  closest_city:
    name: Hutchinson
    distance_km: 2.01
- country: US
  region: KS
  exchange: '333533'
  name: IDANA
  full_name: Idana
  lata: '534'
  ilec_name: SOUTHWESTERN BELL
  lat:
  long:
- country: US
  region: KS
  exchange: '064230'
  name: INDEPNDNCE
  full_name: Independence
  lata: '532'
  ilec_name: SOUTHWESTERN BELL
  lat: '37.223003'
  long: "-95.709562"
  closest_city:
    name: Independence
    distance_km: 2.39
- country: US
  region: KS
  exchange: '333534'
  name: INDUSTRY
  full_name: Industry
  lata: '534'
  ilec_name: TWIN VALLEY TEL., INC.
  lat:
  long:
- country: US
  region: KS
  exchange: '064240'
  name: INGALLS
  full_name: Ingalls
  lata: '532'
  ilec_name: UNITED TEL. ASSN., INC.
  lat: '37.825637'
  long: "-100.452565"
  closest_city:
    name: Ingalls
    distance_km: 0.35
- country: US
  region: KS
  exchange: '064250'
  name: INMAN
  full_name: Inman
  lata: '532'
  ilec_name: UNITED TEL OF EASTERN KANSAS DBA CENTURYLINK
  lat: '38.235438'
  long: "-97.76813"
  closest_city:
    name: Inman
    distance_km: 0.46
- country: US
  region: KS
  exchange: '064260'
  name: IOLA
  full_name: Iola
  lata: '532'
  ilec_name: SOUTHWESTERN BELL
  lat: '37.925526'
  long: "-95.408215"
  closest_city:
    name: Iola
    distance_km: 0.7
- country: US
  region: KS
  exchange: '064270'
  name: IONIA
  full_name: Ionia
  lata: '534'
  ilec_name: RURAL TEL. SERVICE CO., INC. DBA NEX-TECH
  lat: '39.660209'
  long: "-98.349428"
  closest_city:
    name: Ionia
    distance_km: 0.54
- country: US
  region: KS
  exchange: '333536'
  name: IOWA POINT
  full_name: Iowa Point
  lata: '534'
  ilec_name: UNITED TEL. CO. OF KANSAS DBA CENTURYLINK
  lat:
  long:
- country: US
  region: KS
  exchange: '064280'
  name: ISABEL
  full_name: Isabel
  lata: '532'
  ilec_name: HAVILAND TEL. CO., INC.
  lat: '37.467736'
  long: "-98.546808"
  closest_city:
    name: Isabel
    distance_km: 0.42
- country: US
  region: KS
  exchange: '064290'
  name: IUKA
  full_name: Iuka
  lata: '532'
  ilec_name: SOUTH CENTRAL TEL ASSN INC
  lat: '37.733509'
  long: "-98.735107"
  closest_city:
    name: Iuka
    distance_km: 0.54
- country: US
  region: KS
  exchange: '064300'
  name: JAMESTOWN
  full_name: Jamestown
  lata: '534'
  ilec_name: CUNNINGHAM TEL. CO., INC.
  lat: '39.60069'
  long: "-97.856211"
  closest_city:
    name: Jamestown
    distance_km: 0.45
- country: US
  region: KS
  exchange: '330766'
  name: JARBALO
  full_name: Jarbalo
  lata: '524'
  ilec_name: SOUTHWESTERN BELL
  lat:
  long:
- country: US
  region: KS
  exchange: '333113'
  name: JEFFERSON
  full_name: Jefferson
  lata: '532'
  ilec_name: TOTAH COMMUNICATIONS, INC.
  lat:
  long:
- country: US
  region: KS
  exchange: '064310'
  name: JENNINGS
  full_name: Jennings
  lata: '534'
  ilec_name: RURAL TEL. SERVICE CO., INC. DBA NEX-TECH
  lat: '39.674382'
  long: "-100.291689"
  closest_city:
    name: Jennings
    distance_km: 0.71
- country: US
  region: KS
  exchange: '064320'
  name: JETMORE
  full_name: Jetmore
  lata: '532'
  ilec_name: CONSOLIDATED COMMUNICATIONS OF KANSAS COMPANY
  lat: '38.082146'
  long: "-99.890668"
  closest_city:
    name: Jetmore
    distance_km: 6.02
- country: US
  region: KS
  exchange: '064330'
  name: JEWELL
  full_name: Jewell
  lata: '534'
  ilec_name: SOUTHWESTERN BELL
  lat: '39.676666'
  long: "-98.156276"
  closest_city:
    name: Jewell
    distance_km: 0.66
- country: US
  region: KS
  exchange: '064340'
  name: JOHNSON
  full_name: Johnson
  lata: '532'
  ilec_name: PIONEER TEL. ASSN., INC.
  lat: '37.56792'
  long: "-101.755947"
  closest_city:
    name: Johnson City
    distance_km: 1.03
- country: US
  region: KS
  exchange: '333116'
  name: JOY
  full_name: Joy
  lata: '532'
  ilec_name: SOUTHWESTERN BELL
  lat:
  long:
- country: US
  region: KS
  exchange: '064350'
  name: JUNCTIONCY
  full_name: Junction City
  lata: '534'
  ilec_name: UNITED TEL. CO. OF KANSAS DBA CENTURYLINK
  lat: '39.027453'
  long: "-96.830377"
  closest_city:
    name: Junction City
    distance_km: 1.76
- country: US
  region: KS
  exchange: '333541'
  name: KACKLEY
  full_name: Kackley
  lata: '534'
  ilec_name: SOUTHWESTERN BELL
  lat:
  long:
- country: US
  region: KS
  exchange: '333117'
  name: KALVESTA
  full_name: Kalvesta
  lata: '532'
  ilec_name: UNITED TEL. ASSN., INC.
  lat:
  long:
- country: US
  region: KS
  exchange: '333542'
  name: KANONA
  full_name: Kanona
  lata: '534'
  ilec_name: RURAL TEL. SERVICE CO., INC. DBA NEX-TECH
  lat:
  long:
- country: US
  region: KS
  exchange: '333543'
  name: KANOPOLIS
  full_name: Kanopolis
  lata: '534'
  ilec_name: SOUTHWESTERN BELL
  lat:
  long:
- country: US
  region: KS
  exchange: '064360'
  name: KANORADO
  full_name: Kanorado
  lata: '534'
  ilec_name: S & T TEL. COOP. ASSN.
  lat: '39.335074'
  long: "-102.035024"
  closest_city:
    name: Kanorado
    distance_km: 0.26
- country: US
  region: KS
  exchange: '064370'
  name: KANSASCITY
  full_name: Kansas City
  lata: '524'
  ilec_name: SOUTHWESTERN BELL
  lat: '39.114735'
  long: "-94.634764"
  closest_city:
    name: Westwood
    distance_km: 8.54
- country: US
  region: KS
  exchange: '333545'
  name: KEATS
  full_name: Keats
  lata: '534'
  ilec_name: SOUTHWESTERN BELL
  lat:
  long:
- country: US
  region: KS
  exchange: '064380'
  name: KECHI
  full_name: Kechi
  lata: '532'
  ilec_name: SOUTHWESTERN BELL
  lat: '37.800351'
  long: "-97.272571"
  closest_city:
    name: Kechi
    distance_km: 2.95
- country: US
  region: KS
  exchange: '333546'
  name: KEENE
  full_name: Keene
  lata: '534'
  ilec_name: SOUTHWESTERN BELL
  lat:
  long:
- country: US
  region: KS
  exchange: '333547'
  name: KELLY
  full_name: Kelly
  lata: '534'
  ilec_name: SOUTHWESTERN BELL
  lat:
  long:
- country: US
  region: KS
  exchange: '064390'
  name: KENDALL
  full_name: Kendall
  lata: '532'
  ilec_name: PIONEER TEL. ASSN., INC.
  lat: '37.932046'
  long: "-101.530854"
  closest_city:
    name: Syracuse
    distance_km: 21.94
- country: US
  region: KS
  exchange: '064400'
  name: KENSINGTON
  full_name: Kensington
  lata: '534'
  ilec_name: RURAL TEL. SERVICE CO., INC. DBA NEX-TECH
  lat: '39.76879'
  long: "-99.03496"
  closest_city:
    name: Kensington
    distance_km: 0.29
- country: US
  region: KS
  exchange: '333120'
  name: KIMBAL
  full_name: Kimbal
  lata: '532'
  ilec_name: CRAW-KAN TEL. COOP.,INC. - KS
  lat:
  long:
- country: US
  region: KS
  exchange: '064410'
  name: KINCAID
  full_name: Kincaid
  lata: '532'
  ilec_name: UNITED TEL. CO. OF KANSAS DBA CENTURYLINK
  lat: '38.083096'
  long: "-95.159788"
  closest_city:
    name: Kincaid
    distance_km: 0.44
- country: US
  region: KS
  exchange: '064420'
  name: KINGMAN
  full_name: Kingman
  lata: '532'
  ilec_name: SOUTHWESTERN BELL
  lat: '37.648428'
  long: "-98.119068"
  closest_city:
    name: Kingman
    distance_km: 0.21
- country: US
  region: KS
  exchange: '333123'
  name: KINGSDOWN
  full_name: Kingsdown
  lata: '532'
  ilec_name: UNITED TEL. ASSN., INC.
  lat:
  long:
- country: US
  region: KS
  exchange: '064430'
  name: KINSLEY
  full_name: Kinsley
  lata: '532'
  ilec_name: SOUTHWESTERN BELL
  lat: '37.918031'
  long: "-99.415791"
  closest_city:
    name: Kinsley
    distance_km: 0.62
- country: US
  region: KS
  exchange: '064440'
  name: KIOWA
  full_name: Kiowa
  lata: '532'
  ilec_name: SOUTH CENTRAL TEL ASSN INC
  lat: '37.017089'
  long: "-98.485151"
  closest_city:
    name: Kiowa
    distance_km: 0.05
- country: US
  region: KS
  exchange: '333549'
  name: KIRO
  full_name: Kiro
  lata: '534'
  ilec_name: UNITED TEL OF EASTERN KANSAS DBA CENTURYLINK
  lat:
  long:
- country: US
  region: KS
  exchange: '333550'
  name: KIRWIN
  full_name: Kirwin
  lata: '534'
  ilec_name: SOUTHWESTERN BELL
  lat:
  long:
- country: US
  region: KS
  exchange: '333126'
  name: KISMET
  full_name: Kismet
  lata: '532'
  ilec_name: SOUTHWESTERN BELL
  lat:
  long:
- country: US
  region: KS
  exchange: '064450'
  name: LA CROSSE
  full_name: La Crosse
  lata: '534'
  ilec_name: SOUTHWESTERN BELL
  lat: '38.531508'
  long: "-99.300924"
  closest_city:
    name: La Crosse
    distance_km: 0.75
- country: US
  region: KS
  exchange: '064460'
  name: LA CYGNE
  full_name: La Cygne
  lata: '524'
  ilec_name: PEOPLES TELECOMMUNICATIONS, LLC - KS
  lat: '38.35241'
  long: "-94.766541"
  closest_city:
    name: La Cygne
    distance_km: 0.68
- country: US
  region: KS
  exchange: '064470'
  name: LA HARPE
  full_name: La Harpe
  lata: '532'
  ilec_name: LA HARPE TEL. CO., INC.
  lat: '37.918638'
  long: "-95.298411"
