---
rate_centers:
- country: US
  region: MN
  exchange: '089600'
  name: ADA
  full_name: Ada
  lata: '636'
  ilec_name: LORETEL SYSTEMS, INC.
  lat: '47.297174'
  long: "-96.515225"
  closest_city:
    name: Ada
    distance_km: 0.21
- country: US
  region: MN
  exchange: '089610'
  name: ADAMS
  full_name: Adams
  lata: '620'
  ilec_name: CITIZENS TELECOM CO MN-FRONTIER CITIZENS COM-MN
  lat: '43.567239'
  long: "-92.719578"
  closest_city:
    name: Adams
    distance_km: 0.21
- country: US
  region: MN
  exchange: '337066'
  name: ADOLPH
  full_name: Adolph
  lata: '624'
  ilec_name: QWEST CORPORATION
  lat:
  long:
- country: US
  region: MN
  exchange: '089620'
  name: ADRIAN
  full_name: Adrian
  lata: '620'
  ilec_name: FRONTIER COMMUNICATIONS OF MINNESOTA, INC.
  lat: '43.63364'
  long: "-95.935874"
  closest_city:
    name: Adrian
    distance_km: 0.24
- country: US
  region: MN
  exchange: '095051'
  name: AFTON
  full_name: Afton
  lata: '628'
  ilec_name: QWEST CORPORATION
  lat:
  long:
- country: US
  region: MN
  exchange: '338892'
  name: AHGWAHCHNG
  full_name: Ah-Gwah-Ching
  lata: '636'
  ilec_name: EAST OTTER TAIL TEL. CO.
  lat:
  long:
- country: US
  region: MN
  exchange: '336707'
  name: AIRLIE
  full_name: Airlie
  lata: '620'
  ilec_name: QWEST CORPORATION
  lat:
  long:
- country: US
  region: MN
  exchange: '089630'
  name: AITKIN
  full_name: Aitkin
  lata: '636'
  ilec_name: CENTURYLINK OF MINNESOTA, INC.
  lat: '46.530735'
  long: "-93.706133"
  closest_city:
    name: Aitkin
    distance_km: 0.51
- country: US
  region: MN
  exchange: '093721'
  name: AKELEY
  full_name: Akeley
  lata: '636'
  ilec_name: EAST OTTER TAIL TEL. CO.
  lat:
  long:
- country: US
  region: MN
  exchange: '338895'
  name: AKLEYNEVIS
  full_name: Akeley-Nevis
  lata: '636'
  ilec_name: EAST OTTER TAIL TEL. CO.
  lat:
  long:
- country: US
  region: MN
  exchange: '089640'
  name: ALBANY
  full_name: Albany
  lata: '626'
  ilec_name: ALBANY MUTUAL TEL. ASSN., INC.
  lat: '45.63287'
  long: "-94.563615"
  closest_city:
    name: Albany
    distance_km: 0.58
- country: US
  region: MN
  exchange: '089650'
  name: ALBERT LEA
  full_name: Albert Lea
  lata: '620'
  ilec_name: QWEST CORPORATION
  lat: '43.641064'
  long: "-93.367718"
  closest_city:
    name: Albert Lea
    distance_km: 1.55
- country: US
  region: MN
  exchange: '337244'
  name: ALBERTA
  full_name: Alberta
  lata: '626'
  ilec_name: FEDERATED TEL. COOP.
  lat:
  long:
- country: US
  region: MN
  exchange: '337439'
  name: ALBERTVL
  full_name: Albertville
  lata: '628'
  ilec_name: CENTURYLINK OF MINNESOTA, INC.
  lat:
  long:
- country: US
  region: MN
  exchange: '089660'
  name: ALBORN
  full_name: Alborn
  lata: '624'
  ilec_name: CITIZENS TELECOM CO MN-FRONTIER CITIZENS COM-MN
  lat: '46.968735'
  long: "-92.565731"
  closest_city:
    name: Brookston
    distance_km: 11.83
- country: US
  region: MN
  exchange: '089670'
  name: ALDEN
  full_name: Alden
  lata: '620'
  ilec_name: CITIZENS TELECOM CO MN-FRONTIER CITIZENS COM-MN
  lat: '43.674106'
  long: "-93.5761"
  closest_city:
    name: Alden
    distance_km: 0.55
- country: US
  region: MN
  exchange: '338896'
  name: ALDRICH
  full_name: Aldrich
  lata: '636'
  ilec_name: WEST CENTRAL TEL. ASSN.
  lat:
  long:
- country: US
  region: MN
  exchange: '089680'
  name: ALEXANDRIA
  full_name: Alexandria
  lata: '626'
  ilec_name: CENTURYLINK OF MINNESOTA, INC.
  lat: '45.883407'
  long: "-95.372529"
  closest_city:
    name: Alexandria
    distance_km: 0.72
- country: US
  region: MN
  exchange: '337068'
  name: ALLEN JCT
  full_name: Allen Junction
  lata: '624'
  ilec_name: CITIZENS TELECOM CO MN-FRONTIER CITIZENS COM-MN
  lat:
  long:
- country: US
  region: MN
  exchange: '336710'
  name: ALMA CITY
  full_name: Alma City
  lata: '620'
  ilec_name: FRONTIER COMMUNICATIONS OF MINNESOTA, INC.
  lat:
  long:
- country: US
  region: MN
  exchange: '089690'
  name: ALMELUND
  full_name: Almelund
  lata: '628'
  ilec_name: CITIZENS TELECOM CO MN-FRONTIER CITIZENS COM-MN
  lat: '45.500727'
  long: "-92.787849"
  closest_city:
    name: Center City
    distance_km: 12.02
- country: US
  region: MN
  exchange: '338897'
  name: ALMORA
  full_name: Almora
  lata: '636'
  ilec_name: QWEST CORPORATION
  lat:
  long:
- country: US
  region: MN
  exchange: '336711'
  name: ALPHA
  full_name: Alpha
  lata: '620'
  ilec_name: QWEST CORPORATION
  lat:
  long:
- country: US
  region: MN
  exchange: '089700'
  name: ALTURA
  full_name: Altura
  lata: '620'
  ilec_name: CENTURYLINK OF MINNESOTA, INC.
  lat: '44.068882'
  long: "-91.941671"
  closest_city:
    name: Altura
    distance_km: 0.54
- country: US
  region: MN
  exchange: '089710'
  name: ALVARADO
  full_name: Alvarado
  lata: '636'
  ilec_name: CITIZENS TELECOM CO MN-FRONTIER CITIZENS COM-MN
  lat: '48.181724'
  long: "-96.989148"
  closest_city:
    name: Alvarado
    distance_km: 1.43
- country: US
  region: MN
  exchange: '095011'
  name: ALVWOOD
  full_name: Alvwood
  lata: '636'
  ilec_name: PAUL BUNYAN RURAL TEL. COOP.
  lat:
  long:
- country: US
  region: MN
  exchange: '089720'
  name: AMBOY
  full_name: Amboy
  lata: '620'
  ilec_name: CONSOLIDATED COMMUNICATIONS MID-COM COMPANY - MN
  lat: '43.892765'
  long: "-94.156295"
  closest_city:
    name: Amboy
    distance_km: 0.56
- country: US
  region: MN
  exchange: '336714'
  name: AMIRET
  full_name: Amiret
  lata: '620'
  ilec_name: QWEST CORPORATION
  lat:
  long:
- country: US
  region: MN
  exchange: '337441'
  name: ANDOVER
  full_name: Andover
  lata: '628'
  ilec_name: QWEST CORPORATION
  lat:
  long:
- country: US
  region: MN
  exchange: '089730'
  name: ANGLE INLT
  full_name: Angle Inlet
  lata: '636'
  ilec_name: WIKSTROM TEL. CO., INC.
  lat: '49.342278'
  long: "-95.071934"
  closest_city:
    name: Angle Inlet
    distance_km: 0.48
- country: US
  region: MN
  exchange: '337069'
  name: ANGORA
  full_name: Angora
  lata: '624'
  ilec_name: QWEST CORPORATION
  lat:
  long:
- country: US
  region: MN
  exchange: '338901'
  name: ANGUS
  full_name: Angus
  lata: '636'
  ilec_name: CITIZENS TELECOM CO MN-FRONTIER CITIZENS COM-MN
  lat:
  long:
- country: US
  region: MN
  exchange: '089740'
  name: ANNANDALE
  full_name: Annandale
  lata: '628'
  ilec_name: WINDSTREAM LAKEDALE, INC.
  lat: '45.268013'
  long: "-94.121968"
  closest_city:
    name: Annandale
    distance_km: 0.91
- country: US
  region: MN
  exchange: '09538F'
  name: ANOKA
  full_name: Anoka
  lata: '628'
  ilec_name: QWEST CORPORATION
  lat: '45.200123'
  long: "-93.382766"
  closest_city:
    name: Anoka
    distance_km: 1.2
- country: US
  region: MN
  exchange: '089750'
  name: APPLE VLY
  full_name: Apple Valley
  lata: '628'
  ilec_name: FRONTIER COMMUNICATIONS OF MINNESOTA, INC.
  lat: '44.74098'
  long: "-93.235855"
  closest_city:
    name: Apple Valley
    distance_km: 2.85
- country: US
  region: MN
  exchange: '089760'
  name: APPLETON
  full_name: Appleton
  lata: '626'
  ilec_name: QWEST CORPORATION
  lat: '45.198941'
  long: "-96.007183"
  closest_city:
    name: Appleton
    distance_km: 1.2
- country: US
  region: MN
  exchange: '338903'
  name: ARAGO
  full_name: Arago
  lata: '636'
  ilec_name: QWEST CORPORATION
  lat:
  long:
- country: US
  region: MN
  exchange: '089770'
  name: ARCO
  full_name: Arco
  lata: '620'
  ilec_name: CITIZENS TELECOM CO MN-FRONTIER CITIZENS COM-MN
  lat: '44.383854'
  long: "-96.180456"
  closest_city:
    name: Arco
    distance_km: 0.17
- country: US
  region: MN
  exchange: '337445'
  name: ARDENHILLS
  full_name: Arden Hills
  lata: '628'
  ilec_name: QWEST CORPORATION
  lat:
  long:
- country: US
  region: MN
  exchange: '336716'
  name: ARENDAHL
  full_name: Arendahl
  lata: '620'
  ilec_name: ACE TEL. ASSN. - MN
  lat:
  long:
- country: US
  region: MN
  exchange: '089780'
  name: ARGYLE
  full_name: Argyle
  lata: '636'
  ilec_name: CITIZENS TELECOM CO MN-FRONTIER CITIZENS COM-MN
  lat: '48.334142'
  long: "-96.8163"
  closest_city:
    name: Argyle
    distance_km: 0.27
- country: US
  region: MN
  exchange: '089790'
  name: ARLINGTON
  full_name: Arlington
  lata: '628'
  ilec_name: FRONTIER COMMUNICATIONS OF MINNESOTA, INC.
  lat: '44.609665'
  long: "-94.072273"
  closest_city:
    name: Arlington
    distance_km: 0.39
- country: US
  region: MN
  exchange: '336717'
  name: ARMSTRONG
  full_name: Armstrong
  lata: '620'
  ilec_name: QWEST CORPORATION
  lat:
  long:
- country: US
  region: MN
  exchange: '337247'
  name: ASBURY
  full_name: Asbury
  lata: '626'
  ilec_name: CENTURYLINK OF MINNESOTA, INC.
  lat:
  long:
- country: US
  region: MN
  exchange: '337070'
  name: ASH LAKE
  full_name: Ash Lake
  lata: '624'
  ilec_name: CENTURYTEL OF MINNESOTA, INC. DBA CENTURYLINK
  lat:
  long:
- country: US
  region: MN
  exchange: '089800'
  name: ASH RIVER
  full_name: Ash River
  lata: '624'
  ilec_name: PAUL BUNYAN RURAL TEL. COOP.
  lat: '48.416481'
  long: "-92.790032"
  closest_city:
    name: Orr
    distance_km: 39.79
- country: US
  region: MN
  exchange: '089810'
  name: ASHBY
  full_name: Ashby
  lata: '636'
  ilec_name: PARK REGION MUTUAL TEL. CO.
  lat: '46.090795'
  long: "-95.818365"
  closest_city:
    name: Ashby
    distance_km: 0.34
- country: US
  region: MN
  exchange: '089820'
  name: ASKOV
  full_name: Askov
  lata: '628'
  ilec_name: CITIZENS TELECOM CO MN-FRONTIER CITIZENS COM-MN
  lat: '46.189321'
  long: "-92.774219"
  closest_city:
    name: Askov
    distance_km: 0.63
- country: US
  region: MN
  exchange: '337072'
  name: ATKINSON
  full_name: Atkinson
  lata: '624'
  ilec_name: QWEST CORPORATION
  lat:
  long:
- country: US
  region: MN
  exchange: '089830'
  name: ATWATER
  full_name: Atwater
  lata: '626'
  ilec_name: CITIZENS TELECOM CO MN-FRONTIER CITIZENS COM-MN
  lat: '45.132159'
  long: "-94.772326"
  closest_city:
    name: Atwater
    distance_km: 0.52
- country: US
  region: MN
  exchange: '089840'
  name: AUDUBON
  full_name: Audubon
  lata: '636'
  ilec_name: LORETEL SYSTEMS, INC.
  lat: '46.868408'
  long: "-95.975373"
  closest_city:
    name: Audubon
    distance_km: 0.79
- country: US
  region: MN
  exchange: '337448'
  name: AUGUSTA
  full_name: Augusta
  lata: '628'
  ilec_name: QWEST CORPORATION
  lat:
  long:
- country: US
  region: MN
  exchange: '094501'
  name: AURE-DEBS
  full_name: Aure-Debs
  lata: '636'
  ilec_name: PAUL BUNYAN RURAL TEL. COOP.
  lat:
  long:
- country: US
  region: MN
  exchange: '089850'
  name: AURORA
  full_name: Aurora
  lata: '624'
  ilec_name: CITIZENS TELECOM CO MN-FRONTIER CITIZENS COM-MN
  lat: '47.534684'
  long: "-92.244176"
  closest_city:
    name: Aurora
    distance_km: 0.5
- country: US
  region: MN
  exchange: '089860'
  name: AUSTIN
  full_name: Austin
  lata: '620'
  ilec_name: QWEST CORPORATION
  lat: '43.666492'
  long: "-92.969784"
  closest_city:
    name: Austin
    distance_km: 0.93
- country: US
  region: MN
  exchange: '338907'
  name: AUTOMBA
  full_name: Automba
  lata: '636'
  ilec_name: CITIZENS TELECOM CO MN-FRONTIER CITIZENS COM-MN
  lat:
  long:
- country: US
  region: MN
  exchange: '338908'
  name: AVERILL
  full_name: Averill
  lata: '636'
  ilec_name: QWEST CORPORATION
  lat:
  long:
- country: US
  region: MN
  exchange: '089870'
  name: AVOCA
  full_name: Avoca
  lata: '620'
  ilec_name: FRONTIER COMMUNICATIONS OF MINNESOTA, INC.
  lat: '43.950675'
  long: "-95.643169"
  closest_city:
    name: Avoca
    distance_km: 0.33
- country: US
  region: MN
  exchange: '089880'
  name: AVON
  full_name: Avon
  lata: '626'
  ilec_name: QWEST CORPORATION
  lat: '45.608101'
  long: "-94.450666"
  closest_city:
    name: Avon
    distance_km: 0.89
- country: US
  region: MN
  exchange: '089890'
  name: BABBITT
  full_name: Babbitt
  lata: '624'
  ilec_name: CITIZENS TELECOM CO MN-FRONTIER CITIZENS COM-MN
  lat: '47.684567'
  long: "-91.914974"
  closest_city:
    name: Babbitt
    distance_km: 5.05
- country: US
  region: MN
  exchange: '089900'
  name: BACKUS
  full_name: Backus
  lata: '636'
  ilec_name: ARVIG TEL. CO.
  lat: '46.816066'
  long: "-94.520044"
  closest_city:
    name: Backus
    distance_km: 0.65
- country: US
  region: MN
  exchange: '089910'
  name: BADGER
  full_name: Badger
  lata: '636'
  ilec_name: WIKSTROM TEL. CO., INC.
  lat: '48.784367'
  long: "-96.018188"
  closest_city:
    name: Badger
    distance_km: 0.87
- country: US
  region: MN
  exchange: '089920'
  name: BAGLEY
  full_name: Bagley
  lata: '636'
  ilec_name: GARDEN VALLEY TEL. CO.
  lat: '47.524286'
  long: "-95.397291"
  closest_city:
    name: Bagley
    distance_km: 0.44
- country: US
  region: MN
  exchange: '338912'
  name: BAKER
  full_name: Baker
  lata: '636'
  ilec_name: QWEST CORPORATION
  lat:
  long:
- country: US
  region: MN
  exchange: '089930'
  name: BALATON
  full_name: Balaton
  lata: '620'
  ilec_name: FRONTIER COMMUNICATIONS OF MINNESOTA, INC.
  lat: '44.231588'
  long: "-95.87382"
  closest_city:
    name: Balaton
    distance_km: 0.3
- country: US
  region: MN
  exchange: '337449'
  name: BALD EAGLE
  full_name: Bald Eagle
  lata: '628'
  ilec_name: QWEST CORPORATION
  lat:
  long:
- country: US
  region: MN
  exchange: '091061'
  name: BALL CLUB
  full_name: Ball Club
  lata: '624'
  ilec_name: PAUL BUNYAN RURAL TEL. COOP.
  lat:
  long:
- country: US
  region: MN
  exchange: '089940'
  name: BARNESVL
  full_name: Barnesville
  lata: '636'
  ilec_name: CITY OF BARNESVILLE TEL. UTILIITIES
  lat: '46.657249'
  long: "-96.426457"
  closest_city:
    name: Barnesville
    distance_km: 1.11
- country: US
  region: MN
  exchange: '089941'
  name: BARNESVL
  full_name: Barnesville Rural
  lata: '636'
  ilec_name: RED RIVER RURAL TEL ASSN DBA RED RIVER COMM - MN
  lat: '46.657249'
  long: "-96.426457"
  closest_city:
    name: Barnesville
    distance_km: 1.11
- country: US
  region: MN
  exchange: '089950'
  name: BARNUM
  full_name: Barnum
  lata: '624'
  ilec_name: QWEST CORPORATION
  lat: '46.499086'
  long: "-92.691505"
  closest_city:
    name: Barnum
    distance_km: 0.74
- country: US
  region: MN
  exchange: '089960'
  name: BARRETT
  full_name: Barrett
  lata: '626'
  ilec_name: RUNESTONE TELEPHONE ASSOCIATION
  lat: '45.906996'
  long: "-95.892608"
  closest_city:
    name: Barrett
    distance_km: 0.61
- country: US
  region: MN
  exchange: '338915'
  name: BARROWS
  full_name: Barrows
  lata: '636'
  ilec_name: QWEST CORPORATION
  lat:
  long:
- country: US
  region: MN
  exchange: '337251'
  name: BARRY
  full_name: Barry
  lata: '626'
  ilec_name: CENTURYTEL OF MINNESOTA, INC. DBA CENTURYLINK
  lat:
  long:
- country: US
  region: MN
  exchange: '337077'
  name: BASS BROOK
  full_name: Bass Brook
  lata: '624'
  ilec_name: QWEST CORPORATION
  lat:
  long:
- country: US
  region: MN
  exchange: '089970'
  name: BATTLELAKE
  full_name: Battle Lake
  lata: '636'
  ilec_name: QWEST CORPORATION
  lat: '46.28197'
  long: "-95.717651"
  closest_city:
    name: Battle Lake
    distance_km: 0.34
- country: US
  region: MN
  exchange: '089980'
  name: BAUDETTE
  full_name: Baudette
  lata: '636'
  ilec_name: CENTURYTEL OF MINNESOTA, INC. DBA CENTURYLINK
  lat: '48.718409'
  long: "-94.602585"
  closest_city:
    name: Baudette
    distance_km: 1.04
- country: US
  region: MN
  exchange: '338918'
  name: BAXTER
  full_name: Baxter
  lata: '636'
  ilec_name: QWEST CORPORATION
  lat:
  long:
- country: US
  region: MN
  exchange: '337450'
  name: BAYPORT
  full_name: Bayport
  lata: '628'
  ilec_name: QWEST CORPORATION
  lat:
  long:
- country: US
  region: MN
  exchange: '089990'
  name: BEAR RIVER
  full_name: Bear River
  lata: '624'
  ilec_name: CITIZENS TELECOM CO MN-FRONTIER CITIZENS COM-MN
  lat: '47.767366'
  long: "-93.0775"
  closest_city:
    name: Cook
    distance_km: 30.18
- country: US
  region: MN
  exchange: '090000'
  name: BEARDSLEY
  full_name: Beardsley
  lata: '626'
  ilec_name: CENTURYTEL OF MINNESOTA, INC. DBA CENTURYLINK
  lat: '45.558041'
  long: "-96.706042"
  closest_city:
    name: Beardsley
    distance_km: 0.61
- country: US
  region: MN
  exchange: '338919'
  name: BEAULIEU
  full_name: Beaulieu
  lata: '636'
  ilec_name: QWEST CORPORATION
  lat:
  long:
- country: US
  region: MN
  exchange: '337079'
  name: BEAVER BAY
  full_name: Beaver Bay
  lata: '624'
  ilec_name: QWEST CORPORATION
  lat:
  long:
- country: US
  region: MN
  exchange: '093151'
  name: BEAVER CRK
  full_name: Beaver Creek
  lata: '620'
  ilec_name: CENTURYTEL OF MINNESOTA, INC. DBA CENTURYLINK
  lat:
  long:
- country: US
  region: MN
  exchange: '090010'
  name: BECIDA
  full_name: Becida
  lata: '636'
  ilec_name: PAUL BUNYAN RURAL TEL. COOP.
  lat: '47.34938'
  long: "-95.074141"
  closest_city:
    name: Wilton
    distance_km: 18.44
- country: US
  region: MN
  exchange: '090020'
  name: BECKER
  full_name: Becker
  lata: '628'
  ilec_name: WINDSTREAM LAKEDALE, INC.
  lat: '45.400111'
  long: "-93.882499"
  closest_city:
    name: Becker
    distance_km: 2.01
- country: US
  region: MN
  exchange: '404457'
  name: BEJOU
  full_name: Bejou
  lata: '636'
  ilec_name: QWEST CORPORATION
  lat:
  long:
- country: US
  region: MN
  exchange: '090030'
  name: BELGRADE
  full_name: Belgrade
  lata: '626'
  ilec_name: CITIZENS TELECOM CO MN-FRONTIER CITIZENS COM-MN
  lat: '45.451707'
  long: "-95.009127"
  closest_city:
    name: Belgrade
    distance_km: 0.74
- country: US
  region: MN
  exchange: '337452'
  name: BELLCHESTR
  full_name: Bellchester
  lata: '628'
  ilec_name: SLEEPY EYE TEL. CO.
  lat:
  long:
- country: US
  region: MN
  exchange: '337454'
  name: BELLEPLAIN
  full_name: Belle Plaine
  lata: '628'
  ilec_name: QWEST CORPORATION
  lat:
  long:
- country: US
  region: MN
  exchange: '090040'
  name: BLLP JRDN
  full_name: Belle Plaine-Jordan
  lata: '628'
  ilec_name: FRONTIER COMMUNICATIONS OF MINNESOTA, INC.
  lat: '44.667776'
  long: "-93.620965"
  closest_city:
    name: Jordan
    distance_km: 1.17
- country: US
  region: MN
  exchange: '337453'
  name: BELLECHSTR
  full_name: Bellechester
  lata: '628'
  ilec_name: SLEEPY EYE TEL. CO.
  lat:
  long:
- country: US
  region: MN
  exchange: '090050'
  name: BELLINGHAM
  full_name: Bellingham
  lata: '626'
  ilec_name: FARMERS MUTUAL TEL. CO.
  lat: '45.135095'
  long: "-96.283018"
  closest_city:
    name: Bellingham
    distance_km: 0.19
- country: US
  region: MN
  exchange: '090060'
  name: BELTRAMI
  full_name: Beltrami
  lata: '636'
  ilec_name: GARDEN VALLEY TEL. CO.
  lat: '47.542734'
  long: "-96.535616"
  closest_city:
    name: Beltrami
    distance_km: 0.65
- country: US
  region: MN
  exchange: '090070'
  name: BELVIEW
  full_name: Belview
  lata: '620'
  ilec_name: REDWOOD COUNTY TEL. CO.
  lat: '44.601529'
  long: "-95.323381"
  closest_city:
    name: Belview
    distance_km: 0.69
- country: US
  region: MN
  exchange: '090080'
  name: BEMIDJI
  full_name: Bemidji
  lata: '636'
  ilec_name: QWEST CORPORATION
  lat: '47.464538'
  long: "-94.883867"
  closest_city:
    name: Bemidji
    distance_km: 2.05
- country: US
  region: MN
  exchange: '090090'
  name: BENA
  full_name: Bena
  lata: '636'
  ilec_name: ARROWHEAD COMMUNICATIONS CORP.
  lat: '47.342182'
  long: "-94.204529"
  closest_city:
    name: Bena
    distance_km: 0.23
- country: US
  region: MN
  exchange: '092931'
  name: BENEDICT
  full_name: Benedict
  lata: '636'
  ilec_name: PAUL BUNYAN RURAL TEL. COOP.
  lat:
  long:
- country: US
  region: MN
  exchange: '090100'
  name: BENNETTVL
  full_name: Bennettville
  lata: '636'
  ilec_name: CENTURYLINK OF MINNESOTA, INC.
  lat: '46.390594'
  long: "-93.82579"
  closest_city:
    name: Garrison
    distance_km: 10.16
- country: US
  region: MN
  exchange: '090110'
  name: BENSON
  full_name: Benson
  lata: '626'
  ilec_name: CENTURYLINK OF MINNESOTA, INC.
  lat: '45.31382'
  long: "-95.601383"
  closest_city:
    name: Benson
    distance_km: 0.38
- country: US
  region: MN
  exchange: '337455'
  name: BEROUN
  full_name: Beroun
  lata: '628'
  ilec_name: QWEST CORPORATION
  lat:
  long:
- country: US
  region: MN
  exchange: '090120'
  name: BERTHA
  full_name: Bertha
  lata: '636'
  ilec_name: EAST OTTER TAIL TEL. CO.
  lat: '46.264985'
  long: "-95.067524"
  closest_city:
    name: Bertha
    distance_km: 0.5
- country: US
  region: MN
  exchange: '336723'
  name: BETHANY
  full_name: Bethany
  lata: '620'
  ilec_name: CENTURYLINK OF MINNESOTA, INC.
  lat:
  long:
- country: US
  region: MN
  exchange: '337456'
  name: BETHEL
  full_name: Bethel
  lata: '628'
  ilec_name: QWEST CORPORATION
  lat:
  long:
- country: US
  region: MN
  exchange: '090130'
  name: BIG BEND
  full_name: Big Bend
  lata: '626'
  ilec_name: FEDERATED TEL. COOP.
  lat: '45.135612'
  long: "-95.777453"
  closest_city:
    name: Milan
    distance_km: 10.84
- country: US
  region: MN
  exchange: '090140'
  name: BIG FALLS
  full_name: Big Falls
  lata: '624'
  ilec_name: CITIZENS TELECOM CO MN-FRONTIER CITIZENS COM-MN
  lat: '48.191912'
  long: "-93.816444"
  closest_city:
    name: Big Falls
    distance_km: 1.49
- country: US
  region: MN
  exchange: '090150'
  name: BIG LAKE
  full_name: Big Lake
  lata: '628'
  ilec_name: WINDSTREAM LAKEDALE, INC.
  lat: '45.334329'
  long: "-93.738875"
  closest_city:
    name: Big Lake
    distance_km: 0.89
- country: US
  region: MN
  exchange: '090160'
  name: BIGELOW
  full_name: Bigelow
  lata: '620'
  ilec_name: CITIZENS TELECOM CO MN-FRONTIER CITIZENS COM-MN
  lat: '43.498653'
  long: "-95.69165"
  closest_city:
    name: Bigelow
    distance_km: 0.77
- country: US
  region: MN
  exchange: '090170'
  name: BIGFORK
  full_name: Bigfork
  lata: '624'
  ilec_name: PEOPLES TEL. CO.
  lat: '47.747948'
  long: "-93.656875"
  closest_city:
    name: Bigfork
    distance_km: 0.33
- country: US
  region: MN
  exchange: '336725'
  name: BINGHAM LK
  full_name: Bingham Lake
  lata: '620'
  ilec_name: QWEST CORPORATION
  lat:
  long:
- country: US
  region: MN
  exchange: '338929'
  name: BIRCHDALE
  full_name: Birchdale
  lata: '636'
  ilec_name: CENTURYTEL OF MINNESOTA, INC. DBA CENTURYLINK
  lat:
  long:
- country: US
  region: MN
  exchange: '337458'
  name: BIRCHWOOD
  full_name: Birchwood
  lata: '628'
  ilec_name: QWEST CORPORATION
  lat:
  long:
- country: US
  region: MN
  exchange: '090180'
  name: BIRDISLAND
  full_name: Bird Island
  lata: '626'
  ilec_name: QWEST CORPORATION
  lat: '44.765113'
  long: "-94.889624"
  closest_city:
    name: Bird Island
    distance_km: 0.42
- country: US
  region: MN
  exchange: '337459'
  name: BISCAY
  full_name: Biscay
  lata: '628'
  ilec_name: CENTURYLINK OF MINNESOTA, INC.
  lat:
  long:
- country: US
  region: MN
  exchange: '090190'
  name: BIWABIK
  full_name: Biwabik
  lata: '624'
  ilec_name: QWEST CORPORATION
  lat: '47.54311'
  long: "-92.35032"
  closest_city:
    name: Biwabik
    distance_km: 2.41
- country: US
  region: MN
  exchange: '336726'
  name: BIXBY
  full_name: Bixby
  lata: '620'
  ilec_name: CITIZENS TELECOM CO MN-FRONTIER CITIZENS COM-MN
  lat:
  long:
- country: US
  region: MN
  exchange: '337083'
  name: BLACKBERRY
  full_name: Blackberry
  lata: '624'
  ilec_name: QWEST CORPORATION
  lat:
  long:
- country: US
  region: MN
  exchange: '090200'
  name: BLACKDUCK
  full_name: Blackduck
  lata: '636'
  ilec_name: PAUL BUNYAN RURAL TEL. COOP.
  lat: '47.733597'
  long: "-94.549299"
  closest_city:
    name: Blackduck
    distance_km: 0.82
- country: US
  region: MN
  exchange: '09538M'
  name: BLAINE
  full_name: Blaine
  lata: '628'
  ilec_name: QWEST CORPORATION
  lat:
  long:
- country: US
  region: MN
  exchange: '337258'
  name: BLOMKEST
  full_name: Blomkest
  lata: '626'
  ilec_name: CITIZENS TELECOM CO MN-FRONTIER CITIZENS COM-MN
  lat:
  long:
- country: US
  region: MN
  exchange: '090210'
  name: BLOOMNPRRI
  full_name: Blooming Prairie
  lata: '620'
  ilec_name: CITIZENS TELECOM CO MN-FRONTIER CITIZENS COM-MN
  lat: '43.86892'
  long: "-93.05813"
  closest_city:
    name: Blooming Prairie
    distance_km: 0.24
- country: US
  region: MN
  exchange: '09538Z'
  name: BLOOMINGTN
  full_name: Bloomington
  lata: '628'
  ilec_name: QWEST CORPORATION
  lat:
  long:
- country: US
  region: MN
  exchange: '090220'
  name: BLUE EARTH
  full_name: Blue Earth
  lata: '620'
  ilec_name: BLUE EARTH VALLEY TEL. CO.
  lat: '43.642231'
  long: "-94.100957"
  closest_city:
    name: Blue Earth
    distance_km: 0.15
- country: US
  region: MN
  exchange: '338931'
  name: BLUFFTON
  full_name: Bluffton
  lata: '636'
  ilec_name: EAST OTTER TAIL TEL. CO.
  lat:
  long:
- country: US
  region: MN
  exchange: '090230'
  name: BOCK
  full_name: Bock
  lata: '626'
  ilec_name: BENTON COOP. TEL. CO.
  lat: '45.782536'
  long: "-93.553021"
  closest_city:
    name: Bock
    distance_km: 0.22
- country: US
  region: MN
  exchange: '336729'
  name: BOMBAY
  full_name: Bombay
  lata: '620'
  ilec_name: CITIZENS TELECOM CO MN-FRONTIER CITIZENS COM-MN
  lat:
  long:
- country: US
  region: MN
  exchange: '337463'
  name: BONGARDS
  full_name: Bongards
  lata: '628'
  ilec_name: QWEST CORPORATION
  lat:
  long:
- country: US
  region: MN
  exchange: '090240'
  name: BORUP
  full_name: Borup
  lata: '636'
  ilec_name: FELTON TEL. CO., INC.
  lat: '47.177793'
  long: "-96.499434"
  closest_city:
    name: Borup
    distance_km: 0.56
- country: US
  region: MN
  exchange: '090821'
  name: BOVEY
  full_name: Bovey
  lata: '624'
  ilec_name: QWEST CORPORATION
  lat:
  long:
- country: US
  region: MN
  exchange: '337260'
  name: BOWLUS
  full_name: Bowlus
  lata: '626'
  ilec_name: QWEST CORPORATION
  lat:
  long:
- country: US
  region: MN
  exchange: '093331'
  name: BOWSTRING
  full_name: Bowstring
  lata: '624'
  ilec_name: PEOPLES TEL. CO.
  lat:
  long:
- country: US
  region: MN
  exchange: '090250'
  name: BOY RIVER
  full_name: Boy River
  lata: '636'
  ilec_name: JOHNSON TEL. CO.
  lat: '47.166881'
  long: "-94.126942"
  closest_city:
    name: Boy River
    distance_km: 0.24
- country: US
  region: MN
  exchange: '090260'
  name: BOYD
  full_name: Boyd
  lata: '626'
  ilec_name: CITIZENS TELECOM CO MN-FRONTIER CITIZENS COM-MN
  lat: '44.851878'
  long: "-95.902128"
  closest_city:
    name: Boyd
    distance_km: 0.13
- country: US
  region: MN
  exchange: '090270'
  name: BRAHAM
  full_name: Braham
  lata: '628'
  ilec_name: QWEST CORPORATION
  lat: '45.722718'
  long: "-93.174738"
  closest_city:
    name: Braham
    distance_km: 0.24
- country: US
  region: MN
  exchange: '090280'
  name: BRAINERD
  full_name: Brainerd
  lata: '636'
  ilec_name: QWEST CORPORATION
  lat: '46.349447'
  long: "-94.199759"
  closest_city:
    name: Brainerd
    distance_km: 0.66
- country: US
  region: MN
  exchange: '090290'
  name: BRANDON
  full_name: Brandon
  lata: '626'
  ilec_name: GARDONVILLE COOP. TEL. ASSN.
  lat: '45.966338'
  long: "-95.600551"
  closest_city:
    name: Brandon
    distance_km: 0.46
- country: US
  region: MN
  exchange: '336730'
  name: BRATSBERG
  full_name: Bratsberg
  lata: '620'
  ilec_name: ACE TEL. ASSN. - MN
  lat:
  long:
- country: US
  region: MN
  exchange: '090300'
  name: BRECKENRDG
  full_name: Breckenridge
  lata: '636'
  ilec_name: QWEST CORPORATION
  lat: '46.267498'
  long: "-96.584591"
  closest_city:
    name: Breckenridge
    distance_km: 0.15
- country: US
  region: MN
  exchange: '090310'
  name: BREEZY PT
  full_name: Breezy Point
  lata: '636'
  ilec_name: ARVIG TEL. CO.
  lat: '46.592912'
  long: "-94.218546"
  closest_city:
    name: Breezy Point
    distance_km: 1.69
- country: US
  region: MN
  exchange: '338937'
  name: BREVIK
  full_name: Brevik
  lata: '636'
  ilec_name: JOHNSON TEL. CO.
  lat:
  long:
- country: US
  region: MN
  exchange: '090320'
  name: BREWSTER
  full_name: Brewster
  lata: '620'
  ilec_name: CENTURYTEL OF MINNESOTA, INC. DBA CENTURYLINK
  lat: '43.700104'
  long: "-95.465384"
  closest_city:
    name: Brewster
    distance_km: 0.32
- country: US
  region: MN
  exchange: '090330'
  name: BRICELYN
  full_name: Bricelyn
  lata: '620'
  ilec_name: CANNON VALLEY TELECOM, INC.
  lat: '43.558941'
  long: "-93.813082"
  closest_city:
    name: Bricelyn
    distance_km: 0.2
- country: US
  region: MN
  exchange: '090340'
  name: BRIMSON
  full_name: Brimson
  lata: '624'
  ilec_name: CITIZENS TELECOM CO MN-FRONTIER CITIZENS COM-MN
  lat: '47.24795'
  long: "-91.83243"
  closest_city:
    name: Two Harbors
    distance_km: 26.98
- country: US
  region: MN
  exchange: '337087'
  name: BRITT
  full_name: Britt
  lata: '624'
  ilec_name: QWEST CORPORATION
  lat:
  long:
- country: US
  region: MN
  exchange: '337466'
  name: BROOK PARK
  full_name: Brook Park
  lata: '628'
  ilec_name: QWEST CORPORATION
  lat:
  long:
- country: US
  region: MN
  exchange: '09538Q'
  name: BRKLYNCNTR
  full_name: Brooklyn Center
  lata: '628'
  ilec_name: QWEST CORPORATION
  lat:
  long:
- country: US
  region: MN
  exchange: '337467'
  name: BROOKLYNPK
  full_name: Brooklyn Park
  lata: '628'
  ilec_name: QWEST CORPORATION
  lat:
  long:
- country: US
  region: MN
  exchange: '090350'
  name: BROOKS
  full_name: Brooks
  lata: '636'
  ilec_name: GARDEN VALLEY TEL. CO.
  lat: '47.817932'
  long: "-96.001759"
  closest_city:
    name: Brooks
    distance_km: 0.21
- country: US
  region: MN
  exchange: '090360'
  name: BROOKSTON
  full_name: Brookston
  lata: '624'
  ilec_name: CITIZENS TELECOM CO MN-FRONTIER CITIZENS COM-MN
  lat: '46.867135'
  long: "-92.583022"
  closest_city:
    name: Brookston
    distance_km: 1.5
- country: US
  region: MN
  exchange: '090370'
  name: BROOTEN
  full_name: Brooten
  lata: '626'
  ilec_name: MID STATE TEL. CO.
  lat: '45.500845'
  long: "-95.121082"
  closest_city:
    name: Brooten
    distance_km: 0.43
- country: US
  region: MN
  exchange: '090380'
  name: BROWERVL
  full_name: Browerville
  lata: '626'
  ilec_name: CENTURYLINK OF MINNESOTA, INC.
  lat: '46.08886'
  long: "-94.867533"
  closest_city:
    name: Browerville
    distance_km: 0.96
- country: US
  region: MN
  exchange: '090390'
  name: BROWNS VLY
  full_name: Browns Valley
  lata: '626'
  ilec_name: VALLEY TEL. CO.
  lat: '45.601326'
  long: "-96.822069"
  closest_city:
    name: Browns Valley
    distance_km: 1.11
- country: US
  region: MN
  exchange: '090400'
  name: BROWNSDALE
  full_name: Brownsdale
  lata: '620'
  ilec_name: CITIZENS TELECOM CO MN-FRONTIER CITIZENS COM-MN
  lat: '43.743586'
  long: "-92.865427"
  closest_city:
    name: Brownsdale
    distance_km: 0.41
- country: US
  region: MN
  exchange: '090410'
  name: BROWNSVL
  full_name: Brownsville
  lata: '620'
  ilec_name: ACE TEL. ASSN. - MN
  lat: '43.694087'
  long: "-91.274856"
  closest_city:
    name: Brownsville
    distance_km: 0.84
- country: US
  region: MN
  exchange: '090420'
  name: BROWNTON
  full_name: Brownton
  lata: '628'
  ilec_name: CENTURYLINK OF MINNESOTA, INC.
  lat: '44.732324'
  long: "-94.347953"
  closest_city:
    name: Brownton
    distance_km: 0.23
- country: US
  region: MN
  exchange: '337469'
  name: BRUNO
  full_name: Bruno
  lata: '628'
  ilec_name: CITIZENS TELECOM CO MN-FRONTIER CITIZENS COM-MN
  lat:
  long:
- country: US
  region: MN
  exchange: '338939'
  name: BRUSHVALE
  full_name: Brushvale
  lata: '636'
  ilec_name: QWEST CORPORATION
  lat:
  long:
- country: US
  region: MN
  exchange: '337266'
  name: BUCKMAN
  full_name: Buckman
  lata: '626'
  ilec_name: CENTURYTEL OF MINNESOTA, INC. DBA CENTURYLINK
  lat:
  long:
- country: US
  region: MN
  exchange: '09538R'
  name: BUFFALO
  full_name: Buffalo
  lata: '628'
  ilec_name: QWEST CORPORATION
  lat:
  long:
- country: US
  region: MN
  exchange: '090430'
  name: BUFFALO LK
  full_name: Buffalo Lake
  lata: '628'
  ilec_name: CENTURYLINK OF MINNESOTA, INC.
  lat: '44.73658'
  long: "-94.619273"
  closest_city:
    name: Buffalo Lake
    distance_km: 0.18
- country: US
  region: MN
  exchange: '090440'
  name: BUHL
  full_name: Buhl
  lata: '624'
  ilec_name: QWEST CORPORATION
  lat: '47.499463'
  long: "-92.775231"
  closest_city:
    name: Buhl
    distance_km: 0.46
- country: US
  region: MN
  exchange: '336735'
  name: BURCHARD
  full_name: Burchard
  lata: '620'
  ilec_name: FRONTIER COMMUNICATIONS OF MINNESOTA, INC.
  lat:
  long:
- country: US
  region: MN
  exchange: '337090'
  name: BURNETT
  full_name: Burnett
  lata: '624'
  ilec_name: CITIZENS TELECOM CO MN-FRONTIER CITIZENS COM-MN
  lat:
  long:
- country: US
  region: MN
  exchange: '337472'
  name: BURNS TW
  full_name: Burns Township
  lata: '628'
  ilec_name: QWEST CORPORATION
  lat:
  long:
- country: US
  region: MN
  exchange: '09538D'
  name: BURNSVILLE
  full_name: Burnsville
  lata: '628'
  ilec_name: QWEST CORPORATION
  lat:
  long:
- country: US
  region: MN
  exchange: '336736'
  name: BURR
  full_name: Burr
  lata: '620'
  ilec_name: FRONTIER COMMUNICATIONS OF MINNESOTA, INC.
  lat:
  long:
- country: US
  region: MN
  exchange: '337267'
  name: BURTRUM
  full_name: Burtrum
  lata: '626'
  ilec_name: MELROSE TEL. CO.
  lat:
  long:
- country: US
  region: MN
  exchange: '338940'
  name: BUTLER
  full_name: Butler
  lata: '636'
  ilec_name: EAST OTTER TAIL TEL. CO.
  lat:
  long:
- country: US
  region: MN
  exchange: '090450'
  name: BUTTERFLD
  full_name: Butterfield
  lata: '620'
  ilec_name: CITIZENS TELECOM CO MN-FRONTIER CITIZENS COM-MN
  lat: '43.957561'
  long: "-94.789438"
  closest_city:
    name: Butterfield
    distance_km: 0.4
- country: US
  region: MN
  exchange: '337091'
  name: BUYCK
  full_name: Buyck
  lata: '624'
  ilec_name: CITIZENS TELECOM CO MN-FRONTIER CITIZENS COM-MN
  lat:
  long:
- country: US
  region: MN
  exchange: '090460'
  name: BYGLAND
  full_name: Bygland
  lata: '636'
  ilec_name: HALSTAD TEL. CO.
  lat: '47.807493'
  long: "-96.933174"
  closest_city:
    name: Fisher
    distance_km: 10.04
- country: US
  region: MN
  exchange: '090470'
  name: BYRON
  full_name: Byron
  lata: '620'
  ilec_name: CITIZENS TELECOM CO MN-FRONTIER CITIZENS COM-MN
  lat: '44.034018'
  long: "-92.652603"
  closest_city:
    name: Byron
    distance_km: 1.03
- country: US
  region: MN
  exchange: '090480'
  name: CALEDONIA
  full_name: Caledonia
  lata: '620'
  ilec_name: QWEST CORPORATION
  lat: '43.631453'
  long: "-91.491631"
  closest_city:
    name: Caledonia
    distance_km: 0.81
- country: US
  region: MN
  exchange: '090490'
  name: CALLAWAY
  full_name: Callaway
  lata: '636'
  ilec_name: CALLAWAY TEL. EXCH.
  lat: '46.983609'
  long: "-95.905527"
  closest_city:
    name: Callaway
    distance_km: 0.52
- country: US
  region: MN
  exchange: '093321'
  name: CALUMET
  full_name: Calumet
  lata: '624'
  ilec_name: QWEST CORPORATION
  lat:
  long:
- country: US
  region: MN
  exchange: '090500'
  name: CAMBRIA
  full_name: Cambria
  lata: '620'
  ilec_name: CONSOLIDATED COMMUNICATIONS MID-COM COMPANY - MN
  lat: '44.234942'
  long: "-94.309401"
  closest_city:
    name: Courtland
    distance_km: 4.9
- country: US
  region: MN
  exchange: '090510'
  name: CAMBRIDGE
  full_name: Cambridge
  lata: '628'
  ilec_name: QWEST CORPORATION
  lat: '45.576624'
  long: "-93.226378"
  closest_city:
    name: Cambridge
    distance_km: 1.72
- country: US
  region: MN
  exchange: '090520'
  name: CAMPBELL
  full_name: Campbell
  lata: '636'
  ilec_name: CENTURYTEL OF MINNESOTA, INC. DBA CENTURYLINK
  lat: '46.099117'
  long: "-96.398228"
  closest_city:
    name: Campbell
    distance_km: 0.59
- country: US
  region: MN
  exchange: '090530'
  name: CANBY
  full_name: Canby
  lata: '620'
  ilec_name: FRONTIER COMMUNICATIONS OF MINNESOTA, INC.
  lat: '44.709077'
  long: "-96.263997"
  closest_city:
    name: Canby
    distance_km: 0.85
- country: US
  region: MN
  exchange: '090540'
  name: CANNON FLS
  full_name: Cannon Falls
  lata: '620'
  ilec_name: CITIZENS TELECOM CO MN-FRONTIER CITIZENS COM-MN
  lat: '44.507499'
  long: "-92.911838"
  closest_city:
    name: Cannon Falls
    distance_km: 0.85
- country: US
  region: MN
  exchange: '090550'
  name: CANTON
  full_name: Canton
  lata: '620'
  ilec_name: ACE TEL. ASSN. - MN
  lat: '43.523426'
  long: "-91.932804"
  closest_city:
    name: Canton
    distance_km: 0.74
- country: US
  region: MN
  exchange: '337093'
  name: CANYON
  full_name: Canyon
  lata: '624'
  ilec_name: CITIZENS TELECOM CO MN-FRONTIER CITIZENS COM-MN
  lat:
  long:
- country: US
  region: MN
  exchange: '338944'
  name: CARLISLE
  full_name: Carlisle
  lata: '636'
  ilec_name: QWEST CORPORATION
  lat:
  long:
- country: US
  region: MN
  exchange: '090560'
  name: CARLOS
  full_name: Carlos
  lata: '626'
  ilec_name: CENTURYLINK OF MINNESOTA, INC.
  lat: '45.971592'
  long: "-95.297526"
  closest_city:
    name: Carlos
    distance_km: 0.46
- country: US
  region: MN
  exchange: '090570'
  name: CARLTON
  full_name: Carlton
  lata: '624'
  ilec_name: QWEST CORPORATION
  lat: '46.667836'
  long: "-92.42393"
  closest_city:
    name: Carlton
    distance_km: 1.43
- country: US
  region: MN
  exchange: '337475'
  name: CARVER
  full_name: Carver
  lata: '628'
  ilec_name: QWEST CORPORATION
  lat:
  long:
- country: US
  region: MN
  exchange: '090580'
  name: CASS LAKE
  full_name: Cass Lake
  lata: '636'
  ilec_name: QWEST CORPORATION
  lat: '47.375838'
  long: "-94.602203"
  closest_city:
    name: Cass Lake
    distance_km: 0.43
- country: US
  region: MN
  exchange: '336744'
  name: CASTLEROCK
  full_name: Castle Rock
  lata: '620'
  ilec_name: QWEST CORPORATION
  lat:
  long:
- country: US
  region: MN
  exchange: '336745'
  name: CAZENOVIA
  full_name: Cazenovia
  lata: '620'
  ilec_name: QWEST CORPORATION
  lat:
  long:
- country: US
  region: MN
  exchange: '337477'
  name: CEDAR
  full_name: Cedar
  lata: '628'
  ilec_name: QWEST CORPORATION
  lat:
  long:
- country: US
  region: MN
  exchange: '337476'
  name: CDR E BETH
  full_name: Cedar East Bethel
  lata: '628'
  ilec_name: QWEST CORPORATION
  lat:
  long:
- country: US
  region: MN
  exchange: '337478'
  name: CEDARMILLS
  full_name: Cedar Mills
  lata: '628'
  ilec_name: HUTCHINSON TEL. CO.
  lat:
  long:
- country: US
  region: MN
  exchange: '337479'
  name: CENTERCITY
  full_name: Center City
  lata: '628'
  ilec_name: CITIZENS TELECOM CO MN-FRONTIER CITIZENS COM-MN
  lat:
  long:
- country: US
  region: MN
  exchange: '337480'
  name: CENTERVL
  full_name: Centerville
  lata: '628'
  ilec_name: QWEST CORPORATION
  lat:
  long:
- country: US
  region: MN
  exchange: '090590'
  name: CERROGORDO
  full_name: Cerro Gordo
  lata: '626'
  ilec_name: FARMERS MUTUAL TEL. CO.
  lat: '45.034659'
  long: "-95.977127"
  closest_city:
    name: Milan
    distance_km: 10.08
- country: US
  region: MN
  exchange: '090600'
  name: CEYLON
  full_name: Ceylon
  lata: '620'
  ilec_name: FRONTIER COMMUNICATIONS OF MINNESOTA, INC.
  lat: '43.524894'
  long: "-94.633544"
  closest_city:
    name: Ceylon
    distance_km: 0.92
- country: US
  region: MN
  exchange: '337481'
  name: CHAMPLIN
  full_name: Champlin
  lata: '628'
  ilec_name: QWEST CORPORATION
  lat:
  long:
- country: US
  region: MN
  exchange: '090610'
  name: CHANDLER
  full_name: Chandler
  lata: '620'
  ilec_name: FRONTIER COMMUNICATIONS OF MINNESOTA, INC.
  lat: '43.933504'
  long: "-95.949235"
  closest_city:
    name: Chandler
    distance_km: 0.36
- country: US
  region: MN
  exchange: '337482'
  name: CHANHASSEN
  full_name: Chanhassen
  lata: '628'
  ilec_name: QWEST CORPORATION
  lat:
  long:
- country: US
  region: MN
  exchange: '337270'
  name: CHARLESVL
  full_name: Charlesville
  lata: '626'
  ilec_name: RUNESTONE TELEPHONE ASSOCIATION
  lat:
  long:
- country: US
  region: MN
  exchange: '090620'
  name: CHASKA
  full_name: Chaska
  lata: '628'
  ilec_name: CENTURYLINK OF MINNESOTA, INC.
  lat: '44.798666'
  long: "-93.602106"
  closest_city:
    name: Chaska
    distance_km: 2.05
- country: US
  region: MN
  exchange: '090630'
  name: CHATFIELD
  full_name: Chatfield
  lata: '620'
  ilec_name: QWEST CORPORATION
  lat: '43.847354'
  long: "-92.191257"
  closest_city:
    name: Chatfield
    distance_km: 0.74
- country: US
  region: MN
  exchange: '090640'
  name: CHERRY GRV
  full_name: Cherry Grove
  lata: '620'
  ilec_name: CITIZENS TELECOM CO MN-FRONTIER CITIZENS COM-MN
  lat: '43.585229'
  long: "-92.276471"
  closest_city:
    name: Ostrander
    distance_km: 12.47
- country: US
  region: MN
  exchange: '336750'
  name: CHESTER
  full_name: Chester
  lata: '620'
  ilec_name: QWEST CORPORATION
  lat:
  long:
- country: US
  region: MN
  exchange: '337484'
  name: CHISAGO CY
  full_name: Chisago City
  lata: '628'
  ilec_name: CITIZENS TELECOM CO MN-FRONTIER CITIZENS COM-MN
  lat:
  long:
- country: US
  region: MN
  exchange: '090650'
  name: CHISHOLM
  full_name: Chisholm
  lata: '624'
  ilec_name: QWEST CORPORATION
  lat: '47.49099'
  long: "-92.877683"
  closest_city:
    name: Chisholm
    distance_km: 0.37
- country: US
  region: MN
  exchange: '090660'
  name: CHOKIO
  full_name: Chokio
  lata: '626'
  ilec_name: FEDERATED TEL. COOP.
  lat: '45.573871'
  long: "-96.174736"
  closest_city:
    name: Chokio
    distance_km: 0.1
- country: US
  region: MN
  exchange: '337485'
  name: CIRCLEPINS
  full_name: Circle Pines
  lata: '628'
  ilec_name: QWEST CORPORATION
  lat:
  long:
- country: US
  region: MN
  exchange: '090670'
  name: CLARA CITY
  full_name: Clara City
  lata: '626'
  ilec_name: CLARA CITY TEL. EXCH. CO.
  lat: '44.957748'
  long: "-95.37035"
  closest_city:
    name: Clara City
    distance_km: 0.26
- country: US
  region: MN
  exchange: '090680'
  name: CLAREMONT
  full_name: Claremont
  lata: '620'
  ilec_name: CITIZENS TELECOM CO MN-FRONTIER CITIZENS COM-MN
  lat: '44.042147'
  long: "-92.997554"
  closest_city:
    name: Claremont
    distance_km: 0.31
- country: US
  region: MN
  exchange: '090690'
  name: CLARISSA
  full_name: Clarissa
  lata: '636'
  ilec_name: EAGLE VALLEY TEL. CO.
  lat: '46.133253'
  long: "-94.947719"
  closest_city:
    name: Clarissa
    distance_km: 0.55
- country: US
  region: MN
  exchange: '090700'
  name: CLARKFIELD
  full_name: Clarkfield
  lata: '626'
  ilec_name: CITIZENS TELECOM CO MN-FRONTIER CITIZENS COM-MN
  lat: '44.794227'
  long: "-95.810127"
  closest_city:
    name: Clarkfield
    distance_km: 0.43
- country: US
  region: MN
  exchange: '090710'
  name: CLARKS GRV
  full_name: Clarks Grove
  lata: '620'
  ilec_name: CITIZENS TELECOM CO MN-FRONTIER CITIZENS COM-MN
  lat: '43.768539'
  long: "-93.323041"
  closest_city:
    name: Clarks Grove
    distance_km: 0.88
- country: US
  region: MN
  exchange: '337486'
  name: CLAYBANK
  full_name: Claybank
  lata: '628'
  ilec_name: SLEEPY EYE TEL. CO.
  lat:
  long:
- country: US
  region: MN
  exchange: '090720'
  name: CLEAR LAKE
  full_name: Clear Lake
  lata: '626'
  ilec_name: CITIZENS TELECOM CO MN-FRONTIER CITIZENS COM-MN
  lat: '45.452145'
  long: "-93.99935"
  closest_city:
    name: Clear Lake
    distance_km: 0.64
- country: US
  region: MN
  exchange: '090730'
  name: CLEARBROOK
  full_name: Clearbrook
  lata: '636'
  ilec_name: GARDEN VALLEY TEL. CO.
  lat: '47.692893'
  long: "-95.424193"
  closest_city:
    name: Clearbrook
    distance_km: 0.53
- country: US
  region: MN
  exchange: '090740'
  name: CLEARWATER
  full_name: Clearwater
  lata: '626'
  ilec_name: CITIZENS TELECOM CO MN-FRONTIER CITIZENS COM-MN
  lat: '45.417362'
  long: "-94.049723"
  closest_city:
    name: Clearwater
    distance_km: 0.89
- country: US
  region: MN
  exchange: '090750'
  name: CLEMENTS
  full_name: Clements
  lata: '620'
  ilec_name: CLEMENTS TEL. CO.
  lat: '44.381529'
  long: "-95.050039"
  closest_city:
    name: Clements
    distance_km: 0.41
- country: US
  region: MN
  exchange: '338948'
  name: CLEMENTSON
  full_name: Clementson
  lata: '636'
  ilec_name: CENTURYTEL OF MINNESOTA, INC. DBA CENTURYLINK
  lat:
  long:
- country: US
  region: MN
  exchange: '336754'
  name: CLEVELAND
  full_name: Cleveland
  lata: '620'
  ilec_name: QWEST CORPORATION
  lat:
  long:
- country: US
  region: MN
  exchange: '090760'
  name: CLIMAX
  full_name: Climax
  lata: '636'
  ilec_name: HALSTAD TEL. CO.
  lat: '47.610719'
  long: "-96.816285"
  closest_city:
    name: Climax
    distance_km: 0.33
- country: US
  region: MN
  exchange: '090770'
  name: CLINTON
  full_name: Clinton
  lata: '626'
  ilec_name: CENTURYTEL OF MINNESOTA, INC. DBA CENTURYLINK
  lat: '45.458882'
  long: "-96.432319"
  closest_city:
    name: Clinton
    distance_km: 0.86
- country: US
  region: MN
  exchange: '338950'
  name: CLITHERALL
  full_name: Clitherall
  lata: '636'
  ilec_name: QWEST CORPORATION
  lat:
  long:
- country: US
  region: MN
  exchange: '337277'
  name: CLONTARF
  full_name: Clontarf
  lata: '626'
  ilec_name: CENTURYLINK OF MINNESOTA, INC.
  lat:
  long:
- country: US
  region: MN
  exchange: '090780'
  name: CLOQUET
  full_name: Cloquet
  lata: '624'
  ilec_name: QWEST CORPORATION
  lat: '46.714685'
  long: "-92.458283"
  closest_city:
    name: Scanlon
    distance_km: 2.43
- country: US
  region: MN
  exchange: '090790'
  name: CLOVERTON
  full_name: Cloverton
  lata: '352'
  ilec_name: BRIGHTSPEED OF NORTHWEST WISCONSIN, LLC
  lat: '46.16783'
  long: "-92.315752"
  closest_city:
    name: Kerrick
    distance_km: 28.05
- country: US
  region: MN
  exchange: '337487'
  name: COATES
  full_name: Coates
  lata: '628'
  ilec_name: CENTURYLINK OF MINNESOTA, INC.
  lat:
  long:
- country: US
  region: MN
  exchange: '336755'
  name: COBDEN
  full_name: Cobden
  lata: '620'
  ilec_name: SLEEPY EYE TEL. CO.
  lat:
  long:
- country: US
  region: MN
  exchange: '091991'
  name: COHASSET
  full_name: Cohasset
  lata: '624'
  ilec_name: QWEST CORPORATION
  lat:
  long:
- country: US
  region: MN
  exchange: '090800'
  name: COKATO
  full_name: Cokato
  lata: '628'
  ilec_name: CENTURYLINK OF MINNESOTA, INC.
  lat: '45.077322'
  long: "-94.191191"
  closest_city:
    name: Cokato
    distance_km: 0.28
- country: US
  region: MN
  exchange: '090810'
  name: COLDSPRING
  full_name: Cold Spring
  lata: '626'
  ilec_name: QWEST CORPORATION
  lat: '45.451433'
  long: "-94.434091"
  closest_city:
    name: Cold Spring
    distance_km: 0.71
- country: US
  region: MN
  exchange: '090820'
  name: COLERAINE
  full_name: Coleraine
  lata: '624'
  ilec_name: QWEST CORPORATION
  lat: '47.293209'
  long: "-93.432894"
  closest_city:
    name: Bovey
    distance_km: 2.23
- country: US
  region: MN
  exchange: '337279'
  name: COLLEGEVL
  full_name: Collegeville
  lata: '626'
  ilec_name: QWEST CORPORATION
  lat:
  long:
- country: US
  region: MN
  exchange: '337280'
  name: COLLIS
  full_name: Collis
  lata: '626'
  ilec_name: CENTURYTEL OF MINNESOTA, INC. DBA CENTURYLINK
  lat:
  long:
- country: US
  region: MN
  exchange: '090621'
  name: COLOGNE
  full_name: Cologne
  lata: '628'
  ilec_name: CENTURYLINK OF MINNESOTA, INC.
  lat: '44.770308'
  long: "-93.782258"
  closest_city:
    name: Cologne
    distance_km: 0.86
- country: US
  region: MN
  exchange: '337490'
  name: COLUMBIHTS
  full_name: Columbia Heights
  lata: '628'
  ilec_name: QWEST CORPORATION
  lat:
  long:
- country: US
  region: MN
  exchange: '337491'
  name: COLUMBUS
  full_name: Columbus
  lata: '628'
  ilec_name: QWEST CORPORATION
  lat:
  long:
- country: US
  region: MN
  exchange: '090830'
  name: COMFREY
  full_name: Comfrey
  lata: '620'
  ilec_name: CITIZENS TELECOM CO MN-FRONTIER CITIZENS COM-MN
  lat: '44.108283'
  long: "-94.900393"
  closest_city:
    name: Comfrey
    distance_km: 0.37
- country: US
  region: MN
  exchange: '090840'
  name: COMSTOCK
  full_name: Comstock
  lata: '636'
  ilec_name: QWEST CORPORATION
  lat: '46.656959'
  long: "-96.742821"
  closest_city:
    name: Comstock
    distance_km: 0.41
- country: US
  region: MN
  exchange: '090850'
  name: CONGER
  full_name: Conger
  lata: '620'
  ilec_name: WINNEBAGO COOP. TEL. ASSN. - MN
  lat: '43.61723'
  long: "-93.541945"
  closest_city:
    name: Conger
    distance_km: 1.18
- country: US
  region: MN
  exchange: '337492'
  name: CONSTANCE
  full_name: Constance
  lata: '628'
  ilec_name: QWEST CORPORATION
  lat:
  long:
- country: US
  region: MN
  exchange: '090860'
  name: COOK
  full_name: Cook
  lata: '624'
  ilec_name: QWEST CORPORATION
  lat: '47.850421'
  long: "-92.69171"
  closest_city:
    name: Cook
    distance_km: 1.05
- country: US
  region: MN
  exchange: '337100'
  name: COOLEY
  full_name: Cooley
  lata: '624'
  ilec_name: QWEST CORPORATION
  lat:
  long:
- country: US
  region: MN
  exchange: '337493'
  name: COON CREEK
  full_name: Coon Creek
  lata: '628'
  ilec_name: QWEST CORPORATION
  lat:
  long:
- country: US
  region: MN
  exchange: '09538S'
  name: COONRAPIDS
  full_name: Coon Rapids
  lata: '628'
  ilec_name: QWEST CORPORATION
  lat:
  long:
- country: US
  region: MN
  exchange: '337495'
  name: COPAS
  full_name: Copas
  lata: '628'
  ilec_name: CITIZENS TELECOM CO MN-FRONTIER CITIZENS COM-MN
  lat:
  long:
- country: US
  region: MN
  exchange: '337496'
  name: CORCORAN
  full_name: Corcoran
  lata: '628'
  ilec_name: QWEST CORPORATION
  lat:
  long:
- country: US
  region: MN
  exchange: '090870'
  name: CORMORANT
  full_name: Cormorant
  lata: '636'
  ilec_name: LORETEL SYSTEMS, INC.
  lat: '46.736087'
  long: "-96.055209"
  closest_city:
    name: Audubon
    distance_km: 15.27
- country: US
  region: MN
  exchange: '336758'
  name: CORNING
  full_name: Corning
  lata: '620'
  ilec_name: QWEST CORPORATION
  lat:
  long:
- country: US
  region: MN
  exchange: '090880'
  name: CORRELL
  full_name: Correll
  lata: '626'
  ilec_name: FEDERATED TEL. COOP.
  lat: '45.232868'
  long: "-96.155943"
  closest_city:
    name: Correll
    distance_km: 0.54
- country: US
  region: MN
  exchange: '337282'
  name: CORVUSO
  full_name: Corvuso
  lata: '626'
  ilec_name: QWEST CORPORATION
  lat:
  long:
- country: US
  region: MN
  exchange: '090890'
  name: COSMOS
  full_name: Cosmos
  lata: '626'
  ilec_name: CITIZENS TELECOM CO MN-FRONTIER CITIZENS COM-MN
  lat: '44.934678'
  long: "-94.688342"
  closest_city:
    name: Cosmos
    distance_km: 0.52
- country: US
  region: MN
  exchange: '095387'
  name: COTTAGEGRV
  full_name: Cottage Grove
  lata: '628'
  ilec_name: QWEST CORPORATION
  lat:
  long:
- country: US
  region: MN
  exchange: '090900'
  name: COTTON
  full_name: Cotton
  lata: '624'
  ilec_name: ARROWHEAD COMMUNICATIONS CORP.
  lat: '47.166678'
  long: "-92.482662"
  closest_city:
    name: Meadowlands
    distance_km: 21.49
- country: US
  region: MN
  exchange: '090910'
  name: COTTONWOOD
  full_name: Cottonwood
  lata: '620'
  ilec_name: CITIZENS TELECOM CO MN-FRONTIER CITIZENS COM-MN
  lat: '44.597723'
  long: "-95.674252"
  closest_city:
    name: Cottonwood
    distance_km: 1.43
- country: US
  region: MN
  exchange: '336760'
  name: COURTLAND
  full_name: Courtland
  lata: '620'
  ilec_name: NEW ULM TELECOM, INC.
  lat:
  long:
- country: US
  region: MN
  exchange: '337102'
  name: CRAIGVILLE
  full_name: Craigville
  lata: '624'
  ilec_name: PEOPLES TEL. CO.
  lat:
  long:
- country: US
  region: MN
  exchange: '090920'
  name: CRANE LAKE
  full_name: Crane Lake
  lata: '624'
  ilec_name: CITIZENS TELECOM CO MN-FRONTIER CITIZENS COM-MN
  lat: '48.124411'
  long: "-92.52469"
  closest_city:
    name: Orr
    distance_km: 23.44
- country: US
  region: MN
  exchange: '090930'
  name: CROMWELL
  full_name: Cromwell
  lata: '624'
  ilec_name: CITIZENS TELECOM CO MN-FRONTIER CITIZENS COM-MN
  lat: '46.682843'
  long: "-92.883251"
  closest_city:
    name: Cromwell
    distance_km: 0.86
- country: US
  region: MN
  exchange: '090940'
  name: CROOKSTON
  full_name: Crookston
  lata: '636'
  ilec_name: QWEST CORPORATION
  lat: '47.775606'
  long: "-96.600489"
  closest_city:
    name: Crookston
    distance_km: 0.44
- country: US
  region: MN
  exchange: '090950'
  name: CROSBY
  full_name: Crosby
  lata: '636'
  ilec_name: CENTURYLINK OF MINNESOTA, INC.
  lat: '46.481629'
  long: "-93.955839"
  closest_city:
    name: Crosby
    distance_km: 0.85
- country: US
  region: MN
  exchange: '090960'
  name: CROSS LAKE
  full_name: Crosslake
  lata: '636'
  ilec_name: TRI-CO TECHNOLOGIES, LLC DBA CROSSLAKE COMM
  lat: '46.667284'
  long: "-94.098224"
  closest_city:
    name: Manhattan Beach
    distance_km: 8.37
- country: US
  region: MN
  exchange: '338956'
  name: CROW WING
  full_name: Crow Wing
  lata: '636'
  ilec_name: QWEST CORPORATION
  lat:
  long:
- country: US
  region: MN
  exchange: '09538I'
  name: CRYSTAL
  full_name: Crystal
  lata: '628'
  ilec_name: QWEST CORPORATION
  lat:
  long:
- country: US
  region: MN
  exchange: '337499'
  name: CRYSTALBAY
  full_name: Crystal Bay
  lata: '628'
  ilec_name: QWEST CORPORATION
  lat:
  long:
- country: US
  region: MN
  exchange: '337105'
  name: CULVER
  full_name: Culver
  lata: '624'
  ilec_name: CITIZENS TELECOM CO MN-FRONTIER CITIZENS COM-MN
  lat:
  long:
- country: US
  region: MN
  exchange: '090970'
  name: CURRIE
  full_name: Currie
  lata: '620'
  ilec_name: FRONTIER COMMUNICATIONS OF MINNESOTA, INC.
  lat: '44.067744'
  long: "-95.664814"
  closest_city:
    name: Currie
    distance_km: 0.34
- country: US
  region: MN
  exchange: '337284'
  name: CUSHING
  full_name: Cushing
  lata: '626'
  ilec_name: CONSOLIDATED TEL. CO.
  lat:
  long:
- country: US
  region: MN
  exchange: '337106'
  name: CUSSON
  full_name: Cusson
  lata: '624'
  ilec_name: CENTURYTEL OF MINNESOTA, INC. DBA CENTURYLINK
  lat:
  long:
- country: US
  region: MN
  exchange: '338957'
  name: CUYUNA
  full_name: Cuyuna
  lata: '636'
  ilec_name: CENTURYLINK OF MINNESOTA, INC.
  lat:
  long:
- country: US
  region: MN
  exchange: '338958'
  name: CYPHERS
  full_name: Cyphers
  lata: '636'
  ilec_name: EAST OTTER TAIL TEL. CO.
  lat:
  long:
- country: US
  region: MN
  exchange: '090980'
  name: CYRUS
  full_name: Cyrus
  lata: '626'
  ilec_name: RUNESTONE TELEPHONE ASSOCIATION
  lat: '45.614215'
  long: "-95.733423"
  closest_city:
    name: Cyrus
    distance_km: 0.37
- country: US
  region: MN
  exchange: '090990'
  name: DAKOTA
  full_name: Dakota
  lata: '620'
  ilec_name: ACE TEL. ASSN. - MN
  lat: '43.907964'
  long: "-91.357802"
  closest_city:
    name: Dakota
    distance_km: 0.36
- country: US
  region: MN
  exchange: '337500'
  name: DALBO
  full_name: Dalbo
  lata: '628'
  ilec_name: QWEST CORPORATION
  lat:
  long:
- country: US
  region: MN
  exchange: '338959'
  name: DALE
  full_name: Dale
  lata: '636'
  ilec_name: QWEST CORPORATION
  lat:
  long:
- country: US
  region: MN
  exchange: '091000'
  name: DALTON
  full_name: Dalton
  lata: '636'
  ilec_name: PARK REGION MUTUAL TEL. CO.
  lat: '46.177591'
  long: "-95.909264"
  closest_city:
    name: Dalton
    distance_km: 0.63
- country: US
  region: MN
  exchange: '091010'
  name: DANUBE
  full_name: Danube
  lata: '626'
  ilec_name: MID STATE TEL. CO. DBA KMP TEL. CO.
  lat: '44.785202'
  long: "-95.101865"
  closest_city:
    name: Danube
    distance_km: 0.65
- country: US
  region: MN
  exchange: '091020'
  name: DANVERS
  full_name: Danvers
  lata: '626'
  ilec_name: FEDERATED TEL. COOP.
  lat: '45.28388'
  long: "-95.753101"
  closest_city:
    name: Danvers
    distance_km: 0.35
- country: US
  region: MN
  exchange: '336763'
  name: DARFUR
  full_name: Darfur
  lata: '620'
  ilec_name: CITIZENS TELECOM CO MN-FRONTIER CITIZENS COM-MN
  lat:
  long:
- country: US
  region: MN
  exchange: '337288'
  name: DARLING
  full_name: Darling
  lata: '626'
  ilec_name: QWEST CORPORATION
  lat:
  long:
- country: US
  region: MN
  exchange: '337289'
  name: DARWIN
  full_name: Darwin
  lata: '626'
  ilec_name: QWEST CORPORATION
  lat:
  long:
- country: US
  region: MN
  exchange: '091030'
  name: DASSEL
  full_name: Dassel
  lata: '628'
  ilec_name: CENTURYLINK OF MINNESOTA, INC.
  lat: '45.079303'
  long: "-94.310204"
  closest_city:
    name: Dassel
    distance_km: 0.57
- country: US
  region: MN
  exchange: '091040'
  name: DAWSON
  full_name: Dawson
  lata: '626'
  ilec_name: FRONTIER COMMUNICATIONS OF MINNESOTA, INC.
  lat: '44.933226'
  long: "-96.057362"
  closest_city:
    name: Dawson
    distance_km: 0.72
- country: US
  region: MN
  exchange: '337502'
  name: DAY
  full_name: Day
  lata: '628'
  ilec_name: QWEST CORPORATION
  lat:
  long:
- country: US
  region: MN
  exchange: '337503'
  name: DAYTON
  full_name: Dayton
  lata: '628'
  ilec_name: CENTURYLINK OF MINNESOTA, INC.
  lat:
  long:
- country: US
  region: MN
  exchange: '337291'
  name: DE GRAFF
  full_name: De Graff
  lata: '626'
  ilec_name: CENTURYLINK OF MINNESOTA, INC.
  lat:
  long:
- country: US
  region: MN
  exchange: '337504'
  name: DEEPHAVEN
  full_name: Deephaven
  lata: '628'
  ilec_name: QWEST CORPORATION
  lat:
  long:
- country: US
  region: MN
  exchange: '091050'
  name: DEER CREEK
  full_name: Deer Creek
  lata: '636'
  ilec_name: EAST OTTER TAIL TEL. CO.
  lat: '46.389107'
  long: "-95.314871"
  closest_city:
    name: Deer Creek
    distance_km: 0.56
- country: US
  region: MN
  exchange: '091060'
  name: DEER RIVER
  full_name: Deer River
  lata: '624'
  ilec_name: PAUL BUNYAN RURAL TEL. COOP.
  lat: '47.334457'
  long: "-93.796866"
  closest_city:
    name: Deer River
    distance_km: 0.6
- country: US
  region: MN
  exchange: '091070'
  name: DEERWOOD
  full_name: Deerwood
  lata: '636'
  ilec_name: CENTURYLINK OF MINNESOTA, INC.
  lat: '46.475071'
  long: "-93.901984"
  closest_city:
    name: Deerwood
    distance_km: 0.29
- country: US
  region: MN
  exchange: '093682'
  name: DELANO
  full_name: Delano
  lata: '628'
  ilec_name: CITIZENS TELECOM CO MN-FRONTIER CITIZENS COM-MN
  lat:
  long:
- country: US
  region: MN
  exchange: '091080'
  name: DELAVAN
  full_name: Delavan
  lata: '620'
  ilec_name: THE EASTON TELEPHONE COMPANY
  lat: '43.76488'
  long: "-94.026282"
  closest_city:
    name: Delavan
    distance_km: 0.78
- country: US
  region: MN
  exchange: '091090'
  name: DELFT
  full_name: Delft
  lata: '620'
  ilec_name: CITIZENS TELECOM CO MN-FRONTIER CITIZENS COM-MN
  lat: '43.982038'
  long: "-95.093161"
  closest_city:
    name: Bingham Lake
    distance_km: 8.91
- country: US
  region: MN
  exchange: '336766'
  name: DELHI
  full_name: Delhi
  lata: '620'
  ilec_name: QWEST CORPORATION
  lat:
  long:
- country: US
  region: MN
  exchange: '337506'
  name: DELLWOOD
  full_name: Dellwood
  lata: '628'
  ilec_name: QWEST CORPORATION
  lat:
  long:
- country: US
  region: MN
  exchange: '091100'
  name: DENHAM
  full_name: Denham
  lata: '624'
  ilec_name: CITIZENS TELECOM CO MN-FRONTIER CITIZENS COM-MN
  lat: '46.35878'
  long: "-92.95278"
  closest_city:
    name: Denham
    distance_km: 0.92
- country: US
  region: MN
  exchange: '336767'
  name: DENNISON
  full_name: Dennison
  lata: '620'
  ilec_name: QWEST CORPORATION
  lat:
  long:
- country: US
  region: MN
  exchange: '091110'
  name: DENT
  full_name: Dent
  lata: '636'
  ilec_name: EAST OTTER TAIL TEL. CO.
  lat: '46.557519'
  long: "-95.716147"
  closest_city:
    name: Dent
    distance_km: 0.54
- country: US
  region: MN
  exchange: '091120'
  name: DETROITLKS
  full_name: Detroit Lakes
  lata: '636'
  ilec_name: QWEST CORPORATION
  lat: '46.816493'
  long: "-95.847694"
  closest_city:
    name: Detroit Lakes
    distance_km: 1.19
- country: US
  region: MN
  exchange: '091130'
  name: DEXTER
  full_name: Dexter
  lata: '620'
  ilec_name: CITIZENS TELECOM CO MN-FRONTIER CITIZENS COM-MN
  lat: '43.716378'
  long: "-92.708468"
  closest_city:
    name: Dexter
    distance_km: 0.64
- country: US
  region: MN
  exchange: '093601'
  name: DILWORTH
  full_name: Dilworth
  lata: '636'
  ilec_name: QWEST CORPORATION
  lat: '46.867314'
  long: "-96.763083"
  closest_city:
    name: Moorhead
    distance_km: 1.29
- country: US
  region: MN
  exchange: '091140'
  name: DODGE CTR
  full_name: Dodge Center
  lata: '620'
  ilec_name: CITIZENS TELECOM CO MN-FRONTIER CITIZENS COM-MN
  lat: '44.031207'
  long: "-92.857529"
  closest_city:
    name: Dodge Center
    distance_km: 0.55
- country: US
  region: MN
  exchange: '091150'
  name: DONALDSON
  full_name: Donaldson
  lata: '636'
  ilec_name: WIKSTROM TEL. CO., INC.
  lat: '48.568565'
  long: "-96.889729"
  closest_city:
    name: Donaldson
    distance_km: 0.99
- country: US
  region: MN
  exchange: '091160'
  name: DONNELLY
  full_name: Donnelly
  lata: '626'
  ilec_name: RUNESTONE TELEPHONE ASSOCIATION
  lat: '45.698586'
  long: "-96.002179"
  closest_city:
    name: Donnelly
    distance_km: 1.38
- country: US
  region: MN
  exchange: '095012'
  name: DORA LAKE
  full_name: Dora Lake
  lata: '636'
  ilec_name: PAUL BUNYAN RURAL TEL. COOP.
  lat:
  long:
- country: US
  region: MN
  exchange: '338967'
  name: DORAN
  full_name: Doran
  lata: '636'
  ilec_name: QWEST CORPORATION
  lat:
  long:
- country: US
  region: MN
  exchange: '338968'
  name: DOROTHY
  full_name: Dorothy
  lata: '636'
  ilec_name: GARDEN VALLEY TEL. CO.
  lat:
  long:
- country: US
  region: MN
  exchange: '338969'
  name: DORSET
  full_name: Dorset
  lata: '636'
  ilec_name: QWEST CORPORATION
  lat:
  long:
- country: US
  region: MN
  exchange: '336770'
  name: DOTSON
  full_name: Dotson
  lata: '620'
  ilec_name: WESTERN TEL. CO.
  lat:
  long:
- country: US
  region: MN
  exchange: '336771'
  name: DOUGLAS
  full_name: Douglas
  lata: '620'
  ilec_name: QWEST CORPORATION
  lat:
  long:
- country: US
  region: MN
  exchange: '336772'
  name: DOVER
  full_name: Dover
  lata: '620'
  ilec_name: QWEST CORPORATION
  lat:
  long:
- country: US
  region: MN
  exchange: '336773'
  name: DOVRAY
  full_name: Dovray
  lata: '620'
  ilec_name: CENTURYTEL OF MINNESOTA, INC. DBA CENTURYLINK
  lat:
  long:
- country: US
  region: MN
  exchange: '338970'
  name: DOWNER
  full_name: Downer
  lata: '636'
  ilec_name: QWEST CORPORATION
  lat:
  long:
- country: US
  region: MN
  exchange: '336775'
  name: DRESBACH
  full_name: Dresbach
  lata: '620'
  ilec_name: ACE TEL. ASSN. - MN
  lat:
  long:
- country: US
  region: MN
  exchange: '336776'
  name: DUDLEY
  full_name: Dudley
  lata: '620'
  ilec_name: QWEST CORPORATION
  lat:
  long:
- country: US
  region: MN
  exchange: '091170'
  name: DULUTH
  full_name: Duluth
  lata: '624'
  ilec_name: QWEST CORPORATION
  lat: '46.783152'
  long: "-92.102484"
  closest_city:
    name: Duluth
    distance_km: 2.93
- country: US
  region: MN
  exchange: '337293'
  name: DUMONT
  full_name: Dumont
  lata: '626'
  ilec_name: CITIZENS TELECOM CO MN-FRONTIER CITIZENS COM-MN
  lat:
  long:
- country: US
  region: MN
  exchange: '336777'
  name: DUNDAS
  full_name: Dundas
  lata: '620'
  ilec_name: QWEST CORPORATION
  lat:
  long:
- country: US
  region: MN
  exchange: '091180'
  name: DUNDEE
  full_name: Dundee
  lata: '620'
  ilec_name: CENTURYTEL OF MINNESOTA, INC. DBA CENTURYLINK
  lat: '43.851286'
  long: "-95.466746"
  closest_city:
    name: Dundee
    distance_km: 0.81
- country: US
  region: MN
  exchange: '091190'
  name: DUNNELL
  full_name: Dunnell
  lata: '620'
  ilec_name: DUNNELL TEL. CO.
  lat: '43.558644'
  long: "-94.771687"
  closest_city:
    name: Dunnell
    distance_km: 0.34
- country: US
  region: MN
  exchange: '337110'
  name: DUQUETTE
  full_name: Duquette
  lata: '624'
  ilec_name: CITIZENS TELECOM CO MN-FRONTIER CITIZENS COM-MN
  lat:
  long:
- country: US
  region: MN
  exchange: '095383'
  name: EAGAN
  full_name: Eagan
  lata: '628'
  ilec_name: QWEST CORPORATION
  lat:
  long:
- country: US
  region: MN
  exchange: '091200'
  name: EAGLE BEND
  full_name: Eagle Bend
  lata: '636'
  ilec_name: MIDWEST TEL. CO.
  lat: '46.169098'
  long: "-95.033267"
  closest_city:
    name: Eagle Bend
    distance_km: 0.54
- country: US
  region: MN
  exchange: '091210'
  name: EAGLE LAKE
  full_name: Eagle Lake
  lata: '620'
  ilec_name: CONSOLIDATED COMMUNICATIONS MID-COM COMPANY - MN
  lat: '44.166783'
  long: "-93.890869"
  closest_city:
    name: Eagle Lake
    distance_km: 0.77
- country: US
  region: MN
  exchange: '091220'
  name: EABERCROMB
  full_name: East Abercrombie
  lata: '636'
  ilec_name: RED RIVER RURAL TEL ASSN DBA RED RIVER COMM - MN
  lat: '46.449138'
  long: "-96.714062"
  closest_city:
    name: Kent
    distance_km: 2.69
- country: US
  region: MN
  exchange: '337508'
  name: EASTBETHEL
  full_name: East Bethel
  lata: '628'
  ilec_name: QWEST CORPORATION
  lat:
  long:
- country: US
  region: MN
  exchange: '091230'
  name: EAST CHAIN
  full_name: East Chain
  lata: '620'
  ilec_name: FRONTIER COMMUNICATIONS OF MINNESOTA, INC.
  lat: '43.56864'
  long: "-94.359427"
  closest_city:
    name: Fairmont
    distance_km: 11.78
- country: US
  region: MN
  exchange: '091240'
  name: E DRAYTON
  full_name: East Drayton
  lata: '636'
  ilec_name: POLAR COMMUN MUTUAL AID CORP.
  lat: '48.557654'
  long: "-97.163604"
  closest_city:
    name: Donaldson
    distance_km: 19.55
- country: US
  region: MN
  exchange: '091250'
  name: EASTELKTON
  full_name: East Elkton
  lata: '640'
  ilec_name: INTERSTATE TELECOM COOP, INC. - SD
  lat: '44.234588'
  long: "-96.452367"
  closest_city:
    name: Lake Benton
    distance_km: 13.41
- country: US
  region: MN
  exchange: '091260'
  name: EFAIRMOUNT
  full_name: East Fairmount
  lata: '636'
  ilec_name: RED RIVER RURAL TEL ASSN DBA RED RIVER COMM - MN
  lat: '46.059628'
  long: "-96.556598"
  closest_city:
    name: Campbell
    distance_km: 12.4
- country: US
  region: MN
  exchange: '091270'
  name: EGARRETSON
  full_name: East Garretson
  lata: '640'
  ilec_name: ALLIANCE COMM. COOPERATIVE, INC. (SPLIT ROCK)
  lat: '43.708141'
  long: "-96.447919"
  closest_city:
    name: Beaver Creek
    distance_km: 12.68
- country: US
  region: MN
  exchange: '091280'
  name: EAST GARY
  full_name: East Gary
  lata: '640'
  ilec_name: INTERSTATE TELECOM COOP, INC. - SD
  lat: '44.794444'
  long: "-96.451599"
  closest_city:
    name: Canby
    distance_km: 16.86
- country: US
  region: MN
  exchange: '091290'
  name: EGRNDFORKS
  full_name: East Grand Forks
  lata: '636'
  ilec_name: QWEST CORPORATION
  lat: '47.93547'
  long: "-97.018332"
  closest_city:
    name: East Grand Forks
    distance_km: 0.84
- country: US
  region: MN
  exchange: '338972'
  name: E GULLLAKE
  full_name: East Gull Lake
  lata: '636'
  ilec_name: QWEST CORPORATION
  lat:
  long:
- country: US
  region: MN
  exchange: '091300'
  name: E VLY SPG
  full_name: East Valley Springs
  lata: '620'
  ilec_name: ALLIANCE COMMUNICATIONS COOPERATIVE, INC. - SD
  lat: '43.573311'
  long: "-96.448618"
  closest_city:
    name: Beaver Creek
    distance_km: 8.19
- country: US
  region: MN
  exchange: '091310'
  name: EASTON
  full_name: Easton
  lata: '620'
  ilec_name: THE EASTON TELEPHONE COMPANY
  lat: '43.764998'
  long: "-93.901471"
  closest_city:
    name: Easton
    distance_km: 0.17
- country: US
  region: MN
  exchange: '338975'
  name: EBRO
  full_name: Ebro
  lata: '636'
  ilec_name: GARDEN VALLEY TEL. CO.
  lat:
  long:
- country: US
  region: MN
  exchange: '091320'
  name: ECHO
  full_name: Echo
  lata: '620'
  ilec_name: REDWOOD COUNTY TEL. CO.
  lat: '44.616476'
  long: "-95.405234"
  closest_city:
    name: Echo
    distance_km: 0.7
- country: US
  region: MN
  exchange: '336786'
  name: ECHOLS
  full_name: Echols
  lata: '620'
  ilec_name: CENTURYLINK OF MINNESOTA, INC.
  lat:
  long:
- country: US
  region: MN
  exchange: '09538T'
  name: EDEN PRARI
  full_name: Eden Prairie
  lata: '628'
  ilec_name: QWEST CORPORATION
  lat:
  long:
- country: US
  region: MN
  exchange: '091330'
  name: EDENVALLEY
  full_name: Eden Valley
  lata: '626'
  ilec_name: MELROSE TEL. CO.
  lat: '45.317163'
  long: "-94.538496"
  closest_city:
    name: Eden Valley
    distance_km: 1.08
- country: US
  region: MN
  exchange: '091340'
  name: EDGERTON
  full_name: Edgerton
  lata: '620'
  ilec_name: FRONTIER COMMUNICATIONS OF MINNESOTA, INC.
  lat: '43.874232'
  long: "-96.134427"
  closest_city:
    name: Edgerton
    distance_km: 0.34
- country: US
  region: MN
  exchange: '09538U'
  name: EDINA
  full_name: Edina
  lata: '628'
  ilec_name: QWEST CORPORATION
  lat:
  long:
- country: US
  region: MN
  exchange: '090171'
  name: EFFIE
  full_name: Effie
  lata: '624'
  ilec_name: PEOPLES TEL. CO.
  lat:
  long:
- country: US
  region: MN
  exchange: '091350'
  name: EITZEN
  full_name: Eitzen
  lata: '620'
  ilec_name: ACE TEL. ASSN. - MN
  lat: '43.507887'
  long: "-91.460985"
  closest_city:
    name: Eitzen
    distance_km: 0.21
- country: US
  region: MN
  exchange: '336789'
  name: ELBA
  full_name: Elba
  lata: '620'
  ilec_name: CENTURYLINK OF MINNESOTA, INC.
  lat:
  long:
- country: US
  region: MN
  exchange: '091360'
  name: ELBOW LAKE
  full_name: Elbow Lake
  lata: '626'
  ilec_name: RUNESTONE TELEPHONE ASSOCIATION
  lat: '45.991964'
  long: "-95.977265"
  closest_city:
    name: Elbow Lake
    distance_km: 0.24
- country: US
  region: MN
  exchange: '337112'
  name: ELCOR
  full_name: Elcor
  lata: '624'
  ilec_name: QWEST CORPORATION
  lat:
  long:
- country: US
  region: MN
  exchange: '338978'
  name: ELDRED
  full_name: Eldred
  lata: '636'
  ilec_name: QWEST CORPORATION
  lat:
  long:
- country: US
  region: MN
  exchange: '091370'
  name: ELGIN
  full_name: Elgin
  lata: '620'
  ilec_name: CENTURYLINK OF MINNESOTA, INC.
  lat: '44.129309'
  long: "-92.254114"
  closest_city:
    name: Elgin
    distance_km: 0.64
- country: US
  region: MN
  exchange: '338979'
  name: ELIZABETH
  full_name: Elizabeth
  lata: '636'
  ilec_name: QWEST CORPORATION
  lat:
  long:
- country: US
  region: MN
  exchange: '09538G'
  name: ELK RIVER
  full_name: Elk River
  lata: '628'
  ilec_name: QWEST CORPORATION
  lat:
  long:
- country: US
  region: MN
  exchange: '337512'
  name: ELKO
  full_name: Elko
  lata: '628'
  ilec_name: QWEST CORPORATION
  lat:
  long:
- country: US
  region: MN
  exchange: '337513'
  name: ELKONEWMRK
  full_name: Elko New Market
  lata: '628'
  ilec_name: QWEST CORPORATION
  lat:
  long:
- country: US
  region: MN
  exchange: '336791'
  name: ELKTON
  full_name: Elkton
  lata: '620'
  ilec_name: CITIZENS TELECOM CO MN-FRONTIER CITIZENS COM-MN
  lat:
  long:
- country: US
  region: MN
  exchange: '091380'
  name: ELLENDALE
  full_name: Ellendale
  lata: '620'
  ilec_name: CITIZENS TELECOM CO MN-FRONTIER CITIZENS COM-MN
  lat: '43.872627'
  long: "-93.29976"
  closest_city:
    name: Ellendale
    distance_km: 0.04
- country: US
  region: MN
  exchange: '091390'
  name: ELLSWORTH
  full_name: Ellsworth
  lata: '620'
  ilec_name: FRONTIER COMMUNICATIONS OF MINNESOTA, INC.
  lat: '43.517617'
  long: "-96.01579"
  closest_city:
    name: Ellsworth
    distance_km: 0.41
- country: US
  region: MN
  exchange: '337296'
  name: ELMDALE
  full_name: Elmdale
  lata: '626'
  ilec_name: UPSALA COOP. TEL. ASSN.
  lat:
  long:
- country: US
  region: MN
  exchange: '337113'
  name: ELMER
  full_name: Elmer
  lata: '624'
  ilec_name: CITIZENS TELECOM CO MN-FRONTIER CITIZENS COM-MN
  lat:
  long:
- country: US
  region: MN
  exchange: '091400'
  name: ELMORE
  full_name: Elmore
  lata: '620'
  ilec_name: BLUE EARTH VALLEY TEL. CO.
  lat: '43.507994'
  long: "-94.092669"
  closest_city:
    name: Elmore
    distance_km: 0.4
- country: US
  region: MN
  exchange: '091410'
  name: ELROSA
  full_name: Elrosa
  lata: '626'
  ilec_name: CITIZENS TELECOM CO MN-FRONTIER CITIZENS COM-MN
  lat: '45.559717'
  long: "-94.950312"
  closest_city:
    name: Elrosa
    distance_km: 0.43
- country: US
  region: MN
  exchange: '091420'
  name: ELY
  full_name: Ely
  lata: '624'
  ilec_name: CITIZENS TELECOM CO MN-FRONTIER CITIZENS COM-MN
  lat: '47.902207'
  long: "-91.859194"
  closest_city:
    name: Ely
    distance_km: 0.66
- country: US
  region: MN
  exchange: '091430'
  name: ELYSIAN
  full_name: Elysian
  lata: '620'
  ilec_name: FRONTIER COMMUNICATIONS OF MINNESOTA, INC.
  lat: '44.198561'
  long: "-93.675621"
  closest_city:
    name: Elysian
    distance_km: 0.91
- country: US
  region: MN
  exchange: '091440'
  name: EMBARRASS
  full_name: Embarrass
  lata: '624'
  ilec_name: CITIZENS TELECOM CO MN-FRONTIER CITIZENS COM-MN
  lat: '47.659338'
  long: "-92.2024"
  closest_city:
    name: Hoyt Lakes
    distance_km: 12.78
- country: US
  region: MN
  exchange: '091450'
  name: EMILY
  full_name: Emily
  lata: '636'
  ilec_name: EMILY COOP. TEL. CO.
  lat: '46.735913'
  long: "-93.959335"
  closest_city:
    name: Emily
    distance_km: 2.74
- country: US
  region: MN
  exchange: '091460'
  name: EMMONS
  full_name: Emmons
  lata: '620'
  ilec_name: WINNEBAGO COOP. TEL. ASSN. - MN
  lat: '43.498806'
  long: "-93.490519"
  closest_city:
    name: Emmons
    distance_km: 1.02
- country: US
  region: MN
  exchange: '091470'
  name: ENFIELD
  full_name: Enfield
  lata: '628'
  ilec_name: BRIDGE WATER TEL. CO.
  lat: '45.359278'
  long: "-93.929618"
  closest_city:
    name: Becker
    distance_km: 4.83
- country: US
  region: MN
  exchange: '337298'
  name: ERDAHL
  full_name: Erdahl
  lata: '626'
  ilec_name: GARDONVILLE COOP. TEL. ASSN.
  lat:
  long:
- country: US
  region: MN
  exchange: '091480'
  name: ERHARD
  full_name: Erhard
  lata: '636'
  ilec_name: PARK REGION MUTUAL TEL. CO.
  lat: '46.483236'
  long: "-96.098939"
  closest_city:
    name: Erhard
    distance_km: 0.19
- country: US
  region: MN
  exchange: '091490'
  name: ERICSBURG
  full_name: Ericsburg
  lata: '624'
  ilec_name: CITIZENS TELECOM CO MN-FRONTIER CITIZENS COM-MN
  lat: '48.482213'
  long: "-93.334577"
  closest_city:
    name: International Falls
    distance_km: 13.0
- country: US
  region: MN
  exchange: '091500'
  name: ERSKINE
  full_name: Erskine
  lata: '636'
  ilec_name: GARDEN VALLEY TEL. CO.
  lat: '47.660095'
  long: "-96.010516"
  closest_city:
    name: Erskine
    distance_km: 0.61
- country: US
  region: MN
  exchange: '337117'
  name: ESKO
  full_name: Esko
  lata: '624'
  ilec_name: QWEST CORPORATION
  lat:
  long:
- country: US
  region: MN
  exchange: '336797'
  name: ESSIG
  full_name: Essig
  lata: '620'
  ilec_name: NEW ULM TELECOM, INC.
  lat:
  long:
- country: US
  region: MN
  exchange: '338983'
  name: EUCLID
  full_name: Euclid
  lata: '636'
  ilec_name: QWEST CORPORATION
  lat:
  long:
- country: US
  region: MN
  exchange: '336798'
  name: EVAN
  full_name: Evan
  lata: '620'
  ilec_name: SLEEPY EYE TEL. CO.
  lat:
  long:
- country: US
  region: MN
  exchange: '336799'
  name: EVAN
  full_name: Evan
  lata: '620'
  ilec_name: REDWOOD COUNTY TEL. CO.
  lat:
  long:
- country: US
  region: MN
  exchange: '091510'
  name: EVANSVILLE
  full_name: Evansville
  lata: '626'
  ilec_name: GARDONVILLE COOP. TEL. ASSN.
  lat: '46.00778'
  long: "-95.689754"
  closest_city:
    name: Evansville
    distance_km: 0.28
- country: US
  region: MN
  exchange: '095541'
  name: EVELETH
  full_name: Eveleth
  lata: '624'
  ilec_name: QWEST CORPORATION
  lat:
  long:
- country: US
  region: MN
  exchange: '338984'
  name: EVERDELL
  full_name: Everdell
  lata: '636'
  ilec_name: QWEST CORPORATION
  lat:
  long:
- country: US
  region: MN
  exchange: '09538X'
  name: EXCELSIOR
  full_name: Excelsior
  lata: '628'
  ilec_name: QWEST CORPORATION
  lat:
  long:
- country: US
  region: MN
  exchange: '091520'
  name: EYOTA
  full_name: Eyota
  lata: '620'
  ilec_name: CENTURYLINK OF MINNESOTA, INC.
  lat: '43.989176'
  long: "-92.232608"
  closest_city:
    name: Eyota
    distance_km: 0.11
- country: US
  region: MN
  exchange: '091530'
  name: FAIRFAX
  full_name: Fairfax
  lata: '620'
  ilec_name: CENTURYTEL OF MINNESOTA, INC. DBA CENTURYLINK
  lat: '44.525629'
  long: "-94.719285"
  closest_city:
    name: Fairfax
    distance_km: 0.42
- country: US
  region: MN
  exchange: '337516'
  name: FAIRHAVEN
  full_name: Fairhaven
  lata: '628'
  ilec_name: WINDSTREAM LAKEDALE, INC.
  lat:
  long:
- country: US
  region: MN
  exchange: '091540'
  name: FAIRMONT
  full_name: Fairmont
  lata: '620'
  ilec_name: FRONTIER COMMUNICATIONS OF MINNESOTA, INC.
  lat: '43.649873'
  long: "-94.455422"
  closest_city:
    name: Fairmont
    distance_km: 0.84
- country: US
  region: MN
  exchange: '337517'
  name: FALCON HGT
  full_name: Falcon Heights
  lata: '628'
  ilec_name: QWEST CORPORATION
  lat:
  long:
- country: US
  region: MN
  exchange: '094561'
  name: FLS JUNCTN
  full_name: Falls Junction
  lata: '620'
  ilec_name: REDWOOD COUNTY TEL. CO.
  lat:
  long:
- country: US
  region: MN
  exchange: '091550'
  name: FARIBAULT
  full_name: Faribault
  lata: '620'
  ilec_name: QWEST CORPORATION
  lat: '44.291137'
  long: "-93.274506"
  closest_city:
    name: Faribault
    distance_km: 1.0
- country: US
  region: MN
  exchange: '089752'
  name: FARMINGTON
  full_name: Farmington
  lata: '628'
  ilec_name: FRONTIER COMMUNICATIONS OF MINNESOTA, INC.
  lat:
  long:
- country: US
  region: MN
  exchange: '337300'
  name: FARWELL
  full_name: Farwell
  lata: '626'
  ilec_name: LOWRY TELEPHONE COMPANY, LLC
  lat:
  long:
- country: US
  region: MN
  exchange: '337119'
  name: FAYAL
  full_name: Fayal
  lata: '624'
  ilec_name: QWEST CORPORATION
  lat:
  long:
- country: US
  region: MN
  exchange: '091560'
  name: FEDERALDAM
  full_name: Federal Dam
  lata: '636'
  ilec_name: JOHNSON TEL. CO.
  lat: '47.242715'
  long: "-94.210082"
  closest_city:
    name: Federal Dam
    distance_km: 0.43
- country: US
  region: MN
  exchange: '091570'
  name: FELTON
  full_name: Felton
  lata: '636'
  ilec_name: FELTON TEL. CO., INC.
  lat: '47.073961'
  long: "-96.503404"
  closest_city:
    name: Felton
    distance_km: 0.21
- country: US
  region: MN
  exchange: '091580'
  name: FERGUS FLS
  full_name: Fergus Falls
  lata: '636'
  ilec_name: QWEST CORPORATION
  lat: '46.28381'
  long: "-96.067522"
  closest_city:
    name: Fergus Falls
    distance_km: 0.66
- country: US
  region: MN
  exchange: '091590'
  name: FERTILE
  full_name: Fertile
  lata: '636'
  ilec_name: GARDEN VALLEY TEL. CO.
  lat: '47.53269'
  long: "-96.285926"
  closest_city:
    name: Fertile
    distance_km: 0.29
- country: US
  region: MN
  exchange: '338989'
  name: FIFTYLAKES
  full_name: Fifty Lakes
  lata: '636'
  ilec_name: EMILY COOP. TEL. CO.
  lat:
  long:
- country: US
  region: MN
  exchange: '094911'
  name: FINLAND
  full_name: Finland
  lata: '624'
  ilec_name: QWEST CORPORATION
  lat:
  long:
- country: US
  region: MN
  exchange: '091600'
  name: FINLAYSON
  full_name: Finlayson
  lata: '628'
  ilec_name: CITIZENS TELECOM CO MN-FRONTIER CITIZENS COM-MN
  lat: '46.200422'
  long: "-92.919421"
  closest_city:
    name: Finlayson
    distance_km: 0.81
- country: US
  region: MN
  exchange: '091610'
  name: FISHER
  full_name: Fisher
  lata: '636'
  ilec_name: HALSTAD TEL. CO.
  lat: '47.800332'
  long: "-96.798238"
  closest_city:
    name: Fisher
    distance_km: 0.15
- country: US
  region: MN
  exchange: '338991'
  name: FLAMING
  full_name: Flaming
  lata: '636'
  ilec_name: GARDEN VALLEY TEL. CO.
  lat:
  long:
- country: US
  region: MN
  exchange: '337302'
  name: FLENSBURG
  full_name: Flensburg
  lata: '626'
  ilec_name: QWEST CORPORATION
  lat:
  long:
- country: US
  region: MN
  exchange: '091620'
  name: FLOM
  full_name: Flom
  lata: '636'
  ilec_name: TWIN VALLEY-ULEN TEL. CO., INC.
  lat: '47.169361'
  long: "-96.134127"
  closest_city:
    name: Twin Valley
    distance_km: 13.72
- country: US
  region: MN
  exchange: '091630'
  name: FLOODWOOD
  full_name: Floodwood
  lata: '624'
  ilec_name: CITIZENS TELECOM CO MN-FRONTIER CITIZENS COM-MN
  lat: '46.923786'
  long: "-92.920201"
  closest_city:
    name: Floodwood
    distance_km: 0.71
- country: US
  region: MN
  exchange: '336804'
  name: FLORENCE
  full_name: Florence
  lata: '620'
  ilec_name: CITIZENS TELECOM CO MN-FRONTIER CITIZENS COM-MN
  lat:
  long:
- country: US
  region: MN
  exchange: '337122'
  name: FLORENTON
  full_name: Florenton
  lata: '624'
  ilec_name: QWEST CORPORATION
  lat:
  long:
- country: US
  region: MN
  exchange: '091640'
  name: FOLEY
  full_name: Foley
  lata: '626'
  ilec_name: QWEST CORPORATION
  lat: '45.66617'
  long: "-93.906984"
  closest_city:
    name: Foley
    distance_km: 0.35
- country: US
  region: MN
  exchange: '337304'
  name: FORADA
  full_name: Forada
  lata: '626'
  ilec_name: CENTURYLINK OF MINNESOTA, INC.
  lat:
  long:
- country: US
  region: MN
  exchange: '337123'
  name: FORBES
  full_name: Forbes
  lata: '624'
  ilec_name: QWEST CORPORATION
  lat:
  long:
- country: US
  region: MN
  exchange: '095388'
  name: FORESTLAKE
  full_name: Forest Lake
  lata: '628'
  ilec_name: QWEST CORPORATION
  lat:
  long:
- country: US
  region: MN
  exchange: '091650'
  name: FORESTON
  full_name: Foreston
  lata: '626'
  ilec_name: BENTON COOP. TEL. CO.
  lat: '45.734537'
  long: "-93.70583"
  closest_city:
    name: Foreston
    distance_km: 0.39
- country: US
  region: MN
  exchange: '338996'
  name: FT RIPLEY
  full_name: Fort Ripley
  lata: '636'
  ilec_name: QWEST CORPORATION
  lat:
  long:
- country: US
  region: MN
  exchange: '337525'
  name: FTSNELLING
  full_name: Fort Snelling
  lata: '628'
  ilec_name: QWEST CORPORATION
  lat:
  long:
- country: US
  region: MN
  exchange: '091660'
  name: FOSSTON
  full_name: Fosston
  lata: '636'
  ilec_name: GARDEN VALLEY TEL. CO.
  lat: '47.57504'
  long: "-95.747382"
  closest_city:
    name: Fosston
    distance_km: 1.41
- country: US
  region: MN
  exchange: '091670'
  name: FOUNTAIN
  full_name: Fountain
  lata: '620'
  ilec_name: CITIZENS TELECOM CO MN-FRONTIER CITIZENS COM-MN
  lat: '43.740957'
  long: "-92.134142"
  closest_city:
    name: Fountain
    distance_km: 0.18
- country: US
  region: MN
  exchange: '336808'
  name: FOX LAKE
  full_name: Fox Lake
  lata: '620'
  ilec_name: FRONTIER COMMUNICATIONS OF MINNESOTA, INC.
  lat:
  long:
- country: US
  region: MN
  exchange: '338994'
  name: FOXHOME
  full_name: Foxhome
  lata: '636'
  ilec_name: QWEST CORPORATION
  lat:
  long:
- country: US
  region: MN
  exchange: '337521'
  name: FRANCONIA
  full_name: Franconia
  lata: '628'
  ilec_name: CITIZENS TELECOM CO MN-FRONTIER CITIZENS COM-MN
  lat:
  long:
- country: US
  region: MN
  exchange: '091680'
  name: FRANKLIN
  full_name: Franklin
  lata: '620'
  ilec_name: MINNESOTA VALLEY TEL. CO., INC.
  lat: '44.524731'
  long: "-94.894519"
  closest_city:
    name: Franklin
    distance_km: 1.05
- country: US
  region: MN
  exchange: '337124'
  name: FRASER
  full_name: Fraser
  lata: '624'
  ilec_name: QWEST CORPORATION
  lat:
  long:
- country: US
  region: MN
  exchange: '091690'
  name: FRAZEE
  full_name: Frazee
  lata: '636'
  ilec_name: LORETEL SYSTEMS, INC.
  lat: '46.723886'
  long: "-95.701586"
  closest_city:
    name: Frazee
    distance_km: 0.49
- country: US
  region: MN
  exchange: '091700'
  name: FREEBORN
  full_name: Freeborn
  lata: '620'
  ilec_name: CANNON VALLEY TELECOM, INC.
  lat: '43.767489'
  long: "-93.566903"
  closest_city:
    name: Freeborn
    distance_km: 0.28
- country: US
  region: MN
  exchange: '091710'
  name: FREEDHEM
  full_name: Freedhem
  lata: '626'
  ilec_name: CONSOLIDATED TEL. CO.
  lat: '46.041171'
  long: "-94.200515"
  closest_city:
    name: Pierz
    distance_km: 10.48
- country: US
  region: MN
  exchange: '091720'
  name: FREEPORT
  full_name: Freeport
  lata: '626'
  ilec_name: ALBANY MUTUAL TEL. ASSN., INC.
  lat: '45.665453'
  long: "-94.686024"
  closest_city:
    name: Freeport
    distance_km: 0.38
- country: US
  region: MN
  exchange: '337125'
  name: FRENCH RIV
  full_name: French River
  lata: '624'
  ilec_name: QWEST CORPORATION
  lat:
  long:
- country: US
  region: MN
  exchange: '09538P'
  name: FRIDLEY
  full_name: Fridley
  lata: '628'
  ilec_name: QWEST CORPORATION
  lat:
  long:
- country: US
  region: MN
  exchange: '337523'
  name: FRIESLAND
  full_name: Friesland
  lata: '628'
  ilec_name: QWEST CORPORATION
  lat:
  long:
- country: US
  region: MN
  exchange: '337524'
  name: FRONTENAC
  full_name: Frontenac
  lata: '628'
  ilec_name: CENTURYLINK OF MINNESOTA, INC.
  lat:
  long:
- country: US
  region: MN
  exchange: '091730'
  name: FROST
  full_name: Frost
  lata: '620'
  ilec_name: CANNON VALLEY TELECOM, INC.
  lat: '43.58427'
  long: "-93.922006"
  closest_city:
    name: Frost
    distance_km: 0.23
- country: US
  region: MN
  exchange: '091740'
  name: FULDA
  full_name: Fulda
  lata: '620'
  ilec_name: CENTURYTEL OF MINNESOTA, INC. DBA CENTURYLINK
  lat: '43.875549'
  long: "-95.61102"
  closest_city:
    name: Fulda
    distance_km: 1.0
- country: US
  region: MN
  exchange: '338997'
  name: FUNKLEY
  full_name: Funkley
  lata: '636'
  ilec_name: PAUL BUNYAN RURAL TEL. COOP.
  lat:
  long:
- country: US
  region: MN
  exchange: '091750'
  name: GARDENCITY
  full_name: Garden City
  lata: '620'
  ilec_name: CONSOLIDATED COMMUNICATIONS MID-COM COMPANY - MN
  lat: '44.050009'
  long: "-94.157643"
  closest_city:
    name: Garden City
    distance_km: 1.1
- country: US
  region: MN
  exchange: '091760'
  name: GARFIELD
  full_name: Garfield
  lata: '626'
  ilec_name: GARDONVILLE COOP. TEL. ASSN.
  lat: '45.944325'
  long: "-95.492562"
  closest_city:
    name: Garfield
    distance_km: 0.63
- country: US
  region: MN
  exchange: '091770'
  name: GARRISON
  full_name: Garrison
  lata: '626'
  ilec_name: CITIZENS TELECOM CO MN-FRONTIER CITIZENS COM-MN
  lat: '46.293474'
  long: "-93.823107"
  closest_city:
    name: Garrison
    distance_km: 0.69
- country: US
  region: MN
  exchange: '091780'
  name: GARVIN
  full_name: Garvin
  lata: '620'
  ilec_name: WOODSTOCK TEL. CO.
  lat: '44.216568'
  long: "-95.758004"
  closest_city:
    name: Garvin
    distance_km: 0.34
- country: US
  region: MN
  exchange: '091790'
  name: GARY
  full_name: Gary
  lata: '636'
  ilec_name: TWIN VALLEY-ULEN TEL. CO., INC.
  lat: '47.376333'
  long: "-96.263741"
  closest_city:
    name: Gary
    distance_km: 0.45
- country: US
  region: MN
  exchange: '091800'
  name: GATEWAY
  full_name: Gateway
  lata: '636'
  ilec_name: CITIZENS TELECOM CO MN-FRONTIER CITIZENS COM-MN
  lat: '46.699634'
  long: "-93.28932"
  closest_city:
    name: McGregor
    distance_km: 10.19
- country: US
  region: MN
  exchange: '091810'
  name: GATZKE
  full_name: Gatzke
  lata: '636'
  ilec_name: GARDEN VALLEY TEL. CO.
  lat: '48.426059'
  long: "-95.794414"
  closest_city:
    name: Grygla
    distance_km: 18.88
- country: US
  region: MN
  exchange: '091820'
  name: GAYLORD
  full_name: Gaylord
  lata: '628'
  ilec_name: QWEST CORPORATION
  lat: '44.548793'
  long: "-94.215082"
  closest_city:
    name: Gaylord
    distance_km: 0.8
- country: US
  region: MN
  exchange: '094011'
  name: GEMMELL
  full_name: Gemmell
  lata: '636'
  ilec_name: PAUL BUNYAN RURAL TEL. COOP.
  lat:
  long:
- country: US
  region: MN
  exchange: '336815'
  name: GENEVA
  full_name: Geneva
  lata: '620'
  ilec_name: CITIZENS TELECOM CO MN-FRONTIER CITIZENS COM-MN
  lat:
  long:
- country: US
  region: MN
  exchange: '337311'
  name: GENOLA
  full_name: Genola
  lata: '626'
  ilec_name: CENTURYTEL OF MINNESOTA, INC. DBA CENTURYLINK
  lat:
  long:
- country: US
  region: MN
  exchange: '339002'
  name: GENTILLY
  full_name: Gentilly
  lata: '636'
  ilec_name: QWEST CORPORATION
  lat:
  long:
- country: US
  region: MN
  exchange: '339003'
  name: GEORGETOWN
  full_name: Georgetown
  lata: '636'
  ilec_name: QWEST CORPORATION
  lat:
  long:
- country: US
  region: MN
  exchange: '337312'
  name: GEORGEVL
  full_name: Georgeville
  lata: '626'
  ilec_name: CITIZENS TELECOM CO MN-FRONTIER CITIZENS COM-MN
  lat:
  long:
- country: US
  region: MN
  exchange: '337126'
  name: GHEEN
  full_name: Gheen
  lata: '624'
  ilec_name: CENTURYTEL OF MINNESOTA, INC. DBA CENTURYLINK
  lat:
  long:
- country: US
  region: MN
  exchange: '091830'
  name: GHENT
  full_name: Ghent
  lata: '620'
  ilec_name: CITIZENS TELECOM CO MN-FRONTIER CITIZENS COM-MN
  lat: '44.50831'
  long: "-95.893463"
  closest_city:
    name: Ghent
    distance_km: 0.37
- country: US
  region: MN
  exchange: '091840'
  name: GIBBON
  full_name: Gibbon
  lata: '620'
  ilec_name: CENTURYTEL OF MINNESOTA, INC. DBA CENTURYLINK
  lat: '44.533453'
  long: "-94.518683"
  closest_city:
    name: Gibbon
    distance_km: 0.44
- country: US
  region: MN
  exchange: '337527'
  name: GIESE
  full_name: Giese
  lata: '628'
  ilec_name: CITIZENS TELECOM CO MN-FRONTIER CITIZENS COM-MN
  lat:
  long:
- country: US
  region: MN
  exchange: '337127'
  name: GILBERT
  full_name: Gilbert
  lata: '624'
  ilec_name: QWEST CORPORATION
  lat:
  long:
- country: US
  region: MN
  exchange: '091850'
  name: GILMAN
  full_name: Gilman
  lata: '626'
  ilec_name: BENTON COOP. TEL. CO.
  lat: '45.735134'
  long: "-93.949193"
  closest_city:
    name: Gilman
    distance_km: 0.05
- country: US
  region: MN
  exchange: '337314'
  name: GLEN
  full_name: Glen
  lata: '626'
  ilec_name: CITIZENS TELECOM CO MN-FRONTIER CITIZENS COM-MN
  lat:
  long:
- country: US
  region: MN
  exchange: '337528'
  name: GLEN LAKE
  full_name: Glen Lake
  lata: '628'
  ilec_name: QWEST CORPORATION
  lat:
  long:
- country: US
  region: MN
  exchange: '337531'
  name: GLNPRAIRIE
  full_name: Glen Prairie
  lata: '628'
  ilec_name: QWEST CORPORATION
  lat:
  long:
- country: US
  region: MN
  exchange: '091860'
  name: GLENCOE
  full_name: Glencoe
  lata: '628'
  ilec_name: CENTURYLINK OF MINNESOTA, INC.
  lat: '44.772357'
  long: "-94.154451"
  closest_city:
    name: Glencoe
    distance_km: 0.39
- country: US
  region: MN
  exchange: '091870'
  name: GLENDORADO
  full_name: Glendorado
  lata: '628'
  ilec_name: WINDSTREAM LAKEDALE, INC.
  lat: '45.567105'
  long: "-93.769566"
  closest_city:
    name: Princeton
    distance_km: 13.99
- country: US
  region: MN
  exchange: '091880'
  name: GLENVILLE
  full_name: Glenville
  lata: '620'
  ilec_name: QWEST CORPORATION
  lat: '43.573116'
  long: "-93.285166"
  closest_city:
    name: Glenville
    distance_km: 0.35
- country: US
  region: MN
  exchange: '091890'
  name: GLENWOOD
  full_name: Glenwood
  lata: '626'
  ilec_name: QWEST CORPORATION
  lat: '45.648455'
  long: "-95.393681"
  closest_city:
    name: Glenwood
    distance_km: 2.27
- country: US
  region: MN
  exchange: '337316'
  name: GLUEK
  full_name: Gluek
  lata: '626'
  ilec_name: CLARA CITY TEL. EXCH. CO.
  lat:
  long:
- country: US
  region: MN
  exchange: '091900'
  name: GLYNDON
  full_name: Glyndon
  lata: '636'
  ilec_name: LORETEL SYSTEMS, INC.
  lat: '46.876939'
  long: "-96.584343"
  closest_city:
    name: Glyndon
    distance_km: 0.81
- country: US
  region: MN
  exchange: '336819'
  name: GODAHL
  full_name: Godahl
  lata: '620'
  ilec_name: CENTURYLINK OF MINNESOTA, INC.
  lat:
  long:
- country: US
  region: MN
  exchange: '09538K'
  name: GOLDEN VLY
  full_name: Golden Valley
  lata: '628'
  ilec_name: QWEST CORPORATION
  lat:
  long:
- country: US
  region: MN
  exchange: '091910'
  name: GONVICK
  full_name: Gonvick
  lata: '636'
  ilec_name: GARDEN VALLEY TEL. CO.
  lat: '47.742975'
  long: "-95.510714"
  closest_city:
    name: Gonvick
    distance_km: 0.45
- country: US
  region: MN
  exchange: '091920'
  name: GOODTHUNDR
  full_name: Good Thunder
  lata: '620'
  ilec_name: CONSOLIDATED COMMUNICATIONS MID-COM COMPANY - MN
  lat: '44.009841'
  long: "-94.06397"
  closest_city:
    name: Good Thunder
    distance_km: 0.62
- country: US
  region: MN
  exchange: '091930'
  name: GOODHUE
  full_name: Goodhue
  lata: '628'
  ilec_name: SLEEPY EYE TEL. CO.
  lat: '44.402603'
  long: "-92.626606"
  closest_city:
    name: Goodhue
    distance_km: 0.37
- country: US
  region: MN
  exchange: '095641'
  name: GOODLAND
  full_name: Goodland
  lata: '624'
  ilec_name: CITIZENS TELECOM CO MN-FRONTIER CITIZENS COM-MN
  lat:
  long:
- country: US
  region: MN
  exchange: '091940'
  name: GOODRIDGE
  full_name: Goodridge
  lata: '636'
  ilec_name: GARDEN VALLEY TEL. CO.
  lat: '48.14207'
  long: "-95.801035"
  closest_city:
    name: Goodridge
    distance_km: 0.32
- country: US
  region: MN
  exchange: '336821'
  name: GOODVIEW
  full_name: Goodview
  lata: '620'
  ilec_name: QWEST CORPORATION
  lat:
  long:
- country: US
  region: MN
  exchange: '336822'
  name: GORDONSVL
  full_name: Gordonsville
  lata: '620'
  ilec_name: QWEST CORPORATION
  lat:
  long:
- country: US
  region: MN
  exchange: '337129'
  name: GOWAN
  full_name: Gowan
  lata: '624'
  ilec_name: CITIZENS TELECOM CO MN-FRONTIER CITIZENS COM-MN
  lat:
  long:
- country: US
  region: MN
  exchange: '339007'
  name: GRACETON
  full_name: Graceton
  lata: '636'
  ilec_name: WIKSTROM TEL. CO., INC.
  lat:
  long:
- country: US
  region: MN
  exchange: '091950'
  name: GRACEVILLE
  full_name: Graceville
  lata: '626'
  ilec_name: CENTURYTEL OF MINNESOTA, INC. DBA CENTURYLINK
  lat: '45.564494'
  long: "-96.434389"
  closest_city:
    name: Graceville
    distance_km: 0.51
- country: US
  region: MN
  exchange: '091960'
  name: GRANADA
  full_name: Granada
  lata: '620'
  ilec_name: GRANADA TEL. CO.
  lat: '43.691213'
  long: "-94.347691"
  closest_city:
    name: Granada
    distance_km: 0.25
- country: US
  region: MN
  exchange: '337132'
  name: GRANDFALLS
  full_name: Grand Falls
  lata: '624'
  ilec_name: CITIZENS TELECOM CO MN-FRONTIER CITIZENS COM-MN
  lat:
  long:
- country: US
  region: MN
  exchange: '337130'
  name: GRAND LAKE
  full_name: Grand Lake
  lata: '624'
  ilec_name: QWEST CORPORATION
  lat:
  long:
- country: US
  region: MN
  exchange: '091970'
  name: GRANDMRAIS
  full_name: Grand Marais
  lata: '624'
  ilec_name: QWEST CORPORATION
  lat: '47.751494'
  long: "-90.343605"
  closest_city:
    name: Grand Marais
    distance_km: 0.82
- country: US
  region: MN
  exchange: '091980'
  name: GRAND MDW
  full_name: Grand Meadow
  lata: '620'
  ilec_name: HOME TEL. CO.
  lat: '43.698978'
  long: "-92.566176"
  closest_city:
    name: Grand Meadow
    distance_km: 0.86
- country: US
  region: MN
  exchange: '337134'
  name: GRANDPORTG
  full_name: Grand Portage
  lata: '624'
  ilec_name: CENTURYTEL OF MINNESOTA, INC. DBA CENTURYLINK
  lat:
  long:
- country: US
  region: MN
  exchange: '091990'
  name: GRAND RPDS
  full_name: Grand Rapids
  lata: '624'
  ilec_name: QWEST CORPORATION
  lat: '47.234899'
  long: "-93.523207"
  closest_city:
    name: Grand Rapids
    distance_km: 0.8
- country: US
  region: MN
  exchange: '337534'
  name: GRANDY
  full_name: Grandy
  lata: '628'
  ilec_name: QWEST CORPORATION
  lat:
  long:
- country: US
  region: MN
  exchange: '092000'
  name: GRANGER
  full_name: Granger
  lata: '620'
  ilec_name: ACE TEL. ASSN. - MN
  lat: '43.501161'
  long: "-92.135441"
  closest_city:
    name: Harmony
    distance_km: 11.87
- country: US
  region: MN
  exchange: '092010'
  name: GRANITEFLS
  full_name: Granite Falls
  lata: '626'
  ilec_name: CENTURYLINK OF MINNESOTA, INC.
  lat: '44.813277'
  long: "-95.540266"
  closest_city:
    name: Granite Falls
    distance_km: 0.36
- country: US
  region: MN
  exchange: '337535'
  name: GRANT
  full_name: Grant
  lata: '628'
  ilec_name: QWEST CORPORATION
  lat:
  long:
- country: US
  region: MN
  exchange: '337536'
  name: GRASSTON
  full_name: Grasston
  lata: '628'
  ilec_name: QWEST CORPORATION
  lat:
  long:
- country: US
  region: MN
  exchange: '337537'
  name: GRASSTON
  full_name: Grasston
  lata: '628'
  ilec_name: QWEST CORPORATION
  lat:
  long:
- country: US
  region: MN
  exchange: '092020'
  name: GREANEY
  full_name: Greaney
  lata: '624'
  ilec_name: CITIZENS TELECOM CO MN-FRONTIER CITIZENS COM-MN
  lat: '47.951958'
  long: "-93.049209"
  closest_city:
    name: Orr
    distance_km: 20.52
- country: US
  region: MN
  exchange: '092030'
  name: GREEN ISLE
  full_name: Green Isle
  lata: '628'
  ilec_name: FRONTIER COMMUNICATIONS OF MINNESOTA, INC.
  lat: '44.672187'
  long: "-93.998388"
  closest_city:
    name: Green Isle
    distance_km: 1.06
- country: US
  region: MN
  exchange: '336826'
  name: GREEN VLY
  full_name: Green Valley
  lata: '620'
  ilec_name: QWEST CORPORATION
  lat:
  long:
- country: US
  region: MN
  exchange: '092040'
  name: GREENBUSH
  full_name: Greenbush
  lata: '636'
  ilec_name: WIKSTROM TEL. CO., INC.
  lat: '48.699912'
  long: "-96.183151"
  closest_city:
    name: Greenbush
    distance_km: 0.13
- country: US
  region: MN
  exchange: '337539'
  name: GREENFIELD
  full_name: Greenfield
  lata: '628'
  ilec_name: QWEST CORPORATION
  lat:
  long:
- country: US
  region: MN
  exchange: '336827'
  name: GREENLAND
  full_name: Greenland
  lata: '620'
  ilec_name: FRONTIER COMMUNICATIONS OF MINNESOTA, INC.
  lat:
  long:
- country: US
  region: MN
  exchange: '092050'
  name: GREENWALD
  full_name: Greenwald
  lata: '626'
  ilec_name: MELROSE TEL. CO.
  lat: '45.602712'
  long: "-94.859979"
  closest_city:
    name: Greenwald
    distance_km: 0.15
- country: US
  region: MN
  exchange: '337540'
  name: GREENWOOD
  full_name: Greenwood
  lata: '628'
  ilec_name: QWEST CORPORATION
  lat:
  long:
- country: US
  region: MN
  exchange: '339009'
  name: GREENWOOD
  full_name: Greenwood
  lata: '636'
  ilec_name: GARDEN VALLEY TEL. CO.
  lat:
  long:
- country: US
  region: MN
  exchange: '092060'
  name: GREY EAGLE
  full_name: Grey Eagle
  lata: '626'
  ilec_name: MELROSE TEL. CO.
  lat: '45.826456'
  long: "-94.750646"
  closest_city:
    name: Grey Eagle
    distance_km: 0.24
- country: US
  region: MN
  exchange: '336828'
  name: GROGAN
  full_name: Grogan
  lata: '620'
  ilec_name: CENTURYLINK OF MINNESOTA, INC.
  lat:
  long:
- country: US
  region: MN
  exchange: '337541'
  name: GRONINGEN
  full_name: Groningen
  lata: '628'
  ilec_name: QWEST CORPORATION
  lat:
  long:
- country: US
  region: MN
  exchange: '092070'
  name: GROVE CITY
  full_name: Grove City
  lata: '626'
  ilec_name: CENTURYLINK OF MINNESOTA, INC.
  lat: '45.150146'
  long: "-94.683632"
  closest_city:
    name: Grove City
    distance_km: 0.28
- country: US
  region: MN
  exchange: '092080'
  name: GRYGLA
  full_name: Grygla
  lata: '636'
  ilec_name: GARDEN VALLEY TEL. CO.
  lat: '48.300227'
  long: "-95.597986"
  closest_city:
    name: Grygla
    distance_km: 1.91
- country: US
  region: MN
  exchange: '092090'
  name: GUCKEEN
  full_name: Guckeen
  lata: '620'
  ilec_name: BLUE EARTH VALLEY TEL. CO.
  lat: '43.649853'
  long: "-94.234522"
  closest_city:
    name: Granada
    distance_km: 10.43
- country: US
  region: MN
  exchange: '092100'
  name: GULLY
  full_name: Gully
  lata: '636'
  ilec_name: GARDEN VALLEY TEL. CO.
  lat: '47.767445'
  long: "-95.613319"
  closest_city:
    name: Gully
    distance_km: 0.72
- country: US
  region: MN
  exchange: '091971'
  name: GUNFLINTTR
  full_name: Gunflint Trail
  lata: '624'
  ilec_name: CENTURYTEL OF MINNESOTA, INC. DBA CENTURYLINK
  lat:
  long:
- country: US
  region: MN
  exchange: '092932'
  name: GUTHRIE
  full_name: Guthrie
  lata: '636'
  ilec_name: PAUL BUNYAN RURAL TEL. COOP.
  lat:
  long:
- country: US
  region: MN
  exchange: '092110'
  name: HACKENSACK
  full_name: Hackensack
  lata: '636'
  ilec_name: ARVIG TEL. CO.
  lat: '46.925877'
  long: "-94.515841"
  closest_city:
    name: Hackensack
    distance_km: 0.13
- country: US
  region: MN
  exchange: '336830'
  name: HADLEY
  full_name: Hadley
  lata: '620'
  ilec_name: FRONTIER COMMUNICATIONS OF MINNESOTA, INC.
  lat:
  long:
- country: US
  region: MN
  exchange: '092120'
  name: HALLOCK
  full_name: Hallock
  lata: '636'
  ilec_name: CITIZENS TELECOM CO MN-FRONTIER CITIZENS COM-MN
  lat: '48.777163'
