---
rate_centers:
- country: US
  region: MO
  exchange: '096040'
  name: ADRIAN
  full_name: Adrian
  lata: '524'
  ilec_name: SOUTHWESTERN BELL
  lat: '38.401467'
  long: "-94.351112"
  closest_city:
    name: Adrian
    distance_km: 1.03
- country: US
  region: MO
  exchange: '096050'
  name: ADVANCE
  full_name: Advance
  lata: '520'
  ilec_name: SOUTHWESTERN BELL
  lat: '37.101571'
  long: "-89.909695"
  closest_city:
    name: Advance
    distance_km: 0.32
- country: US
  region: MO
  exchange: '329733'
  name: AFFTON
  full_name: Affton
  lata: '520'
  ilec_name: SOUTHWESTERN BELL
  lat:
  long:
- country: US
  region: MO
  exchange: '329734'
  name: AFTON
  full_name: Afton
  lata: '520'
  ilec_name: SOUTHWESTERN BELL
  lat:
  long:
- country: US
  region: MO
  exchange: '096060'
  name: AGENCY
  full_name: Agency
  lata: '524'
  ilec_name: SOUTHWESTERN BELL
  lat: '39.647208'
  long: "-94.73242"
  closest_city:
    name: Agency
    distance_km: 3.38
- country: US
  region: MO
  exchange: '330833'
  name: ALANTHUS
  full_name: Alanthus
  lata: '524'
  ilec_name: GRAND RIVER MUTUAL TEL CO
  lat:
  long:
- country: US
  region: MO
  exchange: '330416'
  name: ALBA
  full_name: Alba
  lata: '522'
  ilec_name: CRAW-KAN TEL. COOP.,INC. - MO
  lat:
  long:
- country: US
  region: MO
  exchange: '096070'
  name: ALBANY
  full_name: Albany
  lata: '524'
  ilec_name: WINDSTREAM MISSOURI, INC.
  lat: '40.247826'
  long: "-94.341789"
  closest_city:
    name: Albany
    distance_km: 0.7
- country: US
  region: MO
  exchange: '096080'
  name: ALDRICH
  full_name: Aldrich
  lata: '522'
  ilec_name: WINDSTREAM MISSOURI, INC.
  lat: '37.551211'
  long: "-93.560354"
  closest_city:
    name: Aldrich
    distance_km: 0.85
- country: US
  region: MO
  exchange: '330835'
  name: ALEXANDRIA
  full_name: Alexandria
  lata: '524'
  ilec_name: BRIGHTSPEED OF EAST MISSOURI, LLC
  lat:
  long:
- country: US
  region: MO
  exchange: '096090'
  name: ALLENDALE
  full_name: Allendale
  lata: '524'
  ilec_name: WINDSTREAM MISSOURI, INC.
  lat: '40.481995'
  long: "-94.286747"
  closest_city:
    name: Allendale
    distance_km: 0.4
- country: US
  region: MO
  exchange: '329735'
  name: ALLENTON
  full_name: Allenton
  lata: '520'
  ilec_name: SOUTHWESTERN BELL
  lat:
  long:
- country: US
  region: MO
  exchange: '329736'
  name: ALLENVILLE
  full_name: Allenville
  lata: '520'
  ilec_name: SOUTHWESTERN BELL
  lat:
  long:
- country: US
  region: MO
  exchange: '329737'
  name: ALLEY SPG
  full_name: Alley Spring
  lata: '520'
  ilec_name: BRIGHTSPEED OF EAST MISSOURI, LLC
  lat:
  long:
- country: US
  region: MO
  exchange: '096100'
  name: ALMA
  full_name: Alma
  lata: '524'
  ilec_name: ALMA COMMUNICATIONS COMPANY DBA ALMA TELEPHONE CO
  lat: '39.100606'
  long: "-93.552864"
  closest_city:
    name: Alma
    distance_km: 0.64
- country: US
  region: MO
  exchange: '330838'
  name: ALTAMONT
  full_name: Altamont
  lata: '524'
  ilec_name: WINDSTREAM MISSOURI, INC.
  lat:
  long:
- country: US
  region: MO
  exchange: '329739'
  name: ALTENBURG
  full_name: Altenburg
  lata: '520'
  ilec_name: SOUTHWESTERN BELL
  lat:
  long:
- country: US
  region: MO
  exchange: '096110'
  name: ALTEBGFRHN
  full_name: Altenburg-Frohna
  lata: '520'
  ilec_name: SOUTHWESTERN BELL
  lat: '37.64151'
  long: "-89.619069"
  closest_city:
    name: Frohna
    distance_km: 0.45
- country: US
  region: MO
  exchange: '096120'
  name: ALTON
  full_name: Alton
  lata: '522'
  ilec_name: BRIGHTSPEED OF MISSOURI, LLC
  lat: '36.698195'
  long: "-91.399924"
  closest_city:
    name: Alton
    distance_km: 1.01
- country: US
  region: MO
  exchange: '096130'
  name: AMAZONIA
  full_name: Amazonia
  lata: '524'
  ilec_name: BRIGHTSPEED OF EAST MISSOURI, LLC
  lat: '39.882534'
  long: "-94.893226"
  closest_city:
    name: Amazonia
    distance_km: 0.7
- country: US
  region: MO
  exchange: '329740'
  name: AMERICUS
  full_name: Americus
  lata: '520'
  ilec_name: KINGDOM TEL. CO.
  lat:
  long:
- country: US
  region: MO
  exchange: '330840'
  name: AMITY
  full_name: Amity
  lata: '524'
  ilec_name: BRIGHTSPEED OF EAST MISSOURI, LLC
  lat:
  long:
- country: US
  region: MO
  exchange: '096140'
  name: AMORET
  full_name: Amoret
  lata: '524'
  ilec_name: CRAW-KAN TEL. COOP.,INC. - MO
  lat: '38.259008'
  long: "-94.582404"
  closest_city:
    name: Amoret
    distance_km: 0.63
- country: US
  region: MO
  exchange: '096150'
  name: AMSTERDAM
  full_name: Amsterdam
  lata: '524'
  ilec_name: CRAW-KAN TEL. COOP.,INC. - MO
  lat: '38.347757'
  long: "-94.59095"
  closest_city:
    name: Amsterdam
    distance_km: 0.24
- country: US
  region: MO
  exchange: '330843'
  name: ANABEL
  full_name: Anabel
  lata: '524'
  ilec_name: BRIGHTSPEED OF EAST MISSOURI, LLC
  lat:
  long:
- country: US
  region: MO
  exchange: '096160'
  name: ANDERSON
  full_name: Anderson
  lata: '522'
  ilec_name: MCDONALD COUNTY TEL. CO.
  lat: '36.64793'
  long: "-94.451015"
  closest_city:
    name: Anderson
    distance_km: 0.85
- country: US
  region: MO
  exchange: '096170'
  name: ANDOVER
  full_name: Andover
  lata: '632'
  ilec_name: GRAND RIVER MUTUAL TEL CO
  lat: '40.568987'
  long: "-93.900812"
  closest_city:
    name: Blythedale
    distance_km: 10.68
- country: US
  region: MO
  exchange: '329741'
  name: ANNADA
  full_name: Annada
  lata: '520'
  ilec_name: SOUTHWESTERN BELL
  lat:
  long:
- country: US
  region: MO
  exchange: '096180'
  name: ANNAPOLIS
  full_name: Annapolis
  lata: '520'
  ilec_name: BRIGHTSPEED OF EAST MISSOURI, LLC
  lat: '37.367235'
  long: "-90.701785"
  closest_city:
    name: Annapolis
    distance_km: 0.84
- country: US
  region: MO
  exchange: '329743'
  name: ANNISTON
  full_name: Anniston
  lata: '520'
  ilec_name: SOUTHWESTERN BELL
  lat:
  long:
- country: US
  region: MO
  exchange: '096190'
  name: ANTONIA
  full_name: Antonia
  lata: '520'
  ilec_name: SOUTHWESTERN BELL
  lat: '38.373742'
  long: "-90.511447"
  closest_city:
    name: Scotsdale
    distance_km: 7.19
- country: US
  region: MO
  exchange: '09619E'
  name: ANTONIA MCA4
  full_name: Antonia MCA4
  lata: '520'
  ilec_name: SOUTHWESTERN BELL
  lat: '38.373742'
  long: "-90.511447"
  closest_city:
    name: Scotsdale
    distance_km: 7.19
- country: US
  region: MO
  exchange: '096200'
  name: APPLETONCY
  full_name: Appleton City
  lata: '524'
  ilec_name: EMBARQ MISSOURI, INC. DBA CENTURYLINK - MO
  lat: '38.188503'
  long: "-94.029682"
  closest_city:
    name: Appleton City
    distance_km: 0.26
- country: US
  region: MO
  exchange: '329745'
  name: ARAB
  full_name: Arab
  lata: '520'
  ilec_name: SOUTHWESTERN BELL
  lat:
  long:
- country: US
  region: MO
  exchange: '096210'
  name: ARBELA
  full_name: Arbela
  lata: '524'
  ilec_name: NORTHEAST MISSOURI RURAL TEL. CO.
  lat: '40.455995'
  long: "-92.008565"
  closest_city:
    name: Arbela
    distance_km: 0.99
- country: US
  region: MO
  exchange: '329746'
  name: ARBYRD
  full_name: Arbyrd
  lata: '520'
  ilec_name: SOUTHWESTERN BELL
  lat:
  long:
- country: US
  region: MO
  exchange: '329747'
  name: ARCADIA
  full_name: Arcadia
  lata: '520'
  ilec_name: BRIGHTSPEED OF EAST MISSOURI, LLC
  lat:
  long:
- country: US
  region: MO
  exchange: '096220'
  name: ARCHIE
  full_name: Archie
  lata: '524'
  ilec_name: SOUTHWESTERN BELL
  lat: '38.482285'
  long: "-94.351016"
  closest_city:
    name: Archie
    distance_km: 0.15
- country: US
  region: MO
  exchange: '09622E'
  name: ARCHIE MCA5
  full_name: Archie MCA5
  lata: '524'
  ilec_name: SOUTHWESTERN BELL
  lat: '38.482285'
  long: "-94.351016"
  closest_city:
    name: Archie
    distance_km: 0.15
- country: US
  region: MO
  exchange: '096230'
  name: ARCOLA
  full_name: Arcola
  lata: '522'
  ilec_name: BRIGHTSPEED OF EAST MISSOURI, LLC
  lat: '37.549773'
  long: "-93.883539"
  closest_city:
    name: Arcola
    distance_km: 0.73
- country: US
  region: MO
  exchange: '096240'
  name: ARGYLE
  full_name: Argyle
  lata: '521'
  ilec_name: SOUTHWESTERN BELL
  lat: '38.300218'
  long: "-92.024949"
  closest_city:
    name: Argyle
    distance_km: 0.55
- country: US
  region: MO
  exchange: '330847'
  name: ARKOE
  full_name: Arkoe
  lata: '524'
  ilec_name: EMBARQ MISSOURI, INC. DBA CENTURYLINK - MO
  lat:
  long:
- country: US
  region: MO
  exchange: '096250'
  name: ARMSTRONG
  full_name: Armstrong
  lata: '524'
  ilec_name: SOUTHWESTERN BELL
  lat: '39.265057'
  long: "-92.6983"
  closest_city:
    name: Armstrong
    distance_km: 0.69
- country: US
  region: MO
  exchange: '329748'
  name: ARNOLD
  full_name: Arnold
  lata: '520'
  ilec_name: SOUTHWESTERN BELL
  lat:
  long:
- country: US
  region: MO
  exchange: '096260'
  name: ARROW ROCK
  full_name: Arrow Rock
  lata: '524'
  ilec_name: OTELCO MID-MISSOURI LLC
  lat: '39.065603'
  long: "-92.95163"
  closest_city:
    name: Arrow Rock
    distance_km: 0.62
- country: US
  region: MO
  exchange: '096270'
  name: ASBURY
  full_name: Asbury
  lata: '522'
  ilec_name: CRAW-KAN TEL. COOP.,INC. - MO
  lat: '37.273314'
  long: "-94.607469"
  closest_city:
    name: Asbury
    distance_km: 0.21
- country: US
  region: MO
  exchange: '096280'
  name: ASH GROVE
  full_name: Ash Grove
  lata: '522'
  ilec_name: SOUTHWESTERN BELL
  lat: '37.318187'
  long: "-93.589378"
  closest_city:
    name: Ash Grove
    distance_km: 0.75
- country: US
  region: MO
  exchange: '09628E'
  name: ASH GROVE MCA2
  full_name: Ash Grove MCA2
  lata: '522'
  ilec_name: SOUTHWESTERN BELL
  lat: '37.318187'
  long: "-93.589378"
  closest_city:
    name: Ash Grove
    distance_km: 0.75
- country: US
  region: MO
  exchange: '329749'
  name: ASHBURN
  full_name: Ashburn
  lata: '520'
  ilec_name: SOUTHWESTERN BELL
  lat:
  long:
- country: US
  region: MO
  exchange: '096290'
  name: ASHLAND
  full_name: Ashland
  lata: '521'
  ilec_name: BRIGHTSPEED OF MISSOURI, LLC
  lat: '38.775062'
  long: "-92.260578"
  closest_city:
    name: Ashland
    distance_km: 2.25
- country: US
  region: MO
  exchange: '329750'
  name: ASHLEY
  full_name: Ashley
  lata: '520'
  ilec_name: SOUTHWESTERN BELL
  lat:
  long:
- country: US
  region: MO
  exchange: '330850'
  name: ASHTON
  full_name: Ashton
  lata: '524'
  ilec_name: BRIGHTSPEED OF EAST MISSOURI, LLC
  lat:
  long:
- country: US
  region: MO
  exchange: '096300'
  name: ATHENS
  full_name: Athens
  lata: '634'
  ilec_name: WINDSTREAM IOWA COMMUNICATIONS, INC.
  lat: '40.583469'
  long: "-91.710184"
  closest_city:
    name: Revere
    distance_km: 10.31
- country: US
  region: MO
  exchange: '330851'
  name: ATHERTON
  full_name: Atherton
  lata: '524'
  ilec_name: SOUTHWESTERN BELL
  lat:
  long:
- country: US
  region: MO
  exchange: '096310'
  name: ATLANTA
  full_name: Atlanta
  lata: '524'
  ilec_name: CHARITON VALLEY TEL. CO.
  lat: '39.901593'
  long: "-92.483566"
  closest_city:
    name: Atlanta
    distance_km: 0.45
- country: US
  region: MO
  exchange: '096320'
  name: AUGUSTA
  full_name: Augusta
  lata: '520'
  ilec_name: BRIGHTSPEED OF MISSOURI, LLC
  lat: '38.566704'
  long: "-90.880217"
  closest_city:
    name: Augusta
    distance_km: 0.32
- country: US
  region: MO
  exchange: '09632E'
  name: AUGUSTA MCA5
  full_name: Augusta MCA5
  lata: '520'
  ilec_name: BRIGHTSPEED OF MISSOURI, LLC
  lat: '38.566704'
  long: "-90.880217"
  closest_city:
    name: Augusta
    distance_km: 0.32
- country: US
  region: MO
  exchange: '330853'
  name: AULLVILLE
  full_name: Aullville
  lata: '524'
  ilec_name: CITIZENS TEL. CO.
  lat:
  long:
- country: US
  region: MO
  exchange: '096330'
  name: AURORA
  full_name: Aurora
  lata: '522'
  ilec_name: BRIGHTSPEED OF EAST MISSOURI, LLC
  lat: '36.975206'
  long: "-93.735503"
  closest_city:
    name: Aurora
    distance_km: 1.76
- country: US
  region: MO
  exchange: '330854'
  name: AUSTIN
  full_name: Austin
  lata: '524'
  ilec_name: SOUTHWESTERN BELL
  lat:
  long:
- country: US
  region: MO
  exchange: '096340'
  name: AUXVASSE
  full_name: Auxvasse
  lata: '520'
  ilec_name: KINGDOM TEL. CO.
  lat: '39.016441'
  long: "-91.90223"
  closest_city:
    name: Auxvasse
    distance_km: 0.57
- country: US
  region: MO
  exchange: '096350'
  name: AVA
  full_name: Ava
  lata: '522'
  ilec_name: BRIGHTSPEED OF MISSOURI, LLC
  lat: '36.947867'
  long: "-92.656869"
  closest_city:
    name: Ava
    distance_km: 1.12
- country: US
  region: MO
  exchange: '096360'
  name: AVALON
  full_name: Avalon
  lata: '524'
  ilec_name: GREEN HILLS TEL. CORP.
  lat: '39.658868'
  long: "-93.451807"
  closest_city:
    name: Avalon
    distance_km: 1.07
- country: US
  region: MO
  exchange: '096370'
  name: AVENUECITY
  full_name: Avenue City
  lata: '524'
  ilec_name: BRIGHTSPEED OF EAST MISSOURI, LLC
  lat: '39.875122'
  long: "-94.780403"
  closest_city:
    name: Country Club
    distance_km: 5.29
- country: US
  region: MO
  exchange: '096380'
  name: AVILLA
  full_name: Avilla
  lata: '522'
  ilec_name: BRIGHTSPEED OF EAST MISSOURI, LLC
  lat: '37.198078'
  long: "-94.133864"
  closest_city:
    name: Avilla
    distance_km: 0.6
- country: US
  region: MO
  exchange: '330857'
  name: AVONDALE
  full_name: Avondale
  lata: '524'
  ilec_name: SOUTHWESTERN BELL
  lat:
  long:
- country: US
  region: MO
  exchange: '329757'
  name: BBLRSTATPK
  full_name: Babler State Park
  lata: '520'
  ilec_name: SOUTHWESTERN BELL
  lat:
  long:
- country: US
  region: MO
  exchange: '329753'
  name: BAGNELL
  full_name: Bagnell
  lata: '520'
  ilec_name: SOUTHWESTERN BELL
  lat:
  long:
- country: US
  region: MO
  exchange: '330427'
  name: BAKERSFLD
  full_name: Bakersfield
  lata: '522'
  ilec_name: BRIGHTSPEED OF MISSOURI, LLC
  lat:
  long:
- country: US
  region: MO
  exchange: '329754'
  name: BALLWIN
  full_name: Ballwin
  lata: '520'
  ilec_name: SOUTHWESTERN BELL
  lat:
  long:
- country: US
  region: MO
  exchange: '096390'
  name: BARING
  full_name: Baring
  lata: '524'
  ilec_name: MARK TWAIN RURAL TEL. CO.
  lat: '40.251302'
  long: "-92.206523"
  closest_city:
    name: Baring
    distance_km: 0.74
- country: US
  region: MO
  exchange: '096400'
  name: BARNARD
  full_name: Barnard
  lata: '524'
  ilec_name: GRAND RIVER MUTUAL TEL CO
  lat: '40.181983'
  long: "-94.823572"
  closest_city:
    name: Barnard
    distance_km: 0.73
- country: US
  region: MO
  exchange: '329755'
  name: BARNETT
  full_name: Barnett
  lata: '520'
  ilec_name: SOUTHWESTERN BELL
  lat:
  long:
- country: US
  region: MO
  exchange: '329756'
  name: BARNHART
  full_name: Barnhart
  lata: '520'
  ilec_name: SOUTHWESTERN BELL
  lat:
  long:
- country: US
  region: MO
  exchange: '330860'
  name: BATES CITY
  full_name: Bates City
  lata: '524'
  ilec_name: EMBARQ MISSOURI, INC. DBA CENTURYLINK - MO
  lat:
  long:
- country: US
  region: MO
  exchange: '330428'
  name: BATTLEFLD
  full_name: Battlefield
  lata: '522'
  ilec_name: SOUTHWESTERN BELL
  lat:
  long:
- country: US
  region: MO
  exchange: '330352'
  name: BAY
  full_name: Bay
  lata: '521'
  ilec_name: BRIGHTSPEED OF MISSOURI, LLC
  lat:
  long:
- country: US
  region: MO
  exchange: '330429'
  name: BEACH
  full_name: Beach
  lata: '522'
  ilec_name: BRIGHTSPEED OF MISSOURI, LLC
  lat:
  long:
- country: US
  region: MO
  exchange: '330861'
  name: BEAMAN
  full_name: Beaman
  lata: '524'
  ilec_name: SOUTHWESTERN BELL
  lat:
  long:
- country: US
  region: MO
  exchange: '330862'
  name: BEAN LAKE
  full_name: Bean Lake
  lata: '524'
  ilec_name: SOUTHWESTERN BELL
  lat:
  long:
- country: US
  region: MO
  exchange: '330430'
  name: BEARCREEK
  full_name: Bearcreek
  lata: '522'
  ilec_name: WINDSTREAM MISSOURI, INC.
  lat:
  long:
- country: US
  region: MO
  exchange: '096410'
  name: BEAUFORT
  full_name: Beaufort
  lata: '520'
  ilec_name: SOUTHWESTERN BELL
  lat: '38.41813'
  long: "-91.191761"
  closest_city:
    name: Leslie
    distance_km: 3.41
- country: US
  region: MO
  exchange: '09641E'
  name: BEAUFORT MCA5
  full_name: Beaufort MCA5
  lata: '520'
  ilec_name: SOUTHWESTERN BELL
  lat: '38.41813'
  long: "-91.191761"
  closest_city:
    name: Leslie
    distance_km: 3.41
- country: US
  region: MO
  exchange: '330863'
  name: BEDISON
  full_name: Bedison
  lata: '524'
  ilec_name: EMBARQ MISSOURI, INC. DBA CENTURYLINK - MO
  lat:
  long:
- country: US
  region: MO
  exchange: '329759'
  name: BEL NOR
  full_name: Bel Nor
  lata: '520'
  ilec_name: SOUTHWESTERN BELL
  lat:
  long:
- country: US
  region: MO
  exchange: '329760'
  name: BELGIQUE
  full_name: Belgique
  lata: '520'
  ilec_name: SOUTHWESTERN BELL
  lat:
  long:
- country: US
  region: MO
  exchange: '096420'
  name: BELGRADE
  full_name: Belgrade
  lata: '520'
  ilec_name: BRIGHTSPEED OF EAST MISSOURI, LLC
  lat: '37.783408'
  long: "-90.847438"
  closest_city:
    name: Caledonia
    distance_km: 6.93
- country: US
  region: MO
  exchange: '096430'
  name: BELL CITY
  full_name: Bell City
  lata: '520'
  ilec_name: SOUTHWESTERN BELL
  lat: '37.017078'
  long: "-89.81449"
  closest_city:
    name: Bell City
    distance_km: 0.86
- country: US
  region: MO
  exchange: '096440'
  name: BELLE
  full_name: Belle
  lata: '520'
  ilec_name: BRIGHTSPEED OF MISSOURI, LLC
  lat: '38.2835'
  long: "-91.719"
  closest_city:
    name: Belle
    distance_km: 0.28
- country: US
  region: MO
  exchange: '096450'
  name: BELLEVIEW
  full_name: Belleview
  lata: '520'
  ilec_name: BRIGHTSPEED OF EAST MISSOURI, LLC
  lat: '37.681132'
  long: "-90.742324"
  closest_city:
    name: Caledonia
    distance_km: 9.68
- country: US
  region: MO
  exchange: '096460'
  name: BELLFLOWER
  full_name: Bellflower
  lata: '520'
  ilec_name: WINDSTREAM MISSOURI, INC.
  lat: '39.001092'
  long: "-91.350707"
  closest_city:
    name: Bellflower
    distance_km: 0.32
- country: US
  region: MO
  exchange: '096470'
  name: BELTON
  full_name: Belton
  lata: '524'
  ilec_name: SOUTHWESTERN BELL
  lat: '38.816669'
  long: "-94.530332"
  closest_city:
    name: Belton
    distance_km: 0.39
- country: US
  region: MO
  exchange: '329766'
  name: BENBOW
  full_name: Benbow
  lata: '520'
  ilec_name: MARK TWAIN RURAL TEL. CO.
  lat:
  long:
- country: US
  region: MO
  exchange: '330431'
  name: BENDAVIS
  full_name: Bendavis
  lata: '522'
  ilec_name: BRIGHTSPEED OF EAST MISSOURI, LLC
  lat:
  long:
- country: US
  region: MO
  exchange: '330434'
  name: BNTSPGSTPK
  full_name: Bennett Spring State Park
  lata: '522'
  ilec_name: EMBARQ MISSOURI, INC. DBA CENTURYLINK - MO
  lat:
  long:
- country: US
  region: MO
  exchange: '096480'
  name: BENTON
  full_name: Benton
  lata: '520'
  ilec_name: SOUTHWESTERN BELL
  lat: '37.09798'
  long: "-89.565592"
  closest_city:
    name: Benton
    distance_km: 0.3
- country: US
  region: MO
  exchange: '329768'
  name: BENTONCITY
  full_name: Benton City
  lata: '520'
  ilec_name: SOUTHWESTERN BELL
  lat:
  long:
- country: US
  region: MO
  exchange: '096490'
  name: BERGER
  full_name: Berger
  lata: '520'
  ilec_name: FIDELITY TELEPHONE, LLC
  lat: '38.67668'
  long: "-91.333272"
  closest_city:
    name: Berger
    distance_km: 0.74
- country: US
  region: MO
  exchange: '329770'
  name: BERKELEY
  full_name: Berkeley
  lata: '520'
  ilec_name: SOUTHWESTERN BELL
  lat:
  long:
- country: US
  region: MO
  exchange: '330865'
  name: BERLIN
  full_name: Berlin
  lata: '524'
  ilec_name: GRAND RIVER MUTUAL TEL CO
  lat:
  long:
- country: US
  region: MO
  exchange: '096500'
  name: BERNIE
  full_name: Bernie
  lata: '520'
  ilec_name: BPS TELEPHONE COMPANY
  lat: '36.673433'
  long: "-89.974478"
  closest_city:
    name: Bernie
    distance_km: 0.38
- country: US
  region: MO
  exchange: '329772'
  name: BERRYMAN
  full_name: Berryman
  lata: '520'
  ilec_name: STEELVILLE TEL. EXCH., INC.
  lat:
  long:
- country: US
  region: MO
  exchange: '329773'
  name: BERTRAND
  full_name: Bertrand
  lata: '520'
  ilec_name: SOUTHWESTERN BELL
  lat:
  long:
- country: US
  region: MO
  exchange: '096510'
  name: BETHANY
  full_name: Bethany
  lata: '524'
  ilec_name: GRAND RIVER MUTUAL TEL CO
  lat: '40.276659'
  long: "-94.023739"
  closest_city:
    name: Bethany
    distance_km: 0.99
- country: US
  region: MO
  exchange: '096520'
  name: BETHEL
  full_name: Bethel
  lata: '524'
  ilec_name: MARK TWAIN RURAL TEL. CO.
  lat: '39.874479'
  long: "-92.025926"
  closest_city:
    name: Bethel
    distance_km: 0.5
- country: US
  region: MO
  exchange: '329774'
  name: BEULAH
  full_name: Beulah
  lata: '520'
  ilec_name: BRIGHTSPEED OF EAST MISSOURI, LLC
  lat:
  long:
- country: US
  region: MO
  exchange: '330868'
  name: BEVERLY
  full_name: Beverly
  lata: '524'
  ilec_name: SOUTHWESTERN BELL
  lat:
  long:
- country: US
  region: MO
  exchange: '096530'
  name: BEVIER
  full_name: Bevier
  lata: '524'
  ilec_name: CHARITON VALLEY TEL. CO.
  lat: '39.748514'
  long: "-92.568524"
  closest_city:
    name: Bevier
    distance_km: 0.51
- country: US
  region: MO
  exchange: '329776'
  name: BIEHLE
  full_name: Biehle
  lata: '520'
  ilec_name: SOUTHWESTERN BELL
  lat:
  long:
- country: US
  region: MO
  exchange: '329777'
  name: BIG PINEY
  full_name: Big Piney
  lata: '520'
  ilec_name: BRIGHTSPEED OF EAST MISSOURI, LLC
  lat:
  long:
- country: US
  region: MO
  exchange: '329775'
  name: BGSPGSTTPK
  full_name: Big Spring State Park
  lata: '520'
  ilec_name: BRIGHTSPEED OF EAST MISSOURI, LLC
  lat:
  long:
- country: US
  region: MO
  exchange: '330870'
  name: BIGELOW
  full_name: Bigelow
  lata: '524'
  ilec_name: EMBARQ MISSOURI, INC. DBA CENTURYLINK - MO
  lat:
  long:
- country: US
  region: MO
  exchange: '096540'
  name: BIGSPRING
  full_name: Bigspring
  lata: '520'
  ilec_name: KINGDOM TEL. CO.
  lat: '38.808834'
  long: "-91.480705"
  closest_city:
    name: Big Spring
    distance_km: 0.8
- country: US
  region: MO
  exchange: '096550'
  name: BILLINGS
  full_name: Billings
  lata: '522'
  ilec_name: SOUTHWESTERN BELL
  lat: '37.06675'
  long: "-93.552977"
  closest_city:
    name: Billings
    distance_km: 0.35
- country: US
  region: MO
  exchange: '09655E'
  name: BILLINGS MCA2
  full_name: Billings MCA2
  lata: '522'
  ilec_name: SOUTHWESTERN BELL
  lat: '37.06675'
  long: "-93.552977"
  closest_city:
    name: Billings
    distance_km: 0.35
- country: US
  region: MO
  exchange: '096560'
  name: BIRCH TREE
  full_name: Birch Tree
  lata: '520'
  ilec_name: BRIGHTSPEED OF EAST MISSOURI, LLC
  lat: '36.990391'
  long: "-91.494057"
  closest_city:
    name: Birch Tree
    distance_km: 0.73
- country: US
  region: MO
  exchange: '330871'
  name: BIRMINGHAM
  full_name: Birmingham
  lata: '524'
  ilec_name: SOUTHWESTERN BELL
  lat:
  long:
- country: US
  region: MO
  exchange: '096570'
  name: BISMARCK
  full_name: Bismarck
  lata: '520'
  ilec_name: SOUTHWESTERN BELL
  lat: '37.766969'
  long: "-90.632098"
  closest_city:
    name: Bismarck
    distance_km: 0.85
- country: US
  region: MO
  exchange: '329781'
  name: BIXBY
  full_name: Bixby
  lata: '520'
  ilec_name: BRIGHTSPEED OF EAST MISSOURI, LLC
  lat:
  long:
- country: US
  region: MO
  exchange: '329782'
  name: BLACK
  full_name: Black
  lata: '520'
  ilec_name: BRIGHTSPEED OF EAST MISSOURI, LLC
  lat:
  long:
- country: US
  region: MO
  exchange: '329783'
  name: BLACK JACK
  full_name: Black Jack
  lata: '520'
  ilec_name: SOUTHWESTERN BELL
  lat:
  long:
- country: US
  region: MO
  exchange: '096580'
  name: BLACKBURN
  full_name: Blackburn
  lata: '524'
  ilec_name: EMBARQ MISSOURI, INC. DBA CENTURYLINK - MO
  lat: '39.107046'
  long: "-93.484501"
  closest_city:
    name: Blackburn
    distance_km: 0.26
- country: US
  region: MO
  exchange: '096590'
  name: BLACKWATER
  full_name: Blackwater
  lata: '524'
  ilec_name: OTELCO MID-MISSOURI LLC
  lat: '38.983684'
  long: "-92.992861"
  closest_city:
    name: Blackwater
    distance_km: 0.49
- country: US
  region: MO
  exchange: '329784'
  name: BLACKWELL
  full_name: Blackwell
  lata: '520'
  ilec_name: SOUTHWESTERN BELL
  lat:
  long:
- country: US
  region: MO
  exchange: '096600'
  name: BLAIRSTOWN
  full_name: Blairstown
  lata: '524'
  ilec_name: EMBARQ MISSOURI, INC. DBA CENTURYLINK - MO
  lat: '38.553731'
  long: "-93.959539"
  closest_city:
    name: Blairstown
    distance_km: 0.5
- country: US
  region: MO
  exchange: '096610'
  name: BLAND
  full_name: Bland
  lata: '520'
  ilec_name: BRIGHTSPEED OF MISSOURI, LLC
  lat: '38.297458'
  long: "-91.633219"
  closest_city:
    name: Bland
    distance_km: 0.33
- country: US
  region: MO
  exchange: '329786'
  name: BLISS
  full_name: Bliss
  lata: '520'
  ilec_name: BRIGHTSPEED OF EAST MISSOURI, LLC
  lat:
  long:
- country: US
  region: MO
  exchange: '329787'
  name: BLODGETT
  full_name: Blodgett
  lata: '520'
  ilec_name: SOUTHWESTERN BELL
  lat:
  long:
- country: US
  region: MO
  exchange: '096620'
  name: BLOOMFIELD
  full_name: Bloomfield
  lata: '520'
  ilec_name: SOUTHWESTERN BELL
  lat: '36.88444'
  long: "-89.934516"
  closest_city:
    name: Bloomfield
    distance_km: 0.49
- country: US
  region: MO
  exchange: '096630'
  name: BLOMINGTON
  full_name: Bloomington
  lata: '524'
  ilec_name: CHARITON VALLEY CELLULAR (BELLCORE ASSIGNED)
  lat: '39.75756'
  long: "-92.536882"
  closest_city:
    name: Bevier
    distance_km: 2.4
- country: US
  region: MO
  exchange: '096640'
  name: BLOOMSDALE
  full_name: Bloomsdale
  lata: '520'
  ilec_name: SOUTHWESTERN BELL
  lat: '38.009749'
  long: "-90.224299"
  closest_city:
    name: Bloomsdale
    distance_km: 0.6
- country: US
  region: MO
  exchange: '096650'
  name: BLUE EYE
  full_name: Blue Eye
  lata: '522'
  ilec_name: BRIGHTSPEED OF MISSOURI, LLC
  lat: '36.498318'
  long: "-93.398372"
  closest_city:
    name: Blue Eye
    distance_km: 2.32
- country: US
  region: MO
  exchange: '096670'
  name: BLUE SPG
  full_name: Blue Springs
  lata: '524'
  ilec_name: SOUTHWESTERN BELL
  lat: '39.015421'
  long: "-94.2848"
  closest_city:
    name: Blue Springs
    distance_km: 1.15
- country: US
  region: MO
  exchange: '330877'
  name: BLYTHEDALE
  full_name: Blythedale
  lata: '524'
  ilec_name: GRAND RIVER MUTUAL TEL CO
  lat:
  long:
- country: US
  region: MO
  exchange: '096680'
  name: BLYTHEVL
  full_name: Blytheville
  lata: '528'
  ilec_name: SOUTHWESTERN BELL
  lat: '35.999856'
  long: "-89.864609"
  closest_city:
    name: Holland
    distance_km: 6.39
- country: US
  region: MO
  exchange: '330435'
  name: BOAZ
  full_name: Boaz
  lata: '522'
  ilec_name: SOUTHWESTERN BELL
  lat:
  long:
- country: US
  region: MO
  exchange: '096690'
  name: BOGARD
  full_name: Bogard
  lata: '524'
  ilec_name: GREEN HILLS TEL. CORP.
  lat: '39.451439'
  long: "-93.526196"
  closest_city:
    name: Bogard
    distance_km: 0.76
- country: US
  region: MO
  exchange: '330436'
  name: BOIS DARC
  full_name: Bois D'Arc
  lata: '522'
  ilec_name: SOUTHWESTERN BELL
  lat:
  long:
- country: US
  region: MO
  exchange: '096700'
  name: BOLCKOW
  full_name: Bolckow
  lata: '524'
  ilec_name: BRIGHTSPEED OF EAST MISSOURI, LLC
  lat: '40.113934'
  long: "-94.816045"
  closest_city:
    name: Bolckow
    distance_km: 0.46
- country: US
  region: MO
  exchange: '096710'
  name: BOLIVAR
  full_name: Bolivar
  lata: '522'
  ilec_name: WINDSTREAM MISSOURI, INC.
  lat: '37.616236'
  long: "-93.416247"
  closest_city:
    name: Bolivar
    distance_km: 1.15
- country: US
  region: MO
  exchange: '096720'
  name: BONNETERRE
  full_name: Bonne Terre
  lata: '520'
  ilec_name: SOUTHWESTERN BELL
  lat: '37.918543'
  long: "-90.55867"
  closest_city:
    name: Bonne Terre
    distance_km: 1.44
- country: US
  region: MO
  exchange: '330353'
  name: BONNOTS ML
  full_name: Bonnots Mill
  lata: '521'
  ilec_name: SOUTHWESTERN BELL
  lat:
  long:
- country: US
  region: MO
  exchange: '330880'
  name: BOONESBORO
  full_name: Boonesboro
  lata: '524'
  ilec_name: SOUTHWESTERN BELL
  lat:
  long:
- country: US
  region: MO
  exchange: '096730'
  name: BOONVILLE
  full_name: Boonville
  lata: '524'
  ilec_name: SOUTHWESTERN BELL
  lat: '38.973872'
  long: "-92.752485"
  closest_city:
    name: Boonville
    distance_km: 1.75
- country: US
  region: MO
  exchange: '096740'
  name: BOSS
  full_name: Boss
  lata: '520'
  ilec_name: BRIGHTSPEED OF EAST MISSOURI, LLC
  lat: '37.64262'
  long: "-91.189349"
  closest_city:
    name: Viburnum
    distance_km: 9.61
- country: US
  region: MO
  exchange: '096750'
  name: BOSWORTH
  full_name: Bosworth
  lata: '524'
  ilec_name: CHARITON VALLEY TEL. CO.
  lat: '39.465931'
  long: "-93.335732"
  closest_city:
    name: Bosworth
    distance_km: 0.44
- country: US
  region: MO
  exchange: '096760'
  name: BOURBON
  full_name: Bourbon
  lata: '520'
  ilec_name: BRIGHTSPEED OF MISSOURI, LLC
  lat: '38.150623'
  long: "-91.243824"
  closest_city:
    name: Bourbon
    distance_km: 0.49
- country: US
  region: MO
  exchange: '330883'
  name: BOWEN
  full_name: Bowen
  lata: '524'
  ilec_name: EMBARQ MISSOURI, INC. DBA CENTURYLINK - MO
  lat:
  long:
- country: US
  region: MO
  exchange: '096770'
  name: BOWLNGGREN
  full_name: Bowling Green
  lata: '520'
  ilec_name: SOUTHWESTERN BELL
  lat: '39.340218'
  long: "-91.201594"
  closest_city:
    name: Bowling Green
    distance_km: 0.52
- country: US
  region: MO
  exchange: '330884'
  name: BOYNTON
  full_name: Boynton
  lata: '524'
  ilec_name: NORTHEAST MISSOURI RURAL TEL. CO.
  lat:
  long:
- country: US
  region: MO
  exchange: '096780'
  name: BRADLEYVL
  full_name: Bradleyville
  lata: '522'
  ilec_name: BRIGHTSPEED OF MISSOURI, LLC
  lat: '36.78122'
  long: "-92.908544"
  closest_city:
    name: Taneyville
    distance_km: 12.29
- country: US
  region: MO
  exchange: '329794'
  name: BRAGG CITY
  full_name: Bragg City
  lata: '520'
  ilec_name: SOUTHWESTERN BELL
  lat:
  long:
- country: US
  region: MO
  exchange: '329795'
  name: BRAGGADOCI
  full_name: Braggadocio
  lata: '520'
  ilec_name: SOUTHWESTERN BELL
  lat:
  long:
- country: US
  region: MO
  exchange: '330439'
  name: BRANDSVL
  full_name: Brandsville
  lata: '522'
  ilec_name: BRIGHTSPEED OF MISSOURI, LLC
  lat:
  long:
- country: US
  region: MO
  exchange: '096790'
  name: BRANSON
  full_name: Branson
  lata: '522'
  ilec_name: BRIGHTSPEED OF MISSOURI, LLC
  lat: '36.642942'
  long: "-93.224301"
  closest_city:
    name: Branson
    distance_km: 3.62
- country: US
  region: MO
  exchange: '096800'
  name: BRANSON W
  full_name: Branson West
  lata: '522'
  ilec_name: BRIGHTSPEED OF MISSOURI, LLC
  lat: '36.62224'
  long: "-93.348434"
  closest_city:
    name: Indian Point
    distance_km: 2.31
- country: US
  region: MO
  exchange: '096810'
  name: BRASHEAR
  full_name: Brashear
  lata: '524'
  ilec_name: MARK TWAIN RURAL TEL. CO.
  lat: '40.150215'
  long: "-92.380163"
  closest_city:
    name: Brashear
    distance_km: 0.24
- country: US
  region: MO
  exchange: '096820'
  name: BRAYMER
  full_name: Braymer
  lata: '524'
  ilec_name: BRIGHTSPEED OF EAST MISSOURI, LLC
  lat: '39.593046'
  long: "-93.802348"
  closest_city:
    name: Braymer
    distance_km: 0.61
- country: US
  region: MO
  exchange: '329796'
  name: BRAZEAU
  full_name: Brazeau
  lata: '520'
  ilec_name: SOUTHWESTERN BELL
  lat:
  long:
- country: US
  region: MO
  exchange: '096830'
  name: BRAZITO
  full_name: Brazito
  lata: '521'
  ilec_name: EMBARQ MISSOURI, INC. DBA CENTURYLINK - MO
  lat: '38.44724'
  long: "-92.299055"
  closest_city:
    name: Wardsville
    distance_km: 11.48
- country: US
  region: MO
  exchange: '096840'
  name: BRECKENRDG
  full_name: Breckenridge
  lata: '524'
  ilec_name: GREEN HILLS TEL. CORP.
  lat: '39.766835'
  long: "-93.806786"
  closest_city:
    name: Breckenridge
    distance_km: 0.63
- country: US
  region: MO
  exchange: '329797'
  name: BRCKRD HLS
  full_name: Breckenridge Hills
  lata: '520'
  ilec_name: SOUTHWESTERN BELL
  lat:
  long:
- country: US
  region: MO
  exchange: '329798'
  name: BRENTWOOD
  full_name: Brentwood
  lata: '520'
  ilec_name: SOUTHWESTERN BELL
  lat:
  long:
- country: US
  region: MO
  exchange: '329799'
  name: BRIAR
  full_name: Briar
  lata: '520'
  ilec_name: WINDSTREAM MISSOURI, INC.
  lat:
  long:
- country: US
  region: MO
  exchange: '099684'
  name: BRIDGETON
  full_name: Bridgeton
  lata: '520'
  ilec_name: SOUTHWESTERN BELL
  lat:
  long:
- country: US
  region: MO
  exchange: '330442'
  name: BRIGHTON
  full_name: Brighton
  lata: '522'
  ilec_name: WINDSTREAM MISSOURI, INC.
  lat:
  long:
- country: US
  region: MO
  exchange: '096850'
  name: BRIMSON
  full_name: Brimson
  lata: '524'
  ilec_name: GRAND RIVER MUTUAL TEL CO
  lat: '40.150115'
  long: "-93.742565"
  closest_city:
    name: Brimson
    distance_km: 0.68
- country: US
  region: MO
  exchange: '330355'
  name: BRINKTOWN
  full_name: Brinktown
  lata: '521'
  ilec_name: SOUTHWESTERN BELL
  lat:
  long:
- country: US
  region: MO
  exchange: '330443'
  name: BRIXEY
  full_name: Brixey
  lata: '522'
  ilec_name: BRIGHTSPEED OF MISSOURI, LLC
  lat:
  long:
- country: US
  region: MO
  exchange: '096870'
  name: BROCK
  full_name: Brock
  lata: '524'
  ilec_name: NORTHEAST MISSOURI RURAL TEL. CO.
  lat: '40.550192'
  long: "-92.157001"
  closest_city:
    name: Memphis
    distance_km: 9.95
- country: US
  region: MO
  exchange: '096880'
  name: BRONAUGH
  full_name: Bronaugh
  lata: '522'
  ilec_name: BRIGHTSPEED OF EAST MISSOURI, LLC
  lat: '37.694022'
  long: "-94.467134"
  closest_city:
    name: Bronaugh
    distance_km: 0.1
- country: US
  region: MO
  exchange: '096890'
  name: BROOKFIELD
  full_name: Brookfield
  lata: '524'
  ilec_name: SOUTHWESTERN BELL
  lat: '39.780188'
  long: "-93.073892"
  closest_city:
    name: Brookfield
    distance_km: 0.63
- country: US
  region: MO
  exchange: '330445'
  name: BROOKLINE
  full_name: Brookline
  lata: '522'
  ilec_name: SOUTHWESTERN BELL
  lat:
  long:
- country: US
  region: MO
  exchange: '330892'
  name: BROOKLYN
  full_name: Brooklyn
  lata: '524'
  ilec_name: GRAND RIVER MUTUAL TEL CO
  lat:
  long:
- country: US
  region: MO
  exchange: '329801'
  name: BROSELEY
  full_name: Broseley
  lata: '520'
  ilec_name: SOUTHWESTERN BELL
  lat:
  long:
- country: US
  region: MO
  exchange: '096900'
  name: BROWNING
  full_name: Browning
  lata: '524'
  ilec_name: GRAND RIVER MUTUAL TEL CO
  lat: '40.034389'
  long: "-93.16044"
  closest_city:
    name: Browning
    distance_km: 0.06
- country: US
  region: MO
  exchange: '330446'
  name: BROWNINGTN
  full_name: Brownington
  lata: '522'
  ilec_name: BRIGHTSPEED OF EAST MISSOURI, LLC
  lat:
  long:
- country: US
  region: MO
  exchange: '329802'
  name: BROWNWOOD
  full_name: Brownwood
  lata: '520'
  ilec_name: SOUTHWESTERN BELL
  lat:
  long:
- country: US
  region: MO
  exchange: '329803'
  name: BRUMLEY
  full_name: Brumley
  lata: '520'
  ilec_name: SOUTHWESTERN BELL
  lat:
  long:
- country: US
  region: MO
  exchange: '330447'
  name: BRUNER
  full_name: Bruner
  lata: '522'
  ilec_name: BRIGHTSPEED OF MISSOURI, LLC
  lat:
  long:
- country: US
  region: MO
  exchange: '096910'
  name: BRUNSWICK
  full_name: Brunswick
  lata: '524'
  ilec_name: BRIGHTSPEED OF EAST MISSOURI, LLC
  lat: '39.434951'
  long: "-93.132465"
  closest_city:
    name: Brunswick
    distance_km: 1.16
- country: US
  region: MO
  exchange: '330448'
  name: BRUSHCREEK
  full_name: Brush Creek
  lata: '522'
  ilec_name: EMBARQ MISSOURI, INC. DBA CENTURYLINK - MO
  lat:
  long:
- country: US
  region: MO
  exchange: '329804'
  name: BUCKHORN
  full_name: Buckhorn
  lata: '520'
  ilec_name: SOUTHWESTERN BELL
  lat:
  long:
- country: US
  region: MO
  exchange: '329805'
  name: BUCKHORN
  full_name: Buckhorn
  lata: '520'
  ilec_name: EMBARQ MISSOURI, INC. DBA CENTURYLINK - MO
  lat:
  long:
- country: US
  region: MO
  exchange: '096920'
  name: BUCKLIN
  full_name: Bucklin
  lata: '524'
  ilec_name: CHARITON VALLEY TEL. CO.
  lat: '39.781485'
  long: "-92.889839"
  closest_city:
    name: Bucklin
    distance_km: 0.3
- country: US
  region: MO
  exchange: '096930'
  name: BUCKNER
  full_name: Buckner
  lata: '524'
  ilec_name: EMBARQ MISSOURI, INC. DBA CENTURYLINK - MO
  lat: '39.13277'
  long: "-94.199639"
  closest_city:
    name: Buckner
    distance_km: 0.59
- country: US
  region: MO
  exchange: '09693E'
  name: BUCKNER MCA3
  full_name: Buckner MCA3
  lata: '524'
  ilec_name: EMBARQ MISSOURI, INC. DBA CENTURYLINK - MO
  lat: '39.13277'
  long: "-94.199639"
  closest_city:
    name: Buckner
    distance_km: 0.59
- country: US
  region: MO
  exchange: '330449'
  name: BUCYRUS
  full_name: Bucyrus
  lata: '522'
  ilec_name: BRIGHTSPEED OF EAST MISSOURI, LLC
  lat:
  long:
- country: US
  region: MO
  exchange: '329806'
  name: BUELL
  full_name: Buell
  lata: '520'
  ilec_name: SOUTHWESTERN BELL
  lat:
  long:
- country: US
  region: MO
  exchange: '096940'
  name: BUFFALO
  full_name: Buffalo
  lata: '522'
  ilec_name: BRIGHTSPEED OF MISSOURI, LLC
  lat: '37.649263'
  long: "-93.099465"
  closest_city:
    name: Buffalo
    distance_km: 0.58
- country: US
  region: MO
  exchange: '096950'
  name: BUNCETON
  full_name: Bunceton
  lata: '524'
  ilec_name: OTELCO MID-MISSOURI LLC
  lat: '38.792502'
  long: "-92.80025"
  closest_city:
    name: Bunceton
    distance_km: 0.36
- country: US
  region: MO
  exchange: '096960'
  name: BUNKER
  full_name: Bunker
  lata: '520'
  ilec_name: BRIGHTSPEED OF EAST MISSOURI, LLC
  lat: '37.447812'
  long: "-91.216367"
  closest_city:
    name: Bunker
    distance_km: 1.13
- country: US
  region: MO
  exchange: '329808'
  name: BURFORDVL
  full_name: Burfordville
  lata: '520'
  ilec_name: SOUTHWESTERN BELL
  lat:
  long:
- country: US
  region: MO
  exchange: '096970'
  name: BURLITNJCT
  full_name: Burlington Junction
  lata: '524'
  ilec_name: IAMO COMMUNICATIONS, INC.
  lat: '40.442649'
  long: "-95.063272"
  closest_city:
    name: Burlington Junction
    distance_km: 0.53
- country: US
  region: MO
  exchange: '096980'
  name: BUTLER
  full_name: Butler
  lata: '524'
  ilec_name: EMBARQ MISSOURI, INC. DBA CENTURYLINK - MO
  lat: '38.259183'
  long: "-94.334238"
  closest_city:
    name: Butler
    distance_km: 0.46
- country: US
  region: MO
  exchange: '330451'
  name: BUTTERFLD
  full_name: Butterfield
  lata: '522'
  ilec_name: WINDSTREAM MISSOURI, INC.
  lat:
  long:
- country: US
  region: MO
  exchange: '096990'
  name: BYNUMVILLE
  full_name: Bynumville
  lata: '524'
  ilec_name: CHARITON VALLEY TEL. CO.
  lat: '39.618916'
  long: "-92.776451"
  closest_city:
    name: Prairie Hill
    distance_km: 11.44
- country: US
  region: MO
  exchange: '329809'
  name: BYRNES ML
  full_name: Byrnes Mill
  lata: '520'
  ilec_name: SOUTHWESTERN BELL
  lat:
  long:
- country: US
  region: MO
  exchange: '097000'
  name: CABOOL
  full_name: Cabool
  lata: '522'
  ilec_name: BRIGHTSPEED OF MISSOURI, LLC
  lat: '37.123204'
  long: "-92.101164"
  closest_city:
    name: Cabool
    distance_km: 0.38
- country: US
  region: MO
  exchange: '329810'
  name: CADET
  full_name: Cadet
  lata: '520'
  ilec_name: BRIGHTSPEED OF EAST MISSOURI, LLC
  lat:
  long:
- country: US
  region: MO
  exchange: '097010'
  name: CAINSVILLE
  full_name: Cainsville
  lata: '524'
  ilec_name: GRAND RIVER MUTUAL TEL CO
  lat: '40.434731'
  long: "-93.774527"
  closest_city:
    name: Cainsville
    distance_km: 0.56
- country: US
  region: MO
  exchange: '330902'
  name: CAIRO
  full_name: Cairo
  lata: '524'
  ilec_name: SOUTHWESTERN BELL
  lat:
  long:
- country: US
  region: MO
  exchange: '097020'
  name: CALEDONIA
  full_name: Caledonia
  lata: '520'
  ilec_name: BRIGHTSPEED OF EAST MISSOURI, LLC
  lat: '37.765578'
  long: "-90.774605"
  closest_city:
    name: Caledonia
    distance_km: 0.22
- country: US
  region: MO
  exchange: '097030'
  name: CALHOUN
  full_name: Calhoun
  lata: '524'
  ilec_name: EMBARQ MISSOURI, INC. DBA CENTURYLINK - MO
  lat: '38.466515'
  long: "-93.624475"
  closest_city:
    name: Calhoun
    distance_km: 0.21
- country: US
  region: MO
  exchange: '097040'
  name: CALIFORNIA
  full_name: California
  lata: '521'
  ilec_name: EMBARQ MISSOURI, INC. DBA CENTURYLINK - MO
  lat: '38.631106'
  long: "-92.565223"
  closest_city:
    name: California
    distance_km: 0.18
- country: US
  region: MO
  exchange: '097050'
  name: CALLAO
  full_name: Callao
  lata: '524'
  ilec_name: CHARITON VALLEY TEL. CO.
  lat: '39.767832'
  long: "-92.622599"
  closest_city:
    name: Callao
    distance_km: 0.64
- country: US
  region: MO
  exchange: '330905'
  name: CAMDEN
  full_name: Camden
  lata: '524'
  ilec_name: SOUTHWESTERN BELL
  lat:
  long:
- country: US
  region: MO
  exchange: '097060'
  name: CAMDEN PT
  full_name: Camden Point
  lata: '524'
  ilec_name: EMBARQ MISSOURI, INC. DBA CENTURYLINK - MO
  lat: '39.45402'
  long: "-94.742919"
  closest_city:
    name: Camden Point
    distance_km: 0.52
- country: US
  region: MO
  exchange: '09706E'
  name: CAMDEN POINT MCA4
  full_name: Camden Point MCA4
  lata: '524'
  ilec_name: EMBARQ MISSOURI, INC. DBA CENTURYLINK - MO
  lat: '39.45402'
  long: "-94.742919"
  closest_city:
    name: Camden Point
    distance_km: 0.52
- country: US
  region: MO
  exchange: '097070'
  name: CAMDENTON
  full_name: Camdenton
  lata: '520'
  ilec_name: SOUTHWESTERN BELL
  lat: '38.007552'
  long: "-92.741462"
  closest_city:
    name: Camdenton
    distance_km: 0.9
- country: US
  region: MO
  exchange: '097080'
  name: CAMERON
  full_name: Cameron
  lata: '524'
  ilec_name: BRIGHTSPEED OF EAST MISSOURI, LLC
  lat: '39.744241'
  long: "-94.242945"
  closest_city:
    name: Cameron
    distance_km: 0.86
- country: US
  region: MO
  exchange: '097090'
  name: CAMPBELL
  full_name: Campbell
  lata: '520'
  ilec_name: SOUTHWESTERN BELL
  lat: '36.491072'
  long: "-90.072904"
  closest_city:
    name: Campbell
    distance_km: 0.36
- country: US
  region: MO
  exchange: '329814'
  name: CANALOU
  full_name: Canalou
  lata: '520'
  ilec_name: SOUTHWESTERN BELL
  lat:
  long:
- country: US
  region: MO
  exchange: '097100'
  name: CANTON
  full_name: Canton
  lata: '520'
  ilec_name: BRIGHTSPEED OF EAST MISSOURI, LLC
  lat: '40.13161'
  long: "-91.524519"
  closest_city:
    name: Canton
    distance_km: 0.29
- country: US
  region: MO
  exchange: '329816'
  name: CANTWELL
  full_name: Cantwell
  lata: '520'
  ilec_name: SOUTHWESTERN BELL
  lat:
  long:
- country: US
  region: MO
  exchange: '097110'
  name: CAPE FAIR
  full_name: Cape Fair
  lata: '522'
  ilec_name: BRIGHTSPEED OF MISSOURI, LLC
  lat: '36.726468'
  long: "-93.509611"
  closest_city:
    name: McCord Bend
    distance_km: 6.81
- country: US
  region: MO
  exchange: '097120'
  name: CAPEGIRARD
  full_name: Cape Girardeau
  lata: '520'
  ilec_name: SOUTHWESTERN BELL
  lat: '37.298443'
  long: "-89.524135"
  closest_city:
    name: Cape Girardeau
    distance_km: 3.44
- country: US
  region: MO
  exchange: '330454'
  name: CAPLINGRML
  full_name: Caplinger Mills
  lata: '522'
  ilec_name: WINDSTREAM MISSOURI, INC.
  lat:
  long:
- country: US
  region: MO
  exchange: '097130'
  name: CARDWELL
  full_name: Cardwell
  lata: '520'
  ilec_name: SOUTHWESTERN BELL
  lat: '36.0473'
  long: "-90.290253"
  closest_city:
    name: Cardwell
    distance_km: 0.06
- country: US
  region: MO
  exchange: '097140'
  name: CARL JCT
  full_name: Carl Junction
  lata: '522'
  ilec_name: SOUTHWESTERN BELL
  lat: '37.183851'
  long: "-94.568041"
  closest_city:
    name: Carl Junction
    distance_km: 2.67
- country: US
  region: MO
  exchange: '097150'
  name: CARROLLTON
  full_name: Carrollton
  lata: '524'
  ilec_name: SOUTHWESTERN BELL
  lat: '39.356978'
  long: "-93.502711"
  closest_city:
    name: Carrollton
    distance_km: 0.96
- country: US
  region: MO
  exchange: '330456'
  name: CARTERVL
  full_name: Carterville
  lata: '522'
  ilec_name: SOUTHWESTERN BELL
  lat:
  long:
- country: US
  region: MO
  exchange: '097160'
  name: CARTHAGE
  full_name: Carthage
  lata: '522'
  ilec_name: SOUTHWESTERN BELL
  lat: '37.184581'
  long: "-94.310657"
  closest_city:
    name: Carthage
    distance_km: 3.95
- country: US
  region: MO
  exchange: '329819'
  name: CARUTH
  full_name: Caruth
  lata: '520'
  ilec_name: SOUTHWESTERN BELL
  lat:
  long:
- country: US
  region: MO
  exchange: '097170'
  name: CARUTHRSVL
  full_name: Caruthersville
  lata: '520'
  ilec_name: SOUTHWESTERN BELL
  lat: '36.200851'
  long: "-89.659922"
  closest_city:
    name: Caruthersville
    distance_km: 2.24
- country: US
  region: MO
  exchange: '097180'
  name: CASSVILLE
  full_name: Cassville
  lata: '522'
  ilec_name: BRIGHTSPEED OF MISSOURI, LLC
  lat: '36.675713'
  long: "-93.875031"
  closest_city:
    name: Cassville
    distance_km: 0.69
- country: US
  region: MO
  exchange: '329821'
  name: CASTLEWOOD
  full_name: Castlewood
  lata: '520'
  ilec_name: SOUTHWESTERN BELL
  lat:
  long:
- country: US
  region: MO
  exchange: '329822'
  name: CATAWISSA
  full_name: Catawissa
  lata: '520'
  ilec_name: SOUTHWESTERN BELL
  lat:
  long:
- country: US
  region: MO
  exchange: '329823'
  name: CATRON
  full_name: Catron
  lata: '520'
  ilec_name: SOUTHWESTERN BELL
  lat:
  long:
- country: US
  region: MO
  exchange: '097190'
  name: CAULFIELD
  full_name: Caulfield
  lata: '522'
  ilec_name: BRIGHTSPEED OF MISSOURI, LLC
  lat: '36.609786'
  long: "-92.107233"
  closest_city:
    name: Bakersfield
    distance_km: 10.12
- country: US
  region: MO
  exchange: '330357'
  name: CEDAR CITY
  full_name: Cedar City
  lata: '521'
  ilec_name: EMBARQ MISSOURI, INC. DBA CENTURYLINK - MO
  lat:
  long:
- country: US
  region: MO
  exchange: '097200'
  name: CEDARCREEK
  full_name: Cedar Creek
  lata: '522'
  ilec_name: BRIGHTSPEED OF MISSOURI, LLC
  lat: '36.583962'
  long: "-92.99433"
  closest_city:
    name: Kissee Mills
    distance_km: 10.61
- country: US
  region: MO
  exchange: '330460'
  name: CEDAR GAP
  full_name: Cedar Gap
  lata: '522'
  ilec_name: BRIGHTSPEED OF MISSOURI, LLC
  lat:
  long:
- country: US
  region: MO
  exchange: '097210'
  name: CEDAR HILL
  full_name: Cedar Hill
  lata: '520'
  ilec_name: SOUTHWESTERN BELL
  lat: '38.349844'
  long: "-90.649657"
  closest_city:
    name: Cedar Hill
    distance_km: 1.14
- country: US
  region: MO
  exchange: '09721E'
  name: CEDAR HILL MCA5
  full_name: Cedar Hill MCA5
  lata: '520'
  ilec_name: SOUTHWESTERN BELL
  lat: '38.349844'
  long: "-90.649657"
  closest_city:
    name: Cedar Hill
    distance_km: 1.14
- country: US
  region: MO
  exchange: '330461'
  name: CEDAR SPG
  full_name: Cedar Springs
  lata: '522'
  ilec_name: BRIGHTSPEED OF EAST MISSOURI, LLC
  lat:
  long:
- country: US
  region: MO
  exchange: '329825'
  name: CENTAUR
  full_name: Centaur
  lata: '520'
  ilec_name: SOUTHWESTERN BELL
  lat:
  long:
- country: US
  region: MO
  exchange: '097220'
  name: CENTER
  full_name: Center
  lata: '520'
  ilec_name: SOUTHWESTERN BELL
  lat: '39.509029'
  long: "-91.531445"
  closest_city:
    name: Center
    distance_km: 0.21
- country: US
  region: MO
  exchange: '097230'
  name: CENTERTOWN
  full_name: Centertown
  lata: '521'
  ilec_name: EMBARQ MISSOURI, INC. DBA CENTURYLINK - MO
  lat: '38.620488'
  long: "-92.410041"
  closest_city:
    name: Centertown
    distance_km: 0.29
- country: US
  region: MO
  exchange: '097240'
  name: CENTERVIEW
  full_name: Centerview
  lata: '524'
  ilec_name: EMBARQ MISSOURI, INC. DBA CENTURYLINK - MO
  lat: '38.742287'
  long: "-93.846951"
  closest_city:
    name: Centerview
    distance_km: 0.5
- country: US
  region: MO
  exchange: '097250'
  name: CENTERVL
  full_name: Centerville
  lata: '520'
  ilec_name: BRIGHTSPEED OF EAST MISSOURI, LLC
  lat: '37.434738'
  long: "-90.955532"
  closest_city:
    name: Centerville
    distance_km: 0.46
- country: US
  region: MO
  exchange: '097260'
  name: CENTRALIA
  full_name: Centralia
  lata: '521'
  ilec_name: BRIGHTSPEED OF MISSOURI, LLC
  lat: '39.208235'
  long: "-92.132612"
  closest_city:
    name: Centralia
    distance_km: 0.29
- country: US
  region: MO
  exchange: '330463'
  name: CHADWICK
  full_name: Chadwick
  lata: '522'
  ilec_name: BRIGHTSPEED OF MISSOURI, LLC
  lat:
  long:
- country: US
  region: MO
  exchange: '097270'
  name: CHAFFEE
  full_name: Chaffee
  lata: '520'
  ilec_name: SOUTHWESTERN BELL
  lat: '37.182675'
  long: "-89.660608"
  closest_city:
    name: Chaffee
    distance_km: 0.18
- country: US
  region: MO
  exchange: '097280'
  name: CHAMOIS
  full_name: Chamois
  lata: '521'
  ilec_name: BRIGHTSPEED OF MISSOURI, LLC
  lat: '38.675607'
  long: "-91.768935"
  closest_city:
    name: Chamois
    distance_km: 0.12
- country: US
  region: MO
  exchange: '097290'
  name: CHARLESTON
  full_name: Charleston
  lata: '520'
  ilec_name: SOUTHWESTERN BELL
  lat: '36.924175'
  long: "-89.340327"
  closest_city:
    name: Charleston
    distance_km: 0.88
- country: US
  region: MO
  exchange: '330466'
  name: CHKE HM VL
  full_name: Cherokee Homestead Village
  lata: '522'
  ilec_name: WINDSTREAM MISSOURI, INC.
  lat:
  long:
- country: US
  region: MO
  exchange: '097300'
  name: CHERRYVL
  full_name: Cherryville
  lata: '520'
  ilec_name: STEELVILLE TEL. EXCH., INC.
  lat: '37.848074'
  long: "-91.284294"
  closest_city:
    name: Steelville
    distance_km: 14.85
- country: US
  region: MO
  exchange: '330464'
  name: CHESAPEAKE
  full_name: Chesapeake
  lata: '522'
  ilec_name: BRIGHTSPEED OF EAST MISSOURI, LLC
  lat:
  long:
- country: US
  region: MO
  exchange: '097310'
  name: CHESTERFLD
  full_name: Chesterfield
  lata: '520'
  ilec_name: SOUTHWESTERN BELL
  lat: '38.641827'
  long: "-90.592815"
  closest_city:
    name: Clarkson Valley
    distance_km: 1.82
- country: US
  region: MO
  exchange: '09731E'
  name: CHESTERFIELD MCA3
  full_name: Chesterfield MCA3
  lata: '520'
  ilec_name: SOUTHWESTERN BELL
  lat: '38.641827'
  long: "-90.592815"
  closest_city:
    name: Clarkson Valley
    distance_km: 1.82
- country: US
  region: MO
  exchange: '330465'
  name: CHESTNUTRG
  full_name: Chestnutridge
  lata: '522'
  ilec_name: BRIGHTSPEED OF MISSOURI, LLC
  lat:
  long:
- country: US
  region: MO
  exchange: '097320'
  name: CHILHOWEE
  full_name: Chilhowee
  lata: '524'
  ilec_name: EMBARQ MISSOURI, INC. DBA CENTURYLINK - MO
  lat: '38.588652'
  long: "-93.856627"
  closest_city:
    name: Chilhowee
    distance_km: 0.07
- country: US
  region: MO
  exchange: '097330'
  name: CHILLICOTH
  full_name: Chillicothe
  lata: '524'
  ilec_name: SOUTHWESTERN BELL
  lat: '39.802347'
  long: "-93.557896"
  closest_city:
    name: Chillicothe
    distance_km: 1.04
- country: US
  region: MO
  exchange: '097340'
  name: CHULA
  full_name: Chula
  lata: '524'
  ilec_name: GRAND RIVER MUTUAL TEL CO
  lat: '39.922922'
  long: "-93.48136"
  closest_city:
    name: Chula
    distance_km: 0.34
- country: US
  region: MO
  exchange: '330913'
  name: CIVIL BEND
  full_name: Civil Bend
  lata: '524'
  ilec_name: WINDSTREAM MISSOURI, INC.
  lat:
  long:
- country: US
  region: MO
  exchange: '097350'
  name: CLARENCE
  full_name: Clarence
  lata: '524'
  ilec_name: BRIGHTSPEED OF EAST MISSOURI, LLC
  lat: '39.749571'
  long: "-92.259353"
  closest_city:
    name: Clarence
    distance_km: 0.71
- country: US
  region: MO
  exchange: '097360'
  name: CLARK
  full_name: Clark
  lata: '521'
  ilec_name: BRIGHTSPEED OF MISSOURI, LLC
  lat: '39.284249'
  long: "-92.341592"
  closest_city:
    name: Clark
    distance_km: 1.04
- country: US
  region: MO
  exchange: '097370'
  name: CLARKSBURG
  full_name: Clarksburg
  lata: '521'
  ilec_name: EMBARQ MISSOURI, INC. DBA CENTURYLINK - MO
  lat: '38.657457'
  long: "-92.66598"
  closest_city:
    name: Clarksburg
    distance_km: 0.41
- country: US
  region: MO
  exchange: '097380'
  name: CLARKSDALE
  full_name: Clarksdale
  lata: '524'
  ilec_name: BRIGHTSPEED OF EAST MISSOURI, LLC
  lat: '39.818648'
  long: "-94.552059"
  closest_city:
    name: Clarksdale
    distance_km: 0.54
- country: US
  region: MO
  exchange: '097390'
  name: CLARKSVL
  full_name: Clarksville
  lata: '520'
  ilec_name: SOUTHWESTERN BELL
  lat: '39.368531'
  long: "-90.907953"
  closest_city:
    name: Clarksville
    distance_km: 0.28
- country: US
  region: MO
  exchange: '329833'
  name: CLARKTON
  full_name: Clarkton
  lata: '520'
  ilec_name: SOUTHWESTERN BELL
  lat:
  long:
- country: US
  region: MO
  exchange: '329834'
  name: CLARYVILLE
  full_name: Claryville
  lata: '520'
  ilec_name: SOUTHWESTERN BELL
  lat:
  long:
- country: US
  region: MO
  exchange: '330916'
  name: CLAYCOMO
  full_name: Claycomo
  lata: '524'
  ilec_name: SOUTHWESTERN BELL
  lat:
  long:
- country: US
  region: MO
  exchange: '329835'
  name: CLAYTON
  full_name: Clayton
  lata: '520'
  ilec_name: SOUTHWESTERN BELL
  lat:
  long:
- country: US
  region: MO
  exchange: '097400'
  name: CLEARMONT
  full_name: Clearmont
  lata: '524'
  ilec_name: IAMO COMMUNICATIONS, INC.
  lat: '40.510713'
  long: "-95.025195"
  closest_city:
    name: Clearmont
    distance_km: 0.69
- country: US
  region: MO
  exchange: '097410'
  name: CLEARWATER
  full_name: Clearwater
  lata: '520'
  ilec_name: ELLINGTON TEL. CO.
  lat: '37.159114'
  long: "-90.827394"
  closest_city:
    name: Piedmont
    distance_km: 11.61
- country: US
  region: MO
  exchange: '329837'
  name: CLEARWTRLK
  full_name: Clearwater Lake
  lata: '520'
  ilec_name: ELLINGTON TEL. CO.
  lat:
  long:
- country: US
  region: MO
  exchange: '097420'
  name: CLEVELAND
  full_name: Cleveland
  lata: '524'
  ilec_name: CONSOLIDATED COMMUNICATIONS OF MISSOURI COMPANY
  lat: '38.683211'
  long: "-94.59771"
  closest_city:
    name: Cleveland
    distance_km: 0.49
- country: US
  region: MO
  exchange: '09742E'
  name: CLEVELAND MCA4
  full_name: Cleveland MCA4
  lata: '524'
  ilec_name: CONSOLIDATED COMMUNICATIONS OF MISSOURI COMPANY
  lat: '38.683211'
  long: "-94.59771"
  closest_city:
    name: Cleveland
    distance_km: 0.49
- country: US
  region: MO
  exchange: '097430'
  name: CLEVER
  full_name: Clever
  lata: '522'
  ilec_name: SOUTHWESTERN BELL
  lat: '37.034646'
  long: "-93.463985"
  closest_city:
    name: Clever
    distance_km: 0.81
- country: US
  region: MO
  exchange: '09743E'
  name: CLEVER MCA2
  full_name: Clever MCA2
  lata: '522'
  ilec_name: SOUTHWESTERN BELL
  lat: '37.034646'
  long: "-93.463985"
  closest_city:
    name: Clever
    distance_km: 0.81
- country: US
  region: MO
  exchange: '330919'
  name: CLIFTON CY
  full_name: Clifton City
  lata: '524'
  ilec_name: EMBARQ MISSOURI, INC. DBA CENTURYLINK - MO
  lat:
  long:
- country: US
  region: MO
  exchange: '097440'
  name: CLIFTON HL
  full_name: Clifton Hill
  lata: '524'
  ilec_name: CHARITON VALLEY TEL. CO.
  lat: '39.44181'
  long: "-92.66562"
  closest_city:
    name: Clifton Hill
    distance_km: 0.37
- country: US
  region: MO
  exchange: '097450'
  name: CLIMAX SPG
  full_name: Climax Springs
  lata: '520'
  ilec_name: SOUTHWESTERN BELL
  lat: '38.108432'
  long: "-93.047808"
  closest_city:
    name: Climax Springs
    distance_km: 0.99
- country: US
  region: MO
  exchange: '097460'
  name: CLINTON
  full_name: Clinton
  lata: '524'
  ilec_name: EMBARQ MISSOURI, INC. DBA CENTURYLINK - MO
  lat: '38.372127'
  long: "-93.773743"
  closest_city:
    name: Clinton
    distance_km: 0.51
- country: US
  region: MO
  exchange: '330468'
  name: CLIQUOT
  full_name: Cliquot
  lata: '522'
  ilec_name: WINDSTREAM MISSOURI, INC.
  lat:
  long:
- country: US
  region: MO
  exchange: '097470'
  name: CLUBB
  full_name: Clubb
  lata: '520'
  ilec_name: WINDSTREAM MISSOURI, INC.
  lat: '37.233757'
  long: "-90.347478"
  closest_city:
    name: Greenville
    distance_km: 14.67
- country: US
  region: MO
  exchange: '330922'
  name: CLYDE
  full_name: Clyde
  lata: '524'
  ilec_name: GRAND RIVER MUTUAL TEL CO
  lat:
  long:
- country: US
  region: MO
  exchange: '097480'
  name: COAL
  full_name: Coal
  lata: '524'
  ilec_name: EMBARQ MISSOURI, INC. DBA CENTURYLINK - MO
  lat: '38.326034'
  long: "-93.614358"
  closest_city:
    name: Tightwad
    distance_km: 6.19
- country: US
  region: MO
  exchange: '330924'
  name: COATESVL
  full_name: Coatesville
  lata: '524'
  ilec_name: SOUTHWESTERN BELL
  lat:
  long:
- country: US
  region: MO
  exchange: '330925'
  name: COATSVILLE
  full_name: Coatsville
  lata: '524'
  ilec_name: SOUTHWESTERN BELL
  lat:
  long:
- country: US
  region: MO
  exchange: '097490'
  name: COFFEY
  full_name: Coffey
  lata: '524'
  ilec_name: WINDSTREAM MISSOURI, INC.
  lat: '40.109483'
  long: "-94.008441"
  closest_city:
    name: Coffey
    distance_km: 0.46
- country: US
  region: MO
  exchange: '097500'
  name: COLE CAMP
  full_name: Cole Camp
  lata: '524'
  ilec_name: EMBARQ MISSOURI, INC. DBA CENTURYLINK - MO
  lat: '38.45971'
  long: "-93.205184"
  closest_city:
    name: Cole Camp
    distance_km: 0.23
- country: US
  region: MO
  exchange: '330928'
  name: COLLEGMOND
  full_name: College Mound
  lata: '524'
  ilec_name: CHARITON VALLEY TEL. CO.
  lat:
  long:
- country: US
  region: MO
  exchange: '097510'
  name: COLLINS
  full_name: Collins
  lata: '522'
  ilec_name: BRIGHTSPEED OF EAST MISSOURI, LLC
  lat: '37.890979'
  long: "-93.617216"
  closest_city:
    name: Collins
    distance_km: 0.38
- country: US
  region: MO
  exchange: '330929'
  name: COLONY
  full_name: Colony
  lata: '524'
  ilec_name: MARK TWAIN RURAL TEL. CO.
  lat:
  long:
- country: US
  region: MO
  exchange: '097520'
  name: COLUMBIA
  full_name: Columbia
  lata: '521'
  ilec_name: BRIGHTSPEED OF MISSOURI, LLC
  lat: '38.949276'
  long: "-92.332434"
  closest_city:
    name: Columbia
    distance_km: 0.54
- country: US
  region: MO
  exchange: '329840'
  name: COMMERCE
  full_name: Commerce
  lata: '520'
  ilec_name: SOUTHWESTERN BELL
  lat:
  long:
- country: US
  region: MO
  exchange: '330930'
  name: CONCEPTION
  full_name: Conception
  lata: '524'
  ilec_name: GRAND RIVER MUTUAL TEL CO
  lat:
  long:
- country: US
  region: MO
  exchange: '097530'
  name: CONCETNJCT
  full_name: Conception Junction
  lata: '524'
  ilec_name: GRAND RIVER MUTUAL TEL CO
  lat: '40.268615'
  long: "-94.689931"
  closest_city:
    name: Conception Junction
    distance_km: 0.13
- country: US
  region: MO
  exchange: '097540'
  name: CONCORDIA
  full_name: Concordia
  lata: '524'
  ilec_name: BRIGHTSPEED OF EAST MISSOURI, LLC
  lat: '38.984134'
  long: "-93.567856"
  closest_city:
    name: Concordia
    distance_km: 0.41
- country: US
  region: MO
  exchange: '330933'
  name: CONNELSVL
  full_name: Connelsville
  lata: '524'
  ilec_name: NORTHEAST MISSOURI RURAL TEL. CO.
  lat:
  long:
- country: US
  region: MO
  exchange: '329841'
  name: CONRAN
  full_name: Conran
  lata: '520'
  ilec_name: SOUTHWESTERN BELL
  lat:
  long:
- country: US
  region: MO
  exchange: '330934'
  name: CONVERSE
  full_name: Converse
  lata: '524'
  ilec_name: BRIGHTSPEED OF EAST MISSOURI, LLC
  lat:
  long:
- country: US
  region: MO
  exchange: '097550'
  name: CONWAY
  full_name: Conway
  lata: '522'
  ilec_name: BRIGHTSPEED OF MISSOURI, LLC
  lat: '37.50033'
  long: "-92.816151"
  closest_city:
    name: Conway
    distance_km: 1.46
- country: US
  region: MO
  exchange: '329842'
  name: COOK STA
  full_name: Cook Station
  lata: '520'
  ilec_name: STEELVILLE TEL. EXCH., INC.
  lat:
  long:
- country: US
  region: MO
  exchange: '330365'
  name: COOPERHILL
  full_name: Cooper Hill
  lata: '521'
  ilec_name: BRIGHTSPEED OF MISSOURI, LLC
  lat:
  long:
- country: US
  region: MO
  exchange: '329843'
  name: COOTER
  full_name: Cooter
  lata: '520'
  ilec_name: BPS TELEPHONE COMPANY
  lat:
  long:
- country: US
  region: MO
  exchange: '330935'
  name: CORA
  full_name: Cora
  lata: '524'
  ilec_name: GRAND RIVER MUTUAL TEL CO
  lat:
  long:
- country: US
  region: MO
  exchange: '330936'
  name: CORDER
  full_name: Corder
  lata: '524'
  ilec_name: CITIZENS TEL. CO.
  lat:
  long:
- country: US
  region: MO
  exchange: '330937'
  name: CORNING
  full_name: Corning
  lata: '524'
  ilec_name: EMBARQ MISSOURI, INC. DBA CENTURYLINK - MO
  lat:
  long:
- country: US
  region: MO
  exchange: '329844'
  name: CORNWALL
  full_name: Cornwall
  lata: '520'
  ilec_name: SOUTHWESTERN BELL
  lat:
  long:
- country: US
  region: MO
  exchange: '329845'
  name: CORSO
  full_name: Corso
  lata: '520'
  ilec_name: WINDSTREAM MISSOURI, INC.
  lat:
  long:
- country: US
  region: MO
  exchange: '097560'
  name: COSBY
  full_name: Cosby
  lata: '524'
  ilec_name: BRIGHTSPEED OF EAST MISSOURI, LLC
  lat: '39.867026'
  long: "-94.68093"
  closest_city:
    name: Cosby
    distance_km: 0.36
- country: US
  region: MO
  exchange: '329846'
  name: COTTLEVL
  full_name: Cottleville
  lata: '520'
  ilec_name: SOUTHWESTERN BELL
  lat:
  long:
- country: US
  region: MO
  exchange: '329847'
  name: COTTONWDPT
  full_name: Cottonwood Point
  lata: '520'
  ilec_name: SOUTHWESTERN BELL
  lat:
  long:
- country: US
  region: MO
  exchange: '330471'
  name: COUCH
  full_name: Couch
  lata: '522'
  ilec_name: WINDSTREAM MISSOURI, INC.
  lat:
  long:
- country: US
  region: MO
  exchange: '329857'
  name: CTY CLB HL
  full_name: Country Club Hills
  lata: '520'
  ilec_name: SOUTHWESTERN BELL
  lat:
  long:
- country: US
  region: MO
  exchange: '330939'
  name: COURTNEY
  full_name: Courtney
  lata: '524'
  ilec_name: SOUTHWESTERN BELL
  lat:
  long:
- country: US
  region: MO
  exchange: '329848'
  name: COURTOIS
  full_name: Courtois
  lata: '520'
  ilec_name: STEELVILLE TEL. EXCH., INC.
  lat:
  long:
- country: US
  region: MO
  exchange: '097570'
  name: COWGILL
  full_name: Cowgill
  lata: '524'
  ilec_name: GREEN HILLS TEL. CORP.
  lat: '39.567556'
  long: "-93.93393"
  closest_city:
    name: Cowgill
    distance_km: 1.06
- country: US
  region: MO
  exchange: '097580'
  name: CRAIG
  full_name: Craig
  lata: '524'
  ilec_name: EMBARQ MISSOURI, INC. DBA CENTURYLINK - MO
  lat: '40.191678'
  long: "-95.372281"
  closest_city:
    name: Craig
    distance_km: 0.18
- country: US
  region: MO
  exchange: '097590'
  name: CRANE
  full_name: Crane
  lata: '522'
  ilec_name: BRIGHTSPEED OF MISSOURI, LLC
  lat: '36.891969'
  long: "-93.574585"
  closest_city:
    name: Crane
    distance_km: 1.23
- country: US
  region: MO
  exchange: '097600'
  name: CREIGHTON
  full_name: Creighton
  lata: '524'
  ilec_name: CONSOLIDATED COMMUNICATIONS OF MISSOURI COMPANY
  lat: '38.497539'
  long: "-94.074192"
  closest_city:
    name: Creighton
    distance_km: 0.21
- country: US
  region: MO
  exchange: '329850'
  name: CRESCENT
  full_name: Crescent
  lata: '520'
  ilec_name: SOUTHWESTERN BELL
  lat:
  long:
- country: US
  region: MO
  exchange: '329851'
  name: CRESTWOOD
  full_name: Crestwood
  lata: '520'
  ilec_name: SOUTHWESTERN BELL
  lat:
  long:
- country: US
  region: MO
  exchange: '097610'
  name: CREVECOEUR
  full_name: Creve Coeur
  lata: '520'
  ilec_name: SOUTHWESTERN BELL
  lat: '38.663608'
  long: "-90.448746"
  closest_city:
    name: Creve Coeur
    distance_km: 0.53
- country: US
  region: MO
  exchange: '097620'
  name: CROCKER
  full_name: Crocker
  lata: '520'
  ilec_name: WINDSTREAM MISSOURI, INC.
  lat: '37.951302'
  long: "-92.268718"
  closest_city:
    name: Crocker
    distance_km: 0.38
- country: US
  region: MO
  exchange: '097630'
  name: CROSSTMBRS
  full_name: Cross Timbers
  lata: '522'
  ilec_name: BRIGHTSPEED OF MISSOURI, LLC
  lat: '38.024307'
  long: "-93.223539"
  closest_city:
    name: Cross Timbers
    distance_km: 0.51
- country: US
  region: MO
  exchange: '329854'
  name: CROSSTOWN
  full_name: Crosstown
  lata: '520'
  ilec_name: SOUTHWESTERN BELL
  lat:
  long:
- country: US
  region: MO
  exchange: '329855'
  name: CROWDER
  full_name: Crowder
  lata: '520'
  ilec_name: SOUTHWESTERN BELL
  lat:
  long:
- country: US
  region: MO
  exchange: '329856'
  name: CRYSTAL CY
  full_name: Crystal City
  lata: '520'
  ilec_name: SOUTHWESTERN BELL
  lat:
  long:
- country: US
  region: MO
  exchange: '330944'
  name: CRYSTAL LK
  full_name: Crystal Lakes
  lata: '524'
  ilec_name: SOUTHWESTERN BELL
  lat:
  long:
- country: US
  region: MO
  exchange: '097640'
  name: CUBA
  full_name: Cuba
  lata: '520'
  ilec_name: BRIGHTSPEED OF MISSOURI, LLC
  lat: '38.065371'
  long: "-91.411223"
  closest_city:
    name: Cuba
    distance_km: 0.52
- country: US
  region: MO
  exchange: '329859'
  name: CURRYVILLE
  full_name: Curryville
  lata: '520'
  ilec_name: SOUTHWESTERN BELL
  lat:
  long:
- country: US
  region: MO
  exchange: '329860'
  name: CYRENE
  full_name: Cyrene
  lata: '520'
  ilec_name: SOUTHWESTERN BELL
  lat:
  long:
- country: US
  region: MO
  exchange: '097650'
  name: DADEVILLE
  full_name: Dadeville
  lata: '522'
  ilec_name: BRIGHTSPEED OF EAST MISSOURI, LLC
  lat: '37.474715'
  long: "-93.672587"
  closest_city:
    name: Dadeville
    distance_km: 0.52
- country: US
  region: MO
  exchange: '329861'
  name: DAISY
  full_name: Daisy
  lata: '520'
  ilec_name: SOUTHWESTERN BELL
  lat:
  long:
- country: US
  region: MO
  exchange: '097660'
  name: DALTON
  full_name: Dalton
  lata: '524'
  ilec_name: BRIGHTSPEED OF EAST MISSOURI, LLC
  lat: '39.399808'
  long: "-92.990227"
  closest_city:
    name: Dalton
    distance_km: 0.29
- country: US
  region: MO
  exchange: '329862'
  name: DAMSEL
  full_name: Damsel
  lata: '520'
  ilec_name: SOUTHWESTERN BELL
  lat:
  long:
- country: US
  region: MO
  exchange: '329863'
  name: DANBY
  full_name: Danby
  lata: '520'
  ilec_name: SOUTHWESTERN BELL
  lat:
  long:
- country: US
  region: MO
  exchange: '329864'
  name: DANVILLE
  full_name: Danville
  lata: '520'
  ilec_name: SOUTHWESTERN BELL
  lat:
  long:
- country: US
  region: MO
  exchange: '097670'
  name: DARDENNE
  full_name: Dardenne
  lata: '520'
  ilec_name: BRIGHTSPEED OF MISSOURI, LLC
  lat: '38.776525'
  long: "-90.783496"
  closest_city:
    name: Lake St. Louis
    distance_km: 1.0
- country: US
  region: MO
  exchange: '09767E'
  name: DARDENNE MCA4
  full_name: Dardenne MCA4
  lata: '520'
  ilec_name: BRIGHTSPEED OF MISSOURI, LLC
  lat: '38.776525'
  long: "-90.783496"
  closest_city:
    name: Lake St. Louis
    distance_km: 1.0
- country: US
  region: MO
  exchange: '329887'
  name: DRDNNE PR
  full_name: Dardenne Prairie
  lata: '520'
  ilec_name: BRIGHTSPEED OF MISSOURI, LLC
  lat:
  long:
- country: US
  region: MO
  exchange: '097680'
  name: DARLINGTON
  full_name: Darlington
  lata: '524'
  ilec_name: GRAND RIVER MUTUAL TEL CO
  lat: '40.19402'
  long: "-94.392042"
  closest_city:
    name: Darlington
    distance_km: 0.79
- country: US
  region: MO
  exchange: '329866'
  name: DAVIS
  full_name: Davis
  lata: '520'
  ilec_name: BRIGHTSPEED OF MISSOURI, LLC
  lat:
  long:
- country: US
  region: MO
  exchange: '329867'
  name: DAVISVILLE
  full_name: Davisville
  lata: '520'
  ilec_name: STEELVILLE TEL. EXCH., INC.
  lat:
  long:
- country: US
  region: MO
  exchange: '097690'
  name: DAWN
  full_name: Dawn
  lata: '524'
  ilec_name: GREEN HILLS TEL. CORP.
  lat: '39.6672'
  long: "-93.636026"
  closest_city:
    name: Dawn
    distance_km: 0.48
- country: US
  region: MO
  exchange: '097700'
  name: DE KALB
  full_name: De Kalb
  lata: '524'
  ilec_name: SOUTHWESTERN BELL
  lat: '39.584841'
  long: "-94.922433"
  closest_city:
    name: De Kalb
    distance_km: 0.4
- country: US
  region: MO
  exchange: '097710'
  name: DE SOTO
  full_name: De Soto
  lata: '520'
  ilec_name: SOUTHWESTERN BELL
  lat: '38.141782'
  long: "-90.563772"
  closest_city:
    name: De Soto
    distance_km: 0.27
- country: US
  region: MO
  exchange: '09771E'
  name: DE SOTO MCA5
  full_name: De Soto MCA5
  lata: '520'
  ilec_name: SOUTHWESTERN BELL
  lat: '38.141782'
  long: "-90.563772"
  closest_city:
    name: De Soto
    distance_km: 0.27
- country: US
  region: MO
  exchange: '097720'
  name: DE WITT
  full_name: De Witt
  lata: '524'
  ilec_name: CHARITON VALLEY TEL. CO.
  lat: '39.382354'
  long: "-93.228157"
  closest_city:
    name: De Witt
    distance_km: 0.76
- country: US
  region: MO
  exchange: '330950'
  name: DEAN LAKE
  full_name: Dean Lake
  lata: '524'
  ilec_name: BRIGHTSPEED OF EAST MISSOURI, LLC
  lat:
  long:
- country: US
  region: MO
  exchange: '097730'
  name: DEARBORN
  full_name: Dearborn
  lata: '524'
  ilec_name: EMBARQ MISSOURI, INC. DBA CENTURYLINK - MO
  lat: '39.523329'
  long: "-94.769028"
  closest_city:
    name: Dearborn
    distance_km: 0.46
- country: US
  region: MO
  exchange: '09773E'
  name: DEARBORN MCA5
  full_name: Dearborn MCA5
  lata: '524'
  ilec_name: EMBARQ MISSOURI, INC. DBA CENTURYLINK - MO
  lat: '39.523329'
  long: "-94.769028"
  closest_city:
    name: Dearborn
    distance_km: 0.46
- country: US
  region: MO
  exchange: '329869'
  name: DECATURVL
  full_name: Decaturville
  lata: '520'
  ilec_name: SOUTHWESTERN BELL
  lat:
  long:
- country: US
  region: MO
  exchange: '330475'
  name: DEDERICK
  full_name: Dederick
  lata: '522'
  ilec_name: BRIGHTSPEED OF EAST MISSOURI, LLC
  lat:
  long:
- country: US
  region: MO
  exchange: '097740'
  name: DEEPWATER
  full_name: Deepwater
  lata: '524'
  ilec_name: EMBARQ MISSOURI, INC. DBA CENTURYLINK - MO
  lat: '38.260309'
  long: "-93.772761"
  closest_city:
    name: Deepwater
    distance_km: 0.2
- country: US
  region: MO
  exchange: '097750'
  name: DEERFIELD
  full_name: Deerfield
  lata: '522'
  ilec_name: K L M TEL. CO.
  lat: '37.83943'
  long: "-94.507758"
  closest_city:
    name: Deerfield
    distance_km: 0.09
- country: US
  region: MO
  exchange: '097760'
  name: DEERING
  full_name: Deering
  lata: '520'
  ilec_name: SOUTHWESTERN BELL
  lat: '36.192074'
  long: "-89.880641"
  closest_city:
    name: Deering
    distance_km: 0.35
- country: US
  region: MO
  exchange: '097770'
  name: DEFIANCE
  full_name: Defiance
  lata: '520'
  ilec_name: BRIGHTSPEED OF MISSOURI, LLC
  lat: '38.631827'
  long: "-90.781535"
  closest_city:
    name: Defiance
    distance_km: 0.28
- country: US
  region: MO
  exchange: '09777E'
  name: DEFIANCE MCA5
  full_name: Defiance MCA5
  lata: '520'
  ilec_name: BRIGHTSPEED OF MISSOURI, LLC
  lat: '38.631827'
  long: "-90.781535"
  closest_city:
    name: Defiance
    distance_km: 0.28
- country: US
  region: MO
  exchange: '097780'
  name: DELTA
  full_name: Delta
  lata: '520'
  ilec_name: SOUTHWESTERN BELL
  lat: '37.201192'
  long: "-89.732607"
  closest_city:
    name: Delta
    distance_km: 0.73
- country: US
  region: MO
  exchange: '097790'
  name: DENVER
  full_name: Denver
  lata: '524'
  ilec_name: GRAND RIVER MUTUAL TEL CO
  lat: '40.391668'
  long: "-94.318721"
  closest_city:
    name: Denver
    distance_km: 0.89
- country: US
  region: MO
  exchange: '329873'
  name: DES ARC
  full_name: Des Arc
  lata: '520'
  ilec_name: BRIGHTSPEED OF EAST MISSOURI, LLC
  lat:
  long:
- country: US
  region: MO
  exchange: '329874'
  name: DES PERES
  full_name: Des Peres
  lata: '520'
  ilec_name: SOUTHWESTERN BELL
  lat:
  long:
- country: US
  region: MO
  exchange: '329875'
  name: DESLOGE
  full_name: Desloge
  lata: '520'
  ilec_name: SOUTHWESTERN BELL
  lat:
  long:
- country: US
  region: MO
  exchange: '329876'
  name: DEVILSELBW
  full_name: Devils Elbow
  lata: '520'
  ilec_name: EMBARQ MISSOURI, INC. DBA CENTURYLINK - MO
  lat:
  long:
- country: US
  region: MO
  exchange: '097800'
  name: DEXTER
  full_name: Dexter
  lata: '520'
  ilec_name: SOUTHWESTERN BELL
  lat: '36.79342'
  long: "-89.95204"
  closest_city:
    name: Dexter
    distance_km: 1.0
- country: US
  region: MO
  exchange: '097810'
  name: DIAMOND
  full_name: Diamond
  lata: '522'
  ilec_name: GRANBY TEL. CO.
  lat: '36.999844'
  long: "-94.317083"
  closest_city:
    name: Diamond
    distance_km: 0.37
- country: US
  region: MO
  exchange: '329878'
  name: DIEHLSTADT
  full_name: Diehlstadt
  lata: '520'
  ilec_name: SOUTHWESTERN BELL
  lat:
  long:
- country: US
  region: MO
  exchange: '330478'
  name: DIGGINS
  full_name: Diggins
  lata: '522'
  ilec_name: BRIGHTSPEED OF MISSOURI, LLC
  lat:
  long:
- country: US
  region: MO
  exchange: '329879'
  name: DILLARD
  full_name: Dillard
  lata: '520'
  ilec_name: STEELVILLE TEL. EXCH., INC.
  lat:
  long:
- country: US
  region: MO
  exchange: '329880'
  name: DILLON
  full_name: Dillon
  lata: '520'
  ilec_name: BRIGHTSPEED OF MISSOURI, LLC
  lat:
  long:
- country: US
  region: MO
  exchange: '329881'
  name: DITTMER
  full_name: Dittmer
  lata: '520'
  ilec_name: SOUTHWESTERN BELL
  lat:
  long:
- country: US
  region: MO
  exchange: '097820'
  name: DIXON
  full_name: Dixon
  lata: '520'
  ilec_name: WINDSTREAM MISSOURI, INC.
  lat: '37.99034'
  long: "-92.098466"
  closest_city:
    name: Dixon
    distance_km: 0.61
- country: US
  region: MO
  exchange: '330954'
  name: DODSON
  full_name: Dodson
  lata: '524'
  ilec_name: SOUTHWESTERN BELL
  lat:
  long:
- country: US
  region: MO
  exchange: '329883'
  name: DOE RUN
  full_name: Doe Run
  lata: '520'
  ilec_name: SOUTHWESTERN BELL
  lat:
  long:
- country: US
  region: MO
  exchange: '097830'
  name: DONIPHAN
  full_name: Doniphan
  lata: '520'
  ilec_name: WINDSTREAM MISSOURI, INC.
  lat: '36.619337'
  long: "-90.826438"
  closest_city:
    name: Doniphan
    distance_km: 0.61
- country: US
  region: MO
  exchange: '097840'
  name: DORA
  full_name: Dora
  lata: '522'
  ilec_name: BRIGHTSPEED OF MISSOURI, LLC
  lat: '36.772866'
  long: "-92.21496"
  closest_city:
    name: Gainesville
    distance_km: 26.31
- country: US
  region: MO
  exchange: '329885'
  name: DORENA
  full_name: Dorena
  lata: '520'
  ilec_name: SOUTHWESTERN BELL
  lat:
  long:
- country: US
  region: MO
  exchange: '330955'
  name: DOVER
  full_name: Dover
  lata: '524'
  ilec_name: EMBARQ MISSOURI, INC. DBA CENTURYLINK - MO
  lat:
  long:
- country: US
  region: MO
  exchange: '097850'
  name: DOWNING
  full_name: Downing
  lata: '524'
  ilec_name: SOUTHWESTERN BELL
  lat: '40.491875'
  long: "-92.365321"
  closest_city:
    name: Downing
    distance_km: 0.59
- country: US
  region: MO
  exchange: '329886'
  name: DRAKE
  full_name: Drake
  lata: '520'
  ilec_name: FIDELITY TELEPHONE, LLC
  lat:
  long:
- country: US
  region: MO
  exchange: '330957'
  name: DRESDEN
  full_name: Dresden
  lata: '524'
  ilec_name: SOUTHWESTERN BELL
  lat:
  long:
- country: US
  region: MO
  exchange: '097860'
  name: DREXEL
  full_name: Drexel
  lata: '524'
  ilec_name: CONSOLIDATED COMMUNICATIONS OF MISSOURI COMPANY
  lat: '38.48392'
  long: "-94.605317"
  closest_city:
    name: Drexel
    distance_km: 1.86
- country: US
  region: MO
  exchange: '09786E'
  name: DREXEL MCA5
  full_name: Drexel MCA5
  lata: '524'
  ilec_name: CONSOLIDATED COMMUNICATIONS OF MISSOURI COMPANY
  lat: '38.48392'
  long: "-94.605317"
  closest_city:
    name: Drexel
    distance_km: 1.86
- country: US
  region: MO
  exchange: '330480'
  name: DRURY
  full_name: Drury
  lata: '522'
  ilec_name: BRIGHTSPEED OF EAST MISSOURI, LLC
  lat:
  long:
- country: US
  region: MO
  exchange: '330481'
  name: DRYNOB
  full_name: Drynob
  lata: '522'
  ilec_name: EMBARQ MISSOURI, INC. DBA CENTURYLINK - MO
  lat:
  long:
- country: US
  region: MO
  exchange: '330482'
  name: DUDENVILLE
  full_name: Dudenville
  lata: '522'
  ilec_name: BRIGHTSPEED OF EAST MISSOURI, LLC
  lat:
  long:
- country: US
  region: MO
  exchange: '329888'
  name: DUDLEY
  full_name: Dudley
  lata: '520'
  ilec_name: SOUTHWESTERN BELL
  lat:
  long:
- country: US
  region: MO
  exchange: '330483'
  name: DUENWEG
  full_name: Duenweg
  lata: '522'
  ilec_name: SOUTHWESTERN BELL
  lat:
  long:
- country: US
  region: MO
  exchange: '330484'
  name: DUGGINSVL
  full_name: Dugginsville
  lata: '522'
  ilec_name: BRIGHTSPEED OF MISSOURI, LLC
  lat:
  long:
- country: US
  region: MO
  exchange: '329889'
  name: DUKE
  full_name: Duke
  lata: '520'
  ilec_name: BRIGHTSPEED OF EAST MISSOURI, LLC
  lat:
  long:
- country: US
  region: MO
  exchange: '330960'
  name: DUNLAP
  full_name: Dunlap
  lata: '524'
  ilec_name: GRAND RIVER MUTUAL TEL CO
  lat:
  long:
- country: US
  region: MO
  exchange: '330485'
  name: DUNNEGAN
  full_name: Dunnegan
  lata: '522'
  ilec_name: BRIGHTSPEED OF EAST MISSOURI, LLC
  lat:
  long:
- country: US
  region: MO
  exchange: '097870'
  name: DURHAM
  full_name: Durham
  lata: '520'
  ilec_name: MARK TWAIN RURAL TEL. CO.
  lat: '39.974187'
  long: "-91.667969"
  closest_city:
    name: Ewing
    distance_km: 5.54
- country: US
  region: MO
  exchange: '329891'
  name: DUTCHTOWN
  full_name: Dutchtown
  lata: '520'
  ilec_name: SOUTHWESTERN BELL
  lat:
  long:
- country: US
  region: MO
  exchange: '329892'
  name: DUTZOW
  full_name: Dutzow
  lata: '520'
  ilec_name: BRIGHTSPEED OF MISSOURI, LLC
  lat:
  long:
- country: US
  region: MO
  exchange: '330486'
  name: EAGLE ROCK
  full_name: Eagle Rock
  lata: '522'
  ilec_name: BRIGHTSPEED OF MISSOURI, LLC
  lat:
  long:
- country: US
  region: MO
  exchange: '097880'
  name: EAGLEVILLE
  full_name: Eagleville
  lata: '524'
  ilec_name: GRAND RIVER MUTUAL TEL CO
  lat: '40.466481'
  long: "-93.986539"
  closest_city:
    name: Eagleville
    distance_km: 0.23
- country: US
  region: MO
  exchange: '329894'
  name: EARTH CITY
  full_name: Earth City
  lata: '520'
  ilec_name: SOUTHWESTERN BELL
  lat:
  long:
- country: US
  region: MO
  exchange: '097890'
  name: E ARCADIA
  full_name: East Arcadia
  lata: '532'
  ilec_name: CRAW-KAN TEL. COOP.,INC. - KS
  lat: '37.639832'
  long: "-94.61645"
  closest_city:
    name: Burgess
    distance_km: 9.23
- country: US
  region: MO
  exchange: '097900'
  name: E ATCHISON
  full_name: East Atchison
  lata: '524'
  ilec_name: SOUTHWESTERN BELL
  lat: '39.566537'
  long: "-95.094136"
  closest_city:
    name: Lewis and Clark Village
    distance_km: 4.94
- country: US
  region: MO
  exchange: '097910'
  name: EFORTSCOTT
  full_name: East Fort Scott
  lata: '532'
  ilec_name: SOUTHWESTERN BELL
  lat: '37.843401'
  long: "-94.606728"
  closest_city:
    name: Richards
    distance_km: 8.64
- country: US
  region: MO
  exchange: '097920'
  name: EINDEPNDNC
  full_name: East Independence
  lata: '524'
  ilec_name: SOUTHWESTERN BELL
  lat: '39.083222'
  long: "-94.349846"
  closest_city:
    name: Independence
    distance_km: 0.43
- country: US
  region: MO
  exchange: '330969'
  name: ELEAVENWTH
  full_name: East Leavenworth
  lata: '524'
  ilec_name: SOUTHWESTERN BELL
  lat:
  long:
- country: US
  region: MO
  exchange: '097930'
  name: EAST LYNNE
  full_name: East Lynne
  lata: '524'
  ilec_name: CONSOLIDATED COMMUNICATIONS OF MISSOURI COMPANY
  lat: '38.669385'
  long: "-94.234214"
  closest_city:
    name: East Lynne
    distance_km: 0.34
- country: US
  region: MO
  exchange: '09793E'
  name: EAST LYNNE MCA5
  full_name: East Lynne MCA5
  lata: '524'
  ilec_name: CONSOLIDATED COMMUNICATIONS OF MISSOURI COMPANY
  lat: '38.669385'
  long: "-94.234214"
  closest_city:
    name: East Lynne
    distance_km: 0.34
- country: US
  region: MO
  exchange: '097940'
  name: E MULBERRY
  full_name: East Mulberry
  lata: '532'
  ilec_name: CRAW-KAN TEL. COOP.,INC. - KS
  lat: '37.55716'
  long: "-94.61092"
  closest_city:
    name: Burgess
    distance_km: 0.39
- country: US
  region: MO
  exchange: '097950'
  name: EPITTSBURG
  full_name: East Pittsburg
  lata: '532'
  ilec_name: SOUTHWESTERN BELL
  lat: '37.410072'
  long: "-94.608851"
  closest_city:
    name: Mindenmines
    distance_km: 7.19
- country: US
  region: MO
  exchange: '097960'
  name: EPLEASANTN
  full_name: East Pleasanton
  lata: '524'
  ilec_name: CRAW-KAN TEL. COOP.,INC. - KS
  lat: '38.184969'
  long: "-94.616613"
  closest_city:
    name: Amoret
    distance_km: 8.19
- country: US
  region: MO
  exchange: '097970'
  name: E PRAIRIE
  full_name: East Prairie
  lata: '520'
  ilec_name: SOUTHWESTERN BELL
  lat: '36.781648'
  long: "-89.384337"
  closest_city:
    name: East Prairie
    distance_km: 0.31
- country: US
  region: MO
  exchange: '097980'
  name: EASTON
  full_name: Easton
  lata: '524'
  ilec_name: BRIGHTSPEED OF EAST MISSOURI, LLC
  lat: '39.723553'
  long: "-94.644377"
  closest_city:
    name: Easton
    distance_km: 0.36
- country: US
  region: MO
  exchange: '097990'
  name: EDGAR SPG
  full_name: Edgar Springs
  lata: '520'
  ilec_name: BRIGHTSPEED OF EAST MISSOURI, LLC
  lat: '37.699324'
  long: "-91.866319"
  closest_city:
    name: Edgar Springs
    distance_km: 0.35
- country: US
  region: MO
  exchange: '098000'
  name: EDGERTON
  full_name: Edgerton
  lata: '524'
  ilec_name: EMBARQ MISSOURI, INC. DBA CENTURYLINK - MO
  lat: '39.498122'
  long: "-94.634322"
  closest_city:
    name: Edgerton
    distance_km: 0.62
- country: US
  region: MO
  exchange: '09800E'
  name: EDGERTON MCA4
  full_name: Edgerton MCA4
  lata: '524'
  ilec_name: EMBARQ MISSOURI, INC. DBA CENTURYLINK - MO
  lat: '39.498122'
  long: "-94.634322"
  closest_city:
    name: Edgerton
    distance_km: 0.62
- country: US
  region: MO
  exchange: '329896'
  name: EDGEWOOD
  full_name: Edgewood
  lata: '520'
  ilec_name: SOUTHWESTERN BELL
  lat:
  long:
- country: US
  region: MO
  exchange: '098010'
  name: EDINA
  full_name: Edina
  lata: '524'
  ilec_name: SOUTHWESTERN BELL
  lat: '40.173387'
  long: "-92.174464"
  closest_city:
    name: Edina
    distance_km: 0.61
- country: US
  region: MO
  exchange: '330967'
  name: EDWARDS
  full_name: Edwards
  lata: '524'
  ilec_name: EMBARQ MISSOURI, INC. DBA CENTURYLINK - MO
  lat:
  long:
- country: US
  region: MO
  exchange: '098020'
  name: ELDORDOSPG
  full_name: El Dorado Springs
  lata: '522'
  ilec_name: BRIGHTSPEED OF EAST MISSOURI, LLC
  lat: '37.876067'
  long: "-94.019072"
  closest_city:
    name: El Dorado Springs
    distance_km: 0.74
- country: US
  region: MO
  exchange: '098030'
  name: ELDON
  full_name: Eldon
  lata: '520'
  ilec_name: SOUTHWESTERN BELL
  lat: '38.351312'
  long: "-92.580557"
  closest_city:
    name: Eldon
    distance_km: 0.35
- country: US
  region: MO
  exchange: '098040'
  name: ELDRIDGE
  full_name: Eldridge
  lata: '522'
  ilec_name: STOUTLAND TEL. CO.
  lat: '37.825306'
  long: "-92.744325"
  closest_city:
    name: Bennett Springs
    distance_km: 14.67
- country: US
  region: MO
  exchange: '330489'
  name: ELIJAH
  full_name: Elijah
  lata: '522'
  ilec_name: BRIGHTSPEED OF MISSOURI, LLC
  lat:
  long:
- country: US
  region: MO
  exchange: '330490'
  name: ELK CREEK
  full_name: Elk Creek
  lata: '522'
  ilec_name: BRIGHTSPEED OF MISSOURI, LLC
  lat:
  long:
- country: US
  region: MO
  exchange: '098060'
  name: ELKLAND
  full_name: Elkland
  lata: '522'
  ilec_name: BRIGHTSPEED OF MISSOURI, LLC
  lat: '37.442163'
  long: "-93.033104"
  closest_city:
    name: Fair Grove
    distance_km: 12.39
- country: US
  region: MO
  exchange: '09806E'
  name: ELKLAND MCA2
  full_name: Elkland MCA2
  lata: '522'
  ilec_name: BRIGHTSPEED OF MISSOURI, LLC
  lat: '37.442163'
  long: "-93.033104"
  closest_city:
    name: Fair Grove
    distance_km: 12.39
- country: US
  region: MO
  exchange: '098070'
  name: ELLINGTON
  full_name: Ellington
  lata: '520'
  ilec_name: ELLINGTON TEL. CO.
  lat: '37.233983'
  long: "-90.9675"
  closest_city:
    name: Ellington
    distance_km: 0.58
- country: US
  region: MO
  exchange: '329899'
  name: ELLISVILLE
  full_name: Ellisville
  lata: '520'
  ilec_name: SOUTHWESTERN BELL
  lat:
  long:
- country: US
  region: MO
  exchange: '098080'
  name: ELLSINORE
  full_name: Ellsinore
  lata: '520'
  ilec_name: BRIGHTSPEED OF EAST MISSOURI, LLC
  lat: '36.934518'
  long: "-90.752091"
  closest_city:
    name: Ellsinore
    distance_km: 0.43
- country: US
  region: MO
  exchange: '330970'
  name: ELM
  full_name: Elm
  lata: '524'
  ilec_name: EMBARQ MISSOURI, INC. DBA CENTURYLINK - MO
  lat:
  long:
- country: US
  region: MO
  exchange: '098090'
  name: ELMER
  full_name: Elmer
  lata: '524'
  ilec_name: BRIGHTSPEED OF EAST MISSOURI, LLC
  lat: '39.955431'
  long: "-92.648661"
  closest_city:
    name: Elmer
    distance_km: 0.23
- country: US
  region: MO
  exchange: '330972'
  name: ELMIRA
  full_name: Elmira
  lata: '524'
  ilec_name: BRIGHTSPEED OF EAST MISSOURI, LLC
  lat:
  long:
- country: US
  region: MO
  exchange: '098100'
  name: ELMO
  full_name: Elmo
  lata: '524'
  ilec_name: IAMO COMMUNICATIONS, INC.
  lat: '40.514889'
  long: "-95.114576"
  closest_city:
    name: Elmo
    distance_km: 0.47
- country: US
  region: MO
  exchange: '098110'
  name: ELSBERRY
  full_name: Elsberry
  lata: '520'
  ilec_name: SOUTHWESTERN BELL
  lat: '39.167239'
  long: "-90.78342"
  closest_city:
    name: Elsberry
    distance_km: 0.4
- country: US
  region: MO
  exchange: '330493'
  name: ELSEY
  full_name: Elsey
  lata: '522'
  ilec_name: BRIGHTSPEED OF MISSOURI, LLC
  lat:
  long:
- country: US
  region: MO
  exchange: '330366'
  name: ELSTON
  full_name: Elston
  lata: '521'
  ilec_name: EMBARQ MISSOURI, INC. DBA CENTURYLINK - MO
  lat:
  long:
- country: US
  region: MO
  exchange: '329902'
  name: ELVINS
  full_name: Elvins
  lata: '520'
  ilec_name: SOUTHWESTERN BELL
  lat:
  long:
- country: US
  region: MO
  exchange: '330494'
  name: ELWOOD
  full_name: Elwood
  lata: '522'
  ilec_name: SOUTHWESTERN BELL
  lat:
  long:
- country: US
  region: MO
  exchange: '329903'
  name: EMDEN
  full_name: Emden
  lata: '520'
  ilec_name: MARK TWAIN RURAL TEL. CO.
  lat:
  long:
- country: US
  region: MO
  exchange: '098120'
  name: EMINENCE
  full_name: Eminence
  lata: '520'
  ilec_name: BRIGHTSPEED OF EAST MISSOURI, LLC
  lat: '37.147819'
  long: "-91.35661"
  closest_city:
    name: Eminence
    distance_km: 0.39
- country: US
  region: MO
  exchange: '330974'
  name: EMMA
  full_name: Emma
  lata: '524'
  ilec_name: EMBARQ MISSOURI, INC. DBA CENTURYLINK - MO
  lat:
  long:
- country: US
  region: MO
  exchange: '330367'
  name: ENON
  full_name: Enon
  lata: '521'
  ilec_name: EMBARQ MISSOURI, INC. DBA CENTURYLINK - MO
  lat:
  long:
- country: US
  region: MO
  exchange: '098130'
  name: EOLIA
  full_name: Eolia
  lata: '520'
  ilec_name: WINDSTREAM MISSOURI, INC.
  lat: '39.23502'
  long: "-91.01708"
  closest_city:
    name: Eolia
    distance_km: 0.61
- country: US
  region: MO
  exchange: '098140'
  name: ESSEX
  full_name: Essex
  lata: '520'
  ilec_name: SOUTHWESTERN BELL
  lat: '36.816433'
  long: "-89.867722"
  closest_city:
    name: Essex
    distance_km: 0.67
- country: US
  region: MO
  exchange: '329907'
  name: ESTHER
  full_name: Esther
  lata: '520'
  ilec_name: SOUTHWESTERN BELL
  lat:
  long:
- country: US
  region: MO
  exchange: '098150'
  name: ETHEL
  full_name: Ethel
  lata: '524'
  ilec_name: CHARITON VALLEY TEL. CO.
  lat: '39.899059'
  long: "-92.747965"
  closest_city:
    name: Ethel
    distance_km: 0.87
- country: US
  region: MO
  exchange: '329908'
  name: ETHLYN
  full_name: Ethlyn
  lata: '520'
  ilec_name: BRIGHTSPEED OF MISSOURI, LLC
  lat:
  long:
- country: US
  region: MO
  exchange: '329909'
  name: ETTERVILLE
  full_name: Etterville
  lata: '520'
  ilec_name: SOUTHWESTERN BELL
  lat:
  long:
- country: US
  region: MO
  exchange: '330495'
  name: EUDORA
  full_name: Eudora
  lata: '522'
  ilec_name: WINDSTREAM MISSOURI, INC.
  lat:
  long:
- country: US
  region: MO
  exchange: '098160'
  name: EUGENE
  full_name: Eugene
  lata: '521'
  ilec_name: EMBARQ MISSOURI, INC. DBA CENTURYLINK - MO
  lat: '38.351704'
  long: "-92.400245"
  closest_city:
    name: Eugene
    distance_km: 0.42
- country: US
  region: MO
  exchange: '330496'
  name: EUNICE
  full_name: Eunice
  lata: '522'
  ilec_name: BRIGHTSPEED OF EAST MISSOURI, LLC
  lat:
  long:
- country: US
  region: MO
  exchange: '098170'
  name: EUREKA
  full_name: Eureka
  lata: '520'
  ilec_name: SOUTHWESTERN BELL
  lat: '38.509153'
  long: "-90.63586"
  closest_city:
    name: Eureka
    distance_km: 1.51
- country: US
  region: MO
  exchange: '09817E'
  name: EUREKA MCA4
  full_name: Eureka MCA4
  lata: '520'
  ilec_name: SOUTHWESTERN BELL
  lat: '38.509153'
  long: "-90.63586"
  closest_city:
    name: Eureka
    distance_km: 1.51
- country: US
  region: MO
  exchange: '330497'
  name: EVE
  full_name: Eve
  lata: '522'
  ilec_name: K L M TEL. CO.
  lat:
  long:
- country: US
  region: MO
  exchange: '098180'
  name: EVERTON
  full_name: Everton
  lata: '522'
  ilec_name: BRIGHTSPEED OF EAST MISSOURI, LLC
  lat: '37.340802'
  long: "-93.709195"
  closest_city:
    name: Everton
    distance_km: 0.65
- country: US
  region: MO
  exchange: '098190'
  name: EWING
  full_name: Ewing
  lata: '520'
  ilec_name: BRIGHTSPEED OF EAST MISSOURI, LLC
  lat: '40.008452'
  long: "-91.719658"
  closest_city:
    name: Ewing
    distance_km: 0.42
- country: US
  region: MO
  exchange: '098200'
  name: EXCELLO
  full_name: Excello
  lata: '524'
  ilec_name: CHARITON VALLEY TEL. CO.
  lat: '39.632831'
  long: "-92.473634"
  closest_city:
    name: Excello
    distance_km: 0.09
- country: US
  region: MO
  exchange: '330978'
  name: EXCELSREST
  full_name: Excelsior Estates
  lata: '524'
  ilec_name: SOUTHWESTERN BELL
  lat:
  long:
- country: US
  region: MO
  exchange: '098210'
  name: EXCELSRSPG
  full_name: Excelsior Springs
  lata: '524'
  ilec_name: SOUTHWESTERN BELL
  lat: '39.351094'
  long: "-94.231711"
  closest_city:
    name: Excelsior Springs
    distance_km: 1.52
- country: US
  region: MO
  exchange: '09821E'
  name: EXCELSIOR SPRINGS MCA4
  full_name: Excelsior Springs MCA4
  lata: '524'
  ilec_name: SOUTHWESTERN BELL
  lat: '39.351094'
  long: "-94.231711"
  closest_city:
    name: Excelsior Springs
    distance_km: 1.52
- country: US
  region: MO
  exchange: '098220'
  name: EXETER
  full_name: Exeter
  lata: '522'
  ilec_name: BRIGHTSPEED OF MISSOURI, LLC
  lat: '36.675111'
  long: "-93.944013"
  closest_city:
    name: Exeter
    distance_km: 0.61
- country: US
  region: MO
  exchange: '329912'
  name: FAGUS
  full_name: Fagus
  lata: '520'
  ilec_name: SOUTHWESTERN BELL
  lat:
  long:
- country: US
  region: MO
  exchange: '098230'
  name: FAIR GROVE
  full_name: Fair Grove
  lata: '522'
  ilec_name: SOUTHWESTERN BELL
  lat: '37.382655'
  long: "-93.149062"
  closest_city:
    name: Fair Grove
    distance_km: 0.29
- country: US
  region: MO
  exchange: '098240'
  name: FAIR PLAY
  full_name: Fair Play
  lata: '522'
  ilec_name: WINDSTREAM MISSOURI, INC.
  lat: '37.635344'
  long: "-93.582898"
  closest_city:
    name: Fair Play
    distance_km: 0.58
- country: US
  region: MO
  exchange: '098250'
  name: FAIRDEALNG
  full_name: Fairdealing
  lata: '520'
  ilec_name: WINDSTREAM MISSOURI, INC.
  lat: '36.664989'
  long: "-90.615264"
  closest_city:
    name: Fairdealing
    distance_km: 0.73
- country: US
  region: MO
  exchange: '098260'
  name: FAIRFAX
  full_name: Fairfax
  lata: '524'
  ilec_name: EMBARQ MISSOURI, INC. DBA CENTURYLINK - MO
  lat: '40.33984'
  long: "-95.394823"
  closest_city:
    name: Fairfax
    distance_km: 0.26
- country: US
  region: MO
  exchange: '330981'
  name: FAIRPORT
  full_name: Fairport
  lata: '524'
  ilec_name: BRIGHTSPEED OF EAST MISSOURI, LLC
  lat:
  long:
- country: US
  region: MO
  exchange: '098270'
  name: FAIRVIEW
  full_name: Fairview
  lata: '522'
  ilec_name: WINDSTREAM MISSOURI, INC.
  lat: '36.818504'
  long: "-94.090583"
  closest_city:
    name: Fairview
    distance_km: 0.38
- country: US
  region: MO
  exchange: '330503'
  name: FALCON
  full_name: Falcon
  lata: '522'
  ilec_name: EMBARQ MISSOURI, INC. DBA CENTURYLINK - MO
  lat:
  long:
- country: US
  region: MO
  exchange: '329914'
  name: FANNING
  full_name: Fanning
  lata: '520'
  ilec_name: BRIGHTSPEED OF MISSOURI, LLC
  lat:
  long:
- country: US
  region: MO
  exchange: '098280'
  name: FARBER
  full_name: Farber
  lata: '520'
  ilec_name: FARBER TEL. CO.
  lat: '39.276863'
  long: "-91.568321"
  closest_city:
    name: Farber
    distance_km: 0.72
- country: US
  region: MO
  exchange: '098290'
  name: FARLEY
  full_name: Farley
  lata: '524'
  ilec_name: SOUTHWESTERN BELL
  lat: '39.283433'
  long: "-94.850348"
  closest_city:
    name: Farley
    distance_km: 1.96
- country: US
  region: MO
  exchange: '09829E'
  name: FARLEY MCA3
  full_name: Farley MCA3
  lata: '524'
  ilec_name: SOUTHWESTERN BELL
  lat: '39.283433'
  long: "-94.850348"
  closest_city:
    name: Farley
    distance_km: 1.96
- country: US
  region: MO
  exchange: '098300'
  name: FARMINGTON
  full_name: Farmington
  lata: '520'
  ilec_name: SOUTHWESTERN BELL
  lat: '37.783164'
  long: "-90.422353"
  closest_city:
    name: Farmington
    distance_km: 0.52
- country: US
  region: MO
  exchange: '329917'
  name: FARRAR
  full_name: Farrar
  lata: '520'
  ilec_name: SOUTHWESTERN BELL
  lat:
  long:
- country: US
  region: MO
  exchange: '330983'
  name: FAUCETT
  full_name: Faucett
  lata: '524'
  ilec_name: SOUTHWESTERN BELL
  lat:
  long:
- country: US
  region: MO
  exchange: '098310'
  name: FAYETTE
  full_name: Fayette
  lata: '524'
  ilec_name: SOUTHWESTERN BELL
  lat: '39.14102'
  long: "-92.693301"
  closest_city:
    name: Fayette
    distance_km: 0.93
- country: US
  region: MO
  exchange: '098320'
  name: FENTON
  full_name: Fenton
  lata: '520'
  ilec_name: SOUTHWESTERN BELL
  lat: '38.508586'
  long: "-90.447352"
  closest_city:
    name: Fenton
    distance_km: 2.15
- country: US
  region: MO
  exchange: '09832E'
  name: FENTON MCA3
  full_name: Fenton MCA3
  lata: '520'
  ilec_name: SOUTHWESTERN BELL
  lat: '38.508586'
  long: "-90.447352"
  closest_city:
    name: Fenton
    distance_km: 2.15
- country: US
  region: MO
  exchange: '099682'
  name: FERGUSON
  full_name: Ferguson
  lata: '520'
  ilec_name: SOUTHWESTERN BELL
  lat:
  long:
- country: US
  region: MO
  exchange: '098330'
  name: FERRELVIEW
  full_name: Ferrelview
  lata: '524'
  ilec_name: EMBARQ MISSOURI, INC. DBA CENTURYLINK - MO
  lat: '39.309301'
  long: "-94.687779"
  closest_city:
    name: Ferrelview
    distance_km: 2.01
- country: US
  region: MO
  exchange: '09833E'
  name: FERRELVIEW MCA3
  full_name: Ferrelview MCA3
  lata: '524'
  ilec_name: EMBARQ MISSOURI, INC. DBA CENTURYLINK - MO
  lat: '39.309301'
  long: "-94.687779"
  closest_city:
    name: Ferrelview
    distance_km: 2.01
- country: US
  region: MO
  exchange: '329920'
  name: FESTUS
  full_name: Festus
  lata: '520'
  ilec_name: SOUTHWESTERN BELL
  lat:
  long:
- country: US
  region: MO
  exchange: '098340'
  name: FSSCRSTLCY
  full_name: Festus-Crystal City
  lata: '520'
  ilec_name: SOUTHWESTERN BELL
  lat: '38.217447'
  long: "-90.400339"
  closest_city:
    name: Festus
    distance_km: 0.85
- country: US
  region: MO
  exchange: '09834E'
  name: FESTUS-CRYSTAL CITY MCA5
  full_name: Festus-Crystal City MCA5
  lata: '520'
  ilec_name: SOUTHWESTERN BELL
  lat: '38.217447'
  long: "-90.400339"
  closest_city:
    name: Festus
    distance_km: 0.85
- country: US
  region: MO
  exchange: '330504'
  name: FILLEY
  full_name: Filley
  lata: '522'
  ilec_name: BRIGHTSPEED OF EAST MISSOURI, LLC
  lat:
  long:
- country: US
  region: MO
  exchange: '098350'
  name: FILLMORE
  full_name: Fillmore
  lata: '524'
  ilec_name: BRIGHTSPEED OF EAST MISSOURI, LLC
  lat: '40.032615'
  long: "-94.965698"
  closest_city:
    name: Fillmore
    distance_km: 1.01
- country: US
  region: MO
  exchange: '098360'
  name: FISK
  full_name: Fisk
  lata: '520'
  ilec_name: SOUTHWESTERN BELL
  lat: '36.781867'
  long: "-90.207691"
  closest_city:
    name: Fisk
    distance_km: 0.08
- country: US
  region: MO
  exchange: '098370'
  name: FLAT RIVER
  full_name: Flat River
  lata: '520'
  ilec_name: SOUTHWESTERN BELL
  lat: '37.850666'
  long: "-90.516392"
  closest_city:
    name: Desloge
    distance_km: 2.73
- country: US
  region: MO
  exchange: '330505'
  name: FLEMINGTON
  full_name: Flemington
  lata: '522'
  ilec_name: BRIGHTSPEED OF EAST MISSOURI, LLC
  lat:
  long:
- country: US
  region: MO
  exchange: '329923'
  name: FLETCHER
  full_name: Fletcher
  lata: '520'
  ilec_name: SOUTHWESTERN BELL
  lat:
  long:
- country: US
  region: MO
  exchange: '329924'
  name: FLINTHILL
  full_name: Flinthill
  lata: '520'
  ilec_name: BRIGHTSPEED OF MISSOURI, LLC
  lat:
  long:
- country: US
  region: MO
  exchange: '098380'
  name: FLORENCE
  full_name: Florence
  lata: '524'
  ilec_name: WINDSTREAM MISSOURI, INC.
  lat: '38.592798'
  long: "-92.980719"
  closest_city:
    name: Otterville
    distance_km: 12.4
- country: US
  region: MO
  exchange: '329925'
  name: FLORIDA
  full_name: Florida
  lata: '520'
  ilec_name: BRIGHTSPEED OF EAST MISSOURI, LLC
  lat:
  long:
- country: US
  region: MO
  exchange: '099686'
  name: FLORISSANT
  full_name: Florissant
  lata: '520'
  ilec_name: SOUTHWESTERN BELL
  lat:
  long:
- country: US
  region: MO
  exchange: '098390'
  name: FOLEY
  full_name: Foley
  lata: '520'
  ilec_name: BRIGHTSPEED OF MISSOURI, LLC
  lat: '39.043604'
  long: "-90.742226"
  closest_city:
    name: Foley
    distance_km: 0.24
- country: US
  region: MO
  exchange: '09839E'
  name: FOLEY MCA6
  full_name: Foley MCA6
  lata: '520'
  ilec_name: BRIGHTSPEED OF MISSOURI, LLC
  lat: '39.043604'
  long: "-90.742226"
  closest_city:
    name: Foley
    distance_km: 0.24
- country: US
  region: MO
  exchange: '330369'
  name: FOLK
  full_name: Folk
  lata: '521'
  ilec_name: SOUTHWESTERN BELL
  lat:
  long:
- country: US
  region: MO
  exchange: '330989'
  name: FORBES
  full_name: Forbes
  lata: '524'
  ilec_name: OREGON FARMERS MUTUAL TEL. CO.
  lat:
  long:
- country: US
  region: MO
  exchange: '330990'
  name: FORD CITY
  full_name: Ford City
  lata: '524'
  ilec_name: GRAND RIVER MUTUAL TEL CO
  lat:
  long:
- country: US
  region: MO
  exchange: '098400'
  name: FORDLAND
  full_name: Fordland
  lata: '522'
  ilec_name: BRIGHTSPEED OF MISSOURI, LLC
  lat: '37.15729'
  long: "-92.935336"
  closest_city:
    name: Fordland
    distance_km: 0.59
- country: US
  region: MO
  exchange: '09840E'
  name: FORDLAND MCA2
  full_name: Fordland MCA2
  lata: '522'
  ilec_name: BRIGHTSPEED OF MISSOURI, LLC
  lat: '37.15729'
  long: "-92.935336"
  closest_city:
    name: Fordland
    distance_km: 0.59
- country: US
  region: MO
  exchange: '330991'
  name: FORESTCITY
  full_name: Forest City
  lata: '524'
  ilec_name: OREGON FARMERS MUTUAL TEL. CO.
  lat:
  long:
- country: US
  region: MO
  exchange: '098410'
  name: FOR GREEN
  full_name: Forest Green
  lata: '524'
  ilec_name: CHARITON VALLEY TEL. CO.
  lat: '39.317383'
  long: "-92.830235"
  closest_city:
    name: Glasgow
    distance_km: 9.99
- country: US
  region: MO
  exchange: '098420'
  name: FORISTELL
  full_name: Foristell
  lata: '520'
  ilec_name: BRIGHTSPEED OF MISSOURI, LLC
  lat: '38.818051'
  long: "-90.960237"
  closest_city:
    name: Foristell
    distance_km: 0.35
- country: US
  region: MO
  exchange: '09842E'
  name: FORISTELL MCA5
  full_name: Foristell MCA5
  lata: '520'
  ilec_name: BRIGHTSPEED OF MISSOURI, LLC
  lat: '38.818051'
  long: "-90.960237"
  closest_city:
    name: Foristell
    distance_km: 0.35
- country: US
  region: MO
  exchange: '098430'
  name: FORSYTH
  full_name: Forsyth
  lata: '522'
  ilec_name: BRIGHTSPEED OF MISSOURI, LLC
  lat: '36.684187'
  long: "-93.10106"
  closest_city:
    name: Forsyth
    distance_km: 0.21
- country: US
  region: MO
  exchange: '330510'
  name: FT CROWDER
  full_name: Fort Crowder
  lata: '522'
  ilec_name: SOUTHWESTERN BELL
  lat:
  long:
- country: US
  region: MO
  exchange: '098440'
  name: FTLENARDWD
  full_name: Fort Leonard Wood
  lata: '520'
