---
rate_centers:
- country: US
  region: ND
  exchange: '113540'
  name: ABERCROMBI
  full_name: Abercrombie
  lata: '636'
  ilec_name: RED RIVER RURAL TEL ASSN DBA RED RIVER COMM - ND
  lat: '46.4415'
  long: "-96.739992"
  closest_city:
    name: Abercrombie
    distance_km: 1.01
- country: US
  region: ND
  exchange: '113550'
  name: ABSARAKA
  full_name: Absaraka
  lata: '636'
  ilec_name: INTER-COMMUNITY TELEPHONE COMPANY, LLC
  lat: '46.982641'
  long: "-97.394643"
  closest_city:
    name: Wheatland
    distance_km: 9.42
- country: US
  region: ND
  exchange: '113560'
  name: ADAMS
  full_name: Adams
  lata: '636'
  ilec_name: POLAR COMMUN MUTUAL AID CORP.
  lat: '48.424645'
  long: "-98.070031"
  closest_city:
    name: Adams
    distance_km: 0.56
- country: US
  region: ND
  exchange: '339206'
  name: ADDISON
  full_name: Addison
  lata: '636'
  ilec_name: QWEST CORPORATION
  lat:
  long:
- country: US
  region: ND
  exchange: '339207'
  name: ADRIAN
  full_name: Adrian
  lata: '636'
  ilec_name: DICKEY RURAL TEL. COOP.
  lat:
  long:
- country: US
  region: ND
  exchange: '339534'
  name: AGATE
  full_name: Agate
  lata: '638'
  ilec_name: TURTLE MOUNTAIN COMMUN., INC.
  lat:
  long:
- country: US
  region: ND
  exchange: '339208'
  name: AKRA
  full_name: Akra
  lata: '636'
  ilec_name: POLAR COMMUN MUTUAL AID CORP.
  lat:
  long:
- country: US
  region: ND
  exchange: '113570'
  name: ALAMO
  full_name: Alamo
  lata: '638'
  ilec_name: NORTHWEST COMMUNICATIONS COOP.
  lat: '48.581325'
  long: "-103.474583"
  closest_city:
    name: Alamo
    distance_km: 0.53
- country: US
  region: ND
  exchange: '113580'
  name: ALEXANDER
  full_name: Alexander
  lata: '638'
  ilec_name: RESERVATION TEL. COOP.
  lat: '47.843611'
  long: "-103.64317"
  closest_city:
    name: Alexander
    distance_km: 0.48
- country: US
  region: ND
  exchange: '339209'
  name: ALFRED
  full_name: Alfred
  lata: '636'
  ilec_name: DICKEY RURAL TEL. COOP.
  lat:
  long:
- country: US
  region: ND
  exchange: '113590'
  name: ALICE
  full_name: Alice
  lata: '636'
  ilec_name: INTER-COMMUNITY TELEPHONE COMPANY, LLC
  lat: '46.757338'
  long: "-97.552691"
  closest_city:
    name: Alice
    distance_km: 0.4
- country: US
  region: ND
  exchange: '339537'
  name: ALKABO
  full_name: Alkabo
  lata: '638'
  ilec_name: NEMONT TEL COOP INC
  lat:
  long:
- country: US
  region: ND
  exchange: '339538'
  name: ALMONT
  full_name: Almont
  lata: '638'
  ilec_name: WEST RIVER TELECOMMUNICATIONS COOP. - ND
  lat:
  long:
- country: US
  region: ND
  exchange: '339211'
  name: ALSEN
  full_name: Alsen
  lata: '636'
  ilec_name: UNITED TEL. MUTUAL AID CORP.
  lat:
  long:
- country: US
  region: ND
  exchange: '113600'
  name: AMBROSE
  full_name: Ambrose
  lata: '638'
  ilec_name: NEMONT TEL COOP INC
  lat: '48.95055'
  long: "-103.483254"
  closest_city:
    name: Ambrose
    distance_km: 0.61
- country: US
  region: ND
  exchange: '339212'
  name: AMENIA
  full_name: Amenia
  lata: '636'
  ilec_name: QWEST CORPORATION
  lat:
  long:
- country: US
  region: ND
  exchange: '113610'
  name: AMIDON
  full_name: Amidon
  lata: '638'
  ilec_name: CONSOLIDATED TELCOM
  lat: '46.531501'
  long: "-103.15176"
  closest_city:
    name: Amidon
    distance_km: 13.97
- country: US
  region: ND
  exchange: '339541'
  name: ANAMOOSE
  full_name: Anamoose
  lata: '638'
  ilec_name: NORTH DAKOTA TELEPHONE CO.
  lat:
  long:
- country: US
  region: ND
  exchange: '113620'
  name: ANETA
  full_name: Aneta
  lata: '636'
  ilec_name: POLAR COMMUN MUTUAL AID CORP.
  lat: '47.672657'
  long: "-97.982442"
  closest_city:
    name: Aneta
    distance_km: 0.94
- country: US
  region: ND
  exchange: '339214'
  name: ANSELM
  full_name: Anselm
  lata: '636'
  ilec_name: GRIGGS COUNTY TEL. CO.
  lat:
  long:
- country: US
  region: ND
  exchange: '339542'
  name: ANTELOPE
  full_name: Antelope
  lata: '638'
  ilec_name: WEST RIVER TELECOMMUNICATIONS COOP. - ND
  lat:
  long:
- country: US
  region: ND
  exchange: '113630'
  name: ANTLER
  full_name: Antler
  lata: '638'
  ilec_name: SRT COMMUNICATIONS, INC.
  lat: '48.97461'
  long: "-101.285633"
  closest_city:
    name: Antler
    distance_km: 0.41
- country: US
  region: ND
  exchange: '339544'
  name: APPAM
  full_name: Appam
  lata: '638'
  ilec_name: NORTHWEST COMMUNICATIONS COOP.
  lat:
  long:
- country: US
  region: ND
  exchange: '339215'
  name: ARDOCH
  full_name: Ardoch
  lata: '636'
  ilec_name: QWEST CORPORATION
  lat:
  long:
- country: US
  region: ND
  exchange: '339545'
  name: ARENA
  full_name: Arena
  lata: '638'
  ilec_name: BEK COMMUNICATIONS COOPERATIVE
  lat:
  long:
- country: US
  region: ND
  exchange: '339216'
  name: ARGUSVILLE
  full_name: Argusville
  lata: '636'
  ilec_name: QWEST CORPORATION
  lat:
  long:
- country: US
  region: ND
  exchange: '339546'
  name: ARMOURDALE
  full_name: Armourdale
  lata: '638'
  ilec_name: TURTLE MOUNTAIN COMMUN., INC.
  lat:
  long:
- country: US
  region: ND
  exchange: '339547'
  name: ARNDT
  full_name: Arndt
  lata: '638'
  ilec_name: TURTLE MOUNTAIN COMMUN., INC.
  lat:
  long:
- country: US
  region: ND
  exchange: '113640'
  name: ARNEGARD
  full_name: Arnegard
  lata: '638'
  ilec_name: RESERVATION TEL. COOP.
  lat: '47.808038'
  long: "-103.431488"
  closest_city:
    name: Arnegard
    distance_km: 0.55
- country: US
  region: ND
  exchange: '113650'
  name: ARTHUR
  full_name: Arthur
  lata: '636'
  ilec_name: POLAR COMMUN MUTUAL AID CORP.
  lat: '47.098746'
  long: "-97.219239"
  closest_city:
    name: Arthur
    distance_km: 0.62
- country: US
  region: ND
  exchange: '339218'
  name: ARVILLA
  full_name: Arvilla
  lata: '636'
  ilec_name: QWEST CORPORATION
  lat:
  long:
- country: US
  region: ND
  exchange: '113660'
  name: ASHLEY
  full_name: Ashley
  lata: '638'
  ilec_name: DICKEY RURAL TEL. COOP.
  lat: '46.03391'
  long: "-99.368382"
  closest_city:
    name: Ashley
    distance_km: 0.41
- country: US
  region: ND
  exchange: '339219'
  name: AUBURN
  full_name: Auburn
  lata: '636'
  ilec_name: QWEST CORPORATION
  lat:
  long:
- country: US
  region: ND
  exchange: '339550'
  name: AYLMER
  full_name: Aylmer
  lata: '638'
  ilec_name: NORTH DAKOTA TELEPHONE CO.
  lat:
  long:
- country: US
  region: ND
  exchange: '339220'
  name: AYR
  full_name: Ayr
  lata: '636'
  ilec_name: INTER-COMMUNITY TELEPHONE COMPANY, LLC
  lat:
  long:
- country: US
  region: ND
  exchange: '339221'
  name: BACKOO
  full_name: Backoo
  lata: '636'
  ilec_name: POLAR COMMUN MUTUAL AID CORP.
  lat:
  long:
- country: US
  region: ND
  exchange: '339551'
  name: BAKER
  full_name: Baker
  lata: '638'
  ilec_name: NORTH DAKOTA TELEPHONE CO.
  lat:
  long:
- country: US
  region: ND
  exchange: '339552'
  name: BALDWIN
  full_name: Baldwin
  lata: '638'
  ilec_name: QWEST CORPORATION
  lat:
  long:
- country: US
  region: ND
  exchange: '339553'
  name: BALFOUR
  full_name: Balfour
  lata: '638'
  ilec_name: NORTH DAKOTA TELEPHONE CO.
  lat:
  long:
- country: US
  region: ND
  exchange: '113670'
  name: BALTA
  full_name: Balta
  lata: '638'
  ilec_name: NORTH DAKOTA TELEPHONE CO.
  lat: '48.167103'
  long: "-100.043039"
  closest_city:
    name: Balta
    distance_km: 0.46
- country: US
  region: ND
  exchange: '339555'
  name: BANTRY
  full_name: Bantry
  lata: '638'
  ilec_name: SRT COMMUNICATIONS, INC.
  lat:
  long:
- country: US
  region: ND
  exchange: '116101'
  name: BARLOW
  full_name: Barlow
  lata: '636'
  ilec_name: DAKOTA CENTRAL TELECOMMUNICATIONS COOP.
  lat:
  long:
- country: US
  region: ND
  exchange: '339223'
  name: BARNEY
  full_name: Barney
  lata: '636'
  ilec_name: RED RIVER RURAL TEL ASSN DBA RED RIVER COMM - ND
  lat:
  long:
- country: US
  region: ND
  exchange: '339224'
  name: BARTLETT
  full_name: Bartlett
  lata: '636'
  ilec_name: POLAR COMMUN MUTUAL AID CORP.
  lat:
  long:
- country: US
  region: ND
  exchange: '339556'
  name: BARTON
  full_name: Barton
  lata: '638'
  ilec_name: NORTH DAKOTA TELEPHONE CO.
  lat:
  long:
- country: US
  region: ND
  exchange: '339225'
  name: BATHGATE
  full_name: Bathgate
  lata: '636'
  ilec_name: POLAR COMMUN MUTUAL AID CORP.
  lat:
  long:
- country: US
  region: ND
  exchange: '339557'
  name: BATTLEVIEW
  full_name: Battleview
  lata: '638'
  ilec_name: NORTHWEST COMMUNICATIONS COOP.
  lat:
  long:
- country: US
  region: ND
  exchange: '113680'
  name: BEACH
  full_name: Beach
  lata: '638'
  ilec_name: MIDSTATE COMMUNICATIONS, INC.
  lat: '46.917357'
  long: "-104.011443"
  closest_city:
    name: Beach
    distance_km: 0.48
- country: US
  region: ND
  exchange: '339559'
  name: BELCOURT
  full_name: Belcourt
  lata: '638'
  ilec_name: TURTLE MOUNTAIN COMMUN., INC.
  lat:
  long:
- country: US
  region: ND
  exchange: '339560'
  name: BELDEN
  full_name: Belden
  lata: '638'
  ilec_name: MIDSTATE TEL. CO.
  lat:
  long:
- country: US
  region: ND
  exchange: '113690'
  name: BELFIELD
  full_name: Belfield
  lata: '638'
  ilec_name: QWEST CORPORATION
  lat: '46.884564'
  long: "-103.192456"
  closest_city:
    name: Belfield
    distance_km: 0.26
- country: US
  region: ND
  exchange: '339562'
  name: BENEDICT
  full_name: Benedict
  lata: '638'
  ilec_name: RESERVATION TEL. COOP.
  lat:
  long:
- country: US
  region: ND
  exchange: '339563'
  name: BENTLEY
  full_name: Bentley
  lata: '638'
  ilec_name: CONSOLIDATED TELCOM
  lat:
  long:
- country: US
  region: ND
  exchange: '339564'
  name: BERGEN
  full_name: Bergen
  lata: '638'
  ilec_name: SRT COMMUNICATIONS, INC.
  lat:
  long:
- country: US
  region: ND
  exchange: '339226'
  name: BERLIN
  full_name: Berlin
  lata: '636'
  ilec_name: DICKEY RURAL TEL. COOP.
  lat:
  long:
- country: US
  region: ND
  exchange: '113700'
  name: BERTHOLD
  full_name: Berthold
  lata: '638'
  ilec_name: SRT COMMUNICATIONS, INC.
  lat: '48.30637'
  long: "-101.734001"
  closest_city:
    name: Berthold
    distance_km: 1.56
- country: US
  region: ND
  exchange: '339566'
  name: BERWICK
  full_name: Berwick
  lata: '638'
  ilec_name: SRT COMMUNICATIONS, INC.
  lat:
  long:
- country: US
  region: ND
  exchange: '113710'
  name: BEULAH
  full_name: Beulah
  lata: '638'
  ilec_name: WEST RIVER TELECOMMUNICATIONS COOP. - ND
  lat: '47.257809'
  long: "-101.772918"
  closest_city:
    name: Beulah
    distance_km: 0.97
- country: US
  region: ND
  exchange: '113720'
  name: BINFORD
  full_name: Binford
  lata: '636'
  ilec_name: GRIGGS COUNTY TEL. CO.
  lat: '47.568465'
  long: "-98.339151"
  closest_city:
    name: Binford
    distance_km: 1.02
- country: US
  region: ND
  exchange: '113730'
  name: BISBEE
  full_name: Bisbee
  lata: '638'
  ilec_name: TURTLE MOUNTAIN COMMUN., INC.
  lat: '48.625192'
  long: "-99.384984"
  closest_city:
    name: Bisbee
    distance_km: 0.51
- country: US
  region: ND
  exchange: '113740'
  name: BISMARCK
  full_name: Bismarck
  lata: '638'
  ilec_name: QWEST CORPORATION
  lat: '46.808113'
  long: "-100.785405"
  closest_city:
    name: Bismarck
    distance_km: 1.4
- country: US
  region: ND
  exchange: '339228'
  name: BLABON
  full_name: Blabon
  lata: '636'
  ilec_name: INTER-COMMUNITY TELEPHONE COMPANY, LLC
  lat:
  long:
- country: US
  region: ND
  exchange: '339570'
  name: BLAISDELL
  full_name: Blaisdell
  lata: '638'
  ilec_name: SRT COMMUNICATIONS, INC.
  lat:
  long:
- country: US
  region: ND
  exchange: '339229'
  name: BLANCHARD
  full_name: Blanchard
  lata: '636'
  ilec_name: QWEST CORPORATION
  lat:
  long:
- country: US
  region: ND
  exchange: '339571'
  name: BONETRAIL
  full_name: Bonetrail
  lata: '638'
  ilec_name: MISSOURI VALLEY COMMUNICATIONS, INC.
  lat:
  long:
- country: US
  region: ND
  exchange: '339230'
  name: BORDULAC
  full_name: Bordulac
  lata: '636'
  ilec_name: DAKOTA CENTRAL TELECOM I, INC.
  lat:
  long:
- country: US
  region: ND
  exchange: '113750'
  name: BOTTINEAU
  full_name: Bottineau
  lata: '638'
  ilec_name: TURTLE MOUNTAIN COMMUN., INC.
  lat: '48.826118'
  long: "-100.437689"
  closest_city:
    name: Bottineau
    distance_km: 0.39
- country: US
  region: ND
  exchange: '113760'
  name: BOWBELLS
  full_name: Bowbells
  lata: '638'
  ilec_name: NORTHWEST COMMUNICATIONS COOP.
  lat: '48.800413'
  long: "-102.244237"
  closest_city:
    name: Bowbells
    distance_km: 0.28
- country: US
  region: ND
  exchange: '113770'
  name: BOWDON
  full_name: Bowdon
  lata: '636'
  ilec_name: DAKOTA CENTRAL TELECOMMUNICATIONS COOP.
  lat: '47.475598'
  long: "-99.710866"
  closest_city:
    name: Bowdon
    distance_km: 0.8
- country: US
  region: ND
  exchange: '339232'
  name: BOWESMONT
  full_name: Bowesmont
  lata: '636'
  ilec_name: POLAR COMMUN MUTUAL AID CORP.
  lat:
  long:
- country: US
  region: ND
  exchange: '113780'
  name: BOWMAN
  full_name: Bowman
  lata: '638'
  ilec_name: CONSOLIDATED TELCOM
  lat: '46.183244'
  long: "-103.39358"
  closest_city:
    name: Bowman
    distance_km: 0.73
- country: US
  region: ND
  exchange: '339575'
  name: BRADDOCK
  full_name: Braddock
  lata: '638'
  ilec_name: BEK COMMUNICATIONS COOPERATIVE
  lat:
  long:
- country: US
  region: ND
  exchange: '339233'
  name: BRAMPTON
  full_name: Brampton
  lata: '636'
  ilec_name: DICKEY RURAL TEL. COOP.
  lat:
  long:
- country: US
  region: ND
  exchange: '339234'
  name: BRANTFORD
  full_name: Brantford
  lata: '636'
  ilec_name: NORTH DAKOTA TELEPHONE CO.
  lat:
  long:
- country: US
  region: ND
  exchange: '339576'
  name: BREIEN
  full_name: Breien
  lata: '638'
  ilec_name: WEST RIVER TELECOMMUNICATIONS COOP. - ND
  lat:
  long:
- country: US
  region: ND
  exchange: '339235'
  name: BREMEN
  full_name: Bremen
  lata: '636'
  ilec_name: NORTH DAKOTA TELEPHONE CO.
  lat:
  long:
- country: US
  region: ND
  exchange: '339236'
  name: BRIARWOOD
  full_name: Briarwood
  lata: '636'
  ilec_name: QWEST CORPORATION
  lat:
  long:
- country: US
  region: ND
  exchange: '339577'
  name: BRINSMADE
  full_name: Brinsmade
  lata: '638'
  ilec_name: NORTH DAKOTA TELEPHONE CO.
  lat:
  long:
- country: US
  region: ND
  exchange: '339578'
  name: BRISBANE
  full_name: Brisbane
  lata: '638'
  ilec_name: WEST RIVER TELECOMMUNICATIONS COOP. - ND
  lat:
  long:
- country: US
  region: ND
  exchange: '113790'
  name: BROCKET
  full_name: Brocket
  lata: '636'
  ilec_name: POLAR COMMUN MUTUAL AID CORP.
  lat: '48.209464'
  long: "-98.34782"
  closest_city:
    name: Brocket
    distance_km: 0.59
- country: US
  region: ND
  exchange: '339239'
  name: BUCHANAN
  full_name: Buchanan
  lata: '636'
  ilec_name: DAKTEL COMMUNICATIONS, LLC - ND
  lat:
  long:
- country: US
  region: ND
  exchange: '339238'
  name: BUCHANAN
  full_name: Buchanan
  lata: '636'
  ilec_name: QWEST CORPORATION
  lat:
  long:
- country: US
  region: ND
  exchange: '339579'
  name: BUCYRUS
  full_name: Bucyrus
  lata: '638'
  ilec_name: CONSOLIDATED TELCOM
  lat:
  long:
- country: US
  region: ND
  exchange: '113800'
  name: BUFFALO
  full_name: Buffalo
  lata: '636'
  ilec_name: INTER-COMMUNITY TELEPHONE COMPANY, LLC
  lat: '46.917886'
  long: "-97.539779"
  closest_city:
    name: Buffalo
    distance_km: 0.84
- country: US
  region: ND
  exchange: '339580'
  name: BUFFALOSPG
  full_name: Buffalo Springs
  lata: '638'
  ilec_name: CONSOLIDATED TELCOM
  lat:
  long:
- country: US
  region: ND
  exchange: '339581'
  name: BUFORD
  full_name: Buford
  lata: '638'
  ilec_name: MISSOURI VALLEY COMMUNICATIONS, INC.
  lat:
  long:
- country: US
  region: ND
  exchange: '339582'
  name: BURLINGTON
  full_name: Burlington
  lata: '638'
  ilec_name: SRT COMMUNICATIONS, INC.
  lat:
  long:
- country: US
  region: ND
  exchange: '339583'
  name: BURNSTAD
  full_name: Burnstad
  lata: '638'
  ilec_name: BEK COMMUNICATIONS COOPERATIVE
  lat:
  long:
- country: US
  region: ND
  exchange: '339584'
  name: BURT
  full_name: Burt
  lata: '638'
  ilec_name: CONSOLIDATED TELCOM
  lat:
  long:
- country: US
  region: ND
  exchange: '113810'
  name: BUTTE
  full_name: Butte
  lata: '638'
  ilec_name: SRT COMMUNICATIONS, INC.
  lat: '47.842788'
  long: "-100.669607"
  closest_city:
    name: Butte
    distance_km: 0.7
- country: US
  region: ND
  exchange: '339241'
  name: BUTTZVILLE
  full_name: Buttzville
  lata: '636'
  ilec_name: DICKEY RURAL TEL. COOP.
  lat:
  long:
- country: US
  region: ND
  exchange: '339242'
  name: BUXTON
  full_name: Buxton
  lata: '636'
  ilec_name: QWEST CORPORATION
  lat:
  long:
- country: US
  region: ND
  exchange: '339243'
  name: CALEDONIA
  full_name: Caledonia
  lata: '636'
  ilec_name: QWEST CORPORATION
  lat:
  long:
- country: US
  region: ND
  exchange: '339244'
  name: CALIO
  full_name: Calio
  lata: '636'
  ilec_name: UNITED TEL. MUTUAL AID CORP.
  lat:
  long:
- country: US
  region: ND
  exchange: '339245'
  name: CALVIN
  full_name: Calvin
  lata: '636'
  ilec_name: UNITED TEL. MUTUAL AID CORP.
  lat:
  long:
- country: US
  region: ND
  exchange: '113820'
  name: CANDO
  full_name: Cando
  lata: '636'
  ilec_name: NORTH DAKOTA TELEPHONE CO.
  lat: '48.485058'
  long: "-99.197973"
  closest_city:
    name: Cando
    distance_km: 0.42
- country: US
  region: ND
  exchange: '339586'
  name: CANNONBALL
  full_name: Cannon Ball
  lata: '638'
  ilec_name: WEST RIVER TELECOMMUNICATIONS COOP. - ND
  lat:
  long:
- country: US
  region: ND
  exchange: '339587'
  name: CARBURY
  full_name: Carbury
  lata: '638'
  ilec_name: TURTLE MOUNTAIN COMMUN., INC.
  lat:
  long:
- country: US
  region: ND
  exchange: '113830'
  name: CARPIO
  full_name: Carpio
  lata: '638'
  ilec_name: SRT COMMUNICATIONS, INC.
  lat: '48.431884'
  long: "-101.707403"
  closest_city:
    name: Carpio
    distance_km: 1.44
- country: US
  region: ND
  exchange: '113840'
  name: CARRINGTON
  full_name: Carrington
  lata: '636'
  ilec_name: DAKOTA CENTRAL TELECOM I, INC.
  lat: '47.451101'
  long: "-99.126726"
  closest_city:
    name: Carrington
    distance_km: 0.32
- country: US
  region: ND
  exchange: '113850'
  name: CARSON
  full_name: Carson
  lata: '638'
  ilec_name: WEST RIVER TELECOMMUNICATIONS COOP. - ND
  lat: '46.424309'
  long: "-101.567437"
  closest_city:
    name: Carson
    distance_km: 0.33
- country: US
  region: ND
  exchange: '341419'
  name: CARTWRIGHT
  full_name: Cartwright
  lata: '650'
  ilec_name: QWEST CORPORATION
  lat:
  long:
- country: US
  region: ND
  exchange: '339248'
  name: CASHEL
  full_name: Cashel
  lata: '636'
  ilec_name: QWEST CORPORATION
  lat:
  long:
- country: US
  region: ND
  exchange: '113860'
  name: CASSELTON
  full_name: Casselton
  lata: '636'
  ilec_name: QWEST CORPORATION
  lat: '46.900489'
  long: "-97.204605"
  closest_city:
    name: Casselton
    distance_km: 0.72
- country: US
  region: ND
  exchange: '116102'
  name: CATHAY
  full_name: Cathay
  lata: '636'
  ilec_name: DAKOTA CENTRAL TELECOMMUNICATIONS COOP.
  lat:
  long:
- country: US
  region: ND
  exchange: '113870'
  name: CAVALIER
  full_name: Cavalier
  lata: '636'
  ilec_name: POLAR COMMUN MUTUAL AID CORP.
  lat: '48.79271'
  long: "-97.617984"
  closest_city:
    name: Cavalier
    distance_km: 0.36
- country: US
  region: ND
  exchange: '339252'
  name: CAVALIRAFS
  full_name: Cavalier AFS
  lata: '636'
  ilec_name: POLAR COMMUN MUTUAL AID CORP.
  lat:
  long:
- country: US
  region: ND
  exchange: '339253'
  name: CAYUGA
  full_name: Cayuga
  lata: '636'
  ilec_name: DICKEY RURAL TEL. COOP.
  lat:
  long:
- country: US
  region: ND
  exchange: '113880'
  name: CENTER
  full_name: Center
  lata: '638'
  ilec_name: WEST RIVER TELECOMMUNICATIONS COOP. - ND
  lat: '47.118159'
  long: "-101.302519"
  closest_city:
    name: Center
    distance_km: 0.51
- country: US
  region: ND
  exchange: '339254'
  name: CHAFFEE
  full_name: Chaffee
  lata: '636'
  ilec_name: QWEST CORPORATION
  lat:
  long:
- country: US
  region: ND
  exchange: '339591'
  name: CHARBONNEU
  full_name: Charbonneau
  lata: '638'
  ilec_name: RESERVATION TEL. COOP.
  lat:
  long:
- country: US
  region: ND
  exchange: '339592'
  name: CHARLSON
  full_name: Charlson
  lata: '638'
  ilec_name: RESERVATION TEL. COOP.
  lat:
  long:
- country: US
  region: ND
  exchange: '113771'
  name: CHASELEY
  full_name: Chaseley
  lata: '636'
  ilec_name: DAKOTA CENTRAL TELECOMMUNICATIONS COOP.
  lat:
  long:
- country: US
  region: ND
  exchange: '113890'
  name: CHRISTINE
  full_name: Christine
  lata: '636'
  ilec_name: WOLVERTON TEL. CO. - ND
  lat: '46.559129'
  long: "-96.749943"
  closest_city:
    name: Christine
    distance_km: 4.69
- country: US
  region: ND
  exchange: '339593'
  name: CHURCHFRRY
  full_name: Churchs Ferry
  lata: '638'
  ilec_name: NORTH DAKOTA TELEPHONE CO.
  lat:
  long:
- country: US
  region: ND
  exchange: '339257'
  name: CLEMENTSVL
  full_name: Clementsville
  lata: '636'
  ilec_name: DAKOTA CENTRAL TELECOM I, INC.
  lat:
  long:
- country: US
  region: ND
  exchange: '116451'
  name: CLEVELAND
  full_name: Cleveland
  lata: '636'
  ilec_name: DAKOTA CENTRAL TELECOMMUNICATIONS COOP.
  lat:
  long:
- country: US
  region: ND
  exchange: '339259'
  name: CLIFFORD
  full_name: Clifford
  lata: '636'
  ilec_name: POLAR COMMUN MUTUAL AID CORP.
  lat:
  long:
- country: US
  region: ND
  exchange: '339260'
  name: CLYDE
  full_name: Clyde
  lata: '636'
  ilec_name: UNITED TEL. MUTUAL AID CORP.
  lat:
  long:
- country: US
  region: ND
  exchange: '339261'
  name: COGSWELL
  full_name: Cogswell
  lata: '636'
  ilec_name: DICKEY RURAL TEL. COOP.
  lat:
  long:
- country: US
  region: ND
  exchange: '339594'
  name: COLEHARBOR
  full_name: Coleharbor
  lata: '638'
  ilec_name: WEST RIVER TELECOMMUNICATIONS COOP. - ND
  lat:
  long:
- country: US
  region: ND
  exchange: '113900'
  name: COLFAX
  full_name: Colfax
  lata: '636'
  ilec_name: RED RIVER RURAL TEL ASSN DBA RED RIVER COMM - ND
  lat: '46.465045'
  long: "-96.876466"
  closest_city:
    name: Colfax
    distance_km: 0.73
- country: US
  region: ND
  exchange: '339595'
  name: COLGAN
  full_name: Colgan
  lata: '638'
  ilec_name: NEMONT TEL COOP INC
  lat:
  long:
- country: US
  region: ND
  exchange: '339263'
  name: COLGATE
  full_name: Colgate
  lata: '636'
  ilec_name: INTER-COMMUNITY TELEPHONE COMPANY, LLC
  lat:
  long:
- country: US
  region: ND
  exchange: '113910'
  name: COLUMBUS
  full_name: Columbus
  lata: '638'
  ilec_name: NORTHWEST COMMUNICATIONS COOP.
  lat: '48.903745'
  long: "-102.784381"
  closest_city:
    name: Columbus
    distance_km: 0.27
- country: US
  region: ND
  exchange: '339264'
  name: CONCRETE
  full_name: Concrete
  lata: '636'
  ilec_name: UNITED TEL. MUTUAL AID CORP.
  lat:
  long:
- country: US
  region: ND
  exchange: '339265'
  name: CONSIDINE
  full_name: Considine
  lata: '636'
  ilec_name: NORTH DAKOTA TELEPHONE CO.
  lat:
  long:
- country: US
  region: ND
  exchange: '339266'
  name: CONWAY
  full_name: Conway
  lata: '636'
  ilec_name: POLAR COMMUN MUTUAL AID CORP.
  lat:
  long:
- country: US
  region: ND
  exchange: '113920'
  name: COOPERSTN
  full_name: Cooperstown
  lata: '636'
  ilec_name: GRIGGS COUNTY TEL. CO.
  lat: '47.439968'
  long: "-98.114864"
  closest_city:
    name: Cooperstown
    distance_km: 1.01
- country: US
  region: ND
  exchange: '339597'
  name: CORINTH
  full_name: Corinth
  lata: '638'
  ilec_name: NORTHWEST COMMUNICATIONS COOP.
  lat:
  long:
- country: US
  region: ND
  exchange: '339598'
  name: COTEAU
  full_name: Coteau
  lata: '638'
  ilec_name: NORTHWEST COMMUNICATIONS COOP.
  lat:
  long:
- country: US
  region: ND
  exchange: '339599'
  name: COULEE
  full_name: Coulee
  lata: '638'
  ilec_name: RESERVATION TEL. COOP.
  lat:
  long:
- country: US
  region: ND
  exchange: '113930'
  name: COURTENAY
  full_name: Courtenay
  lata: '636'
  ilec_name: DAKOTA CENTRAL TELECOM I, INC.
  lat: '47.2254'
  long: "-98.559867"
  closest_city:
    name: Courtenay
    distance_km: 0.67
- country: US
  region: ND
  exchange: '113940'
  name: CRARY
  full_name: Crary
  lata: '636'
  ilec_name: NORTH DAKOTA TELEPHONE CO.
  lat: '48.067277'
  long: "-98.640438"
  closest_city:
    name: Crary
    distance_km: 0.5
- country: US
  region: ND
  exchange: '113950'
  name: CRETE
  full_name: Crete
  lata: '636'
  ilec_name: DICKEY RURAL TEL. COOP.
  lat: '46.199884'
  long: "-97.966948"
  closest_city:
    name: Oakes
    distance_km: 11.42
- country: US
  region: ND
  exchange: '339271'
  name: CROCUS
  full_name: Crocus
  lata: '636'
  ilec_name: UNITED TEL. MUTUAL AID CORP.
  lat:
  long:
- country: US
  region: ND
  exchange: '113960'
  name: CROSBY
  full_name: Crosby
  lata: '638'
  ilec_name: NORTHWEST COMMUNICATIONS COOP.
  lat: '48.915978'
  long: "-103.295737"
  closest_city:
    name: Crosby
    distance_km: 0.07
- country: US
  region: ND
  exchange: '113970'
  name: CRYSTAL
  full_name: Crystal
  lata: '636'
  ilec_name: POLAR COMMUN MUTUAL AID CORP.
  lat: '48.592579'
  long: "-97.669221"
  closest_city:
    name: Crystal
    distance_km: 0.62
- country: US
  region: ND
  exchange: '339273'
  name: CRYSTALSPG
  full_name: Crystal Springs
  lata: '636'
  ilec_name: DAKOTA CENTRAL TELECOMMUNICATIONS COOP.
  lat:
  long:
- country: US
  region: ND
  exchange: '339274'
  name: CUBA
  full_name: Cuba
  lata: '636'
  ilec_name: QWEST CORPORATION
  lat:
  long:
- country: US
  region: ND
  exchange: '339275'
  name: CUMMINGS
  full_name: Cummings
  lata: '636'
  ilec_name: QWEST CORPORATION
  lat:
  long:
- country: US
  region: ND
  exchange: '113980'
  name: DAHLEN
  full_name: Dahlen
  lata: '636'
  ilec_name: POLAR COMMUN MUTUAL AID CORP.
  lat: '48.148348'
  long: "-97.942845"
  closest_city:
    name: Dahlen
    distance_km: 1.41
- country: US
  region: ND
  exchange: '339277'
  name: DAVENPORT
  full_name: Davenport
  lata: '636'
  ilec_name: QWEST CORPORATION
  lat:
  long:
- country: US
  region: ND
  exchange: '339601'
  name: DAWSON
  full_name: Dawson
  lata: '638'
  ilec_name: BEK COMMUNICATIONS COOPERATIVE
  lat:
  long:
- country: US
  region: ND
  exchange: '113990'
  name: DAZEY
  full_name: Dazey
  lata: '636'
  ilec_name: INTER-COMMUNITY TELEPHONE COMPANY, LLC
  lat: '47.185213'
  long: "-98.200895"
  closest_city:
    name: Dazey
    distance_km: 0.34
- country: US
  region: ND
  exchange: '339279'
  name: DE LAMERE
  full_name: De Lamere
  lata: '636'
  ilec_name: DICKEY RURAL TEL. COOP.
  lat:
  long:
- country: US
  region: ND
  exchange: '114000'
  name: DEERING
  full_name: Deering
  lata: '638'
  ilec_name: SRT COMMUNICATIONS, INC.
  lat: '48.401743'
  long: "-101.047118"
  closest_city:
    name: Deering
    distance_km: 0.68
- country: US
  region: ND
  exchange: '339603'
  name: DENBIGH
  full_name: Denbigh
  lata: '638'
  ilec_name: SRT COMMUNICATIONS, INC.
  lat:
  long:
- country: US
  region: ND
  exchange: '339604'
  name: DENHOFF
  full_name: Denhoff
  lata: '638'
  ilec_name: WEST RIVER TELECOMMUNICATIONS COOP. - ND
  lat:
  long:
- country: US
  region: ND
  exchange: '339280'
  name: DERRICK
  full_name: Derrick
  lata: '636'
  ilec_name: POLAR COMMUN MUTUAL AID CORP.
  lat:
  long:
- country: US
  region: ND
  exchange: '114010'
  name: DES LACS
  full_name: Des Lacs
  lata: '638'
  ilec_name: SRT COMMUNICATIONS, INC.
  lat: '48.259028'
  long: "-101.569537"
  closest_city:
    name: Des Lacs
    distance_km: 0.53
- country: US
  region: ND
  exchange: '114020'
  name: DEVILSLAKE
  full_name: Devils Lake
  lata: '636'
  ilec_name: NORTH DAKOTA TELEPHONE CO.
  lat: '48.108247'
  long: "-98.858449"
  closest_city:
    name: Crary
    distance_km: 16.84
- country: US
  region: ND
  exchange: '114030'
  name: DICKEY
  full_name: Dickey
  lata: '636'
  ilec_name: DICKEY RURAL TEL. COOP.
  lat: '46.53204'
  long: "-98.464116"
  closest_city:
    name: Dickey
    distance_km: 0.61
- country: US
  region: ND
  exchange: '114040'
  name: DICKINSON
  full_name: Dickinson
  lata: '638'
  ilec_name: QWEST CORPORATION
  lat: '46.87562'
  long: "-102.782411"
  closest_city:
    name: Dickinson
    distance_km: 1.96
- country: US
  region: ND
  exchange: '114050'
  name: DODGE
  full_name: Dodge
  lata: '638'
  ilec_name: CONSOLIDATED TELCOM
  lat: '47.308027'
  long: "-102.20276"
  closest_city:
    name: Dodge
    distance_km: 0.26
- country: US
  region: ND
  exchange: '114060'
  name: DONNYBROOK
  full_name: Donnybrook
  lata: '638'
  ilec_name: SRT COMMUNICATIONS, INC.
  lat: '48.508241'
  long: "-101.872491"
  closest_city:
    name: Donnybrook
    distance_km: 1.06
- country: US
  region: ND
  exchange: '114070'
  name: DOUGLAS
  full_name: Douglas
  lata: '638'
  ilec_name: RESERVATION TEL. COOP.
  lat: '47.857026'
  long: "-101.49726"
  closest_city:
    name: Douglas
    distance_km: 0.35
- country: US
  region: ND
  exchange: '339283'
  name: DOVER
  full_name: Dover
  lata: '636'
  ilec_name: DAKOTA CENTRAL TELECOMMUNICATIONS COOP.
  lat:
  long:
- country: US
  region: ND
  exchange: '339284'
  name: DOYON
  full_name: Doyon
  lata: '636'
  ilec_name: NORTH DAKOTA TELEPHONE CO.
  lat:
  long:
- country: US
  region: ND
  exchange: '114080'
  name: DRAKE
  full_name: Drake
  lata: '638'
  ilec_name: NORTH DAKOTA TELEPHONE CO.
  lat: '47.926546'
  long: "-100.366072"
  closest_city:
    name: Drake
    distance_km: 0.77
- country: US
  region: ND
  exchange: '114090'
  name: DRAYTON
  full_name: Drayton
  lata: '636'
  ilec_name: POLAR COMMUN MUTUAL AID CORP.
  lat: '48.561083'
  long: "-97.176391"
  closest_city:
    name: Drayton
    distance_km: 0.24
- country: US
  region: ND
  exchange: '339286'
  name: DRESDEN
  full_name: Dresden
  lata: '636'
  ilec_name: UNITED TEL. MUTUAL AID CORP.
  lat:
  long:
- country: US
  region: ND
  exchange: '339611'
  name: DRISCOLL
  full_name: Driscoll
  lata: '638'
  ilec_name: BEK COMMUNICATIONS COOPERATIVE
  lat:
  long:
- country: US
  region: ND
  exchange: '114100'
  name: DUNNCENTER
  full_name: Dunn Center
  lata: '638'
  ilec_name: CONSOLIDATED TELCOM
  lat: '47.348046'
  long: "-102.616234"
  closest_city:
    name: Dunn Center
    distance_km: 0.74
- country: US
  region: ND
  exchange: '114110'
  name: DUNSEITH
  full_name: Dunseith
  lata: '638'
  ilec_name: TURTLE MOUNTAIN COMMUN., INC.
  lat: '48.808861'
  long: "-100.057188"
  closest_city:
    name: Dunseith
    distance_km: 0.59
- country: US
  region: ND
  exchange: '339287'
  name: DURBIN
  full_name: Durbin
  lata: '636'
  ilec_name: QWEST CORPORATION
  lat:
  long:
- country: US
  region: ND
  exchange: '339288'
  name: DWIGHT
  full_name: Dwight
  lata: '636'
  ilec_name: QWEST CORPORATION
  lat:
  long:
- country: US
  region: ND
  exchange: '114120'
  name: E CARLYLE
  full_name: East Carlyle
  lata: '650'
  ilec_name: MID-RIVERS TEL. COOP., INC.
  lat: '46.5155'
  long: "-103.716181"
  closest_city:
    name: Marmarth
    distance_km: 29.54
- country: US
  region: ND
  exchange: '114130'
  name: E FAIRVIEW
  full_name: East Fairview
  lata: '650'
  ilec_name: QWEST CORPORATION
  lat: '47.85155'
  long: "-104.02411"
  closest_city:
    name: East Fairview
    distance_km: 1.09
- country: US
  region: ND
  exchange: '114140'
  name: EASTSIDNEY
  full_name: East Sidney
  lata: '650'
  ilec_name: QWEST CORPORATION
  lat: '47.708367'
  long: "-104.031631"
  closest_city:
    name: East Fairview
    distance_km: 16.36
- country: US
  region: ND
  exchange: '114150'
  name: EASTWESTBY
  full_name: East Westby
  lata: '638'
  ilec_name: NEMONT TEL COOP INC
  lat: '48.87311'
  long: "-104.042193"
  closest_city:
    name: Fortuna
    distance_km: 19.72
- country: US
  region: ND
  exchange: '339289'
  name: EASTEDGE
  full_name: Eastedge
  lata: '636'
  ilec_name: INTER-COMMUNITY TELEPHONE COMPANY, LLC
  lat:
  long:
- country: US
  region: ND
  exchange: '339290'
  name: ECKELSON
  full_name: Eckelson
  lata: '636'
  ilec_name: INTER-COMMUNITY TELEPHONE COMPANY, LLC
  lat:
  long:
- country: US
  region: ND
  exchange: '339615'
  name: ECKMAN
  full_name: Eckman
  lata: '638'
  ilec_name: TURTLE MOUNTAIN COMMUN., INC.
  lat:
  long:
- country: US
  region: ND
  exchange: '114160'
  name: EDGELEY
  full_name: Edgeley
  lata: '636'
  ilec_name: DICKEY RURAL TEL. COOP.
  lat: '46.359208'
  long: "-98.707667"
  closest_city:
    name: Edgeley
    distance_km: 0.53
- country: US
  region: ND
  exchange: '114170'
  name: EDINBURG
  full_name: Edinburg
  lata: '636'
  ilec_name: POLAR COMMUN MUTUAL AID CORP.
  lat: '48.491185'
  long: "-97.86911"
  closest_city:
    name: Edinburg
    distance_km: 0.66
- country: US
  region: ND
  exchange: '114180'
  name: EDMORE
  full_name: Edmore
  lata: '636'
  ilec_name: POLAR COMMUN MUTUAL AID CORP.
  lat: '48.408416'
  long: "-98.447463"
  closest_city:
    name: Edmore
    distance_km: 0.63
- country: US
  region: ND
  exchange: '114190'
  name: EDMUNDS
  full_name: Edmunds
  lata: '636'
  ilec_name: DAKOTA CENTRAL TELECOMMUNICATIONS COOP.
  lat: '47.25104'
  long: "-98.962678"
  closest_city:
    name: Pingree
    distance_km: 10.53
- country: US
  region: ND
  exchange: '339295'
  name: EGELAND
  full_name: Egeland
  lata: '636'
  ilec_name: UNITED TEL. MUTUAL AID CORP.
  lat:
  long:
- country: US
  region: ND
  exchange: '116452'
  name: ELDRIDGE
  full_name: Eldridge
  lata: '636'
  ilec_name: DAKOTA CENTRAL TELECOMMUNICATIONS COOP.
  lat:
  long:
- country: US
  region: ND
  exchange: '114200'
  name: ELGIN
  full_name: Elgin
  lata: '638'
  ilec_name: WEST RIVER TELECOMMUNICATIONS COOP. - ND
  lat: '46.402'
  long: "-101.844164"
  closest_city:
    name: Elgin
    distance_km: 0.26
- country: US
  region: ND
  exchange: '114210'
  name: ELLENDALE
  full_name: Ellendale
  lata: '636'
  ilec_name: DICKEY RURAL TEL. COOP.
  lat: '46.006928'
  long: "-98.51816"
  closest_city:
    name: Ellendale
    distance_km: 0.63
- country: US
  region: ND
  exchange: '339298'
  name: ELLIOTT
  full_name: Elliott
  lata: '636'
  ilec_name: DICKEY RURAL TEL. COOP.
  lat:
  long:
- country: US
  region: ND
  exchange: '339299'
  name: EMBDEN
  full_name: Embden
  lata: '636'
  ilec_name: INTER-COMMUNITY TELEPHONE COMPANY, LLC
  lat:
  long:
- country: US
  region: ND
  exchange: '114220'
  name: EMERADO
  full_name: Emerado
  lata: '636'
  ilec_name: QWEST CORPORATION
  lat: '47.917289'
  long: "-97.373671"
  closest_city:
    name: Emerado
    distance_km: 1.02
- country: US
  region: ND
  exchange: '114230'
  name: EMMET
  full_name: Emmet
  lata: '638'
  ilec_name: RESERVATION TEL. COOP.
  lat: '47.650818'
  long: "-101.449852"
  closest_city:
    name: Garrison
    distance_km: 2.11
- country: US
  region: ND
  exchange: '339618'
  name: EMRICK
  full_name: Emrick
  lata: '638'
  ilec_name: NORTH DAKOTA TELEPHONE CO.
  lat:
  long:
- country: US
  region: ND
  exchange: '114240'
  name: ENDERLIN
  full_name: Enderlin
  lata: '636'
  ilec_name: GRIGGS COUNTY TEL. CO.
  lat: '46.61816'
  long: "-97.589098"
  closest_city:
    name: Enderlin
    distance_km: 0.62
- country: US
  region: ND
  exchange: '339302'
  name: ENGLEVALE
  full_name: Englevale
  lata: '636'
  ilec_name: DICKEY RURAL TEL. COOP.
  lat:
  long:
- country: US
  region: ND
  exchange: '114250'
  name: EPPING
  full_name: Epping
  lata: '638'
  ilec_name: NORTHWEST COMMUNICATIONS COOP.
  lat: '48.280372'
  long: "-103.355434"
  closest_city:
    name: Epping
    distance_km: 0.23
- country: US
  region: ND
  exchange: '339303'
  name: ERIE
  full_name: Erie
  lata: '636'
  ilec_name: INTER-COMMUNITY TELEPHONE COMPANY, LLC
  lat:
  long:
- country: US
  region: ND
  exchange: '114260'
  name: ESMOND
  full_name: Esmond
  lata: '638'
  ilec_name: NORTH DAKOTA TELEPHONE CO.
  lat: '48.035028'
  long: "-99.765022"
  closest_city:
    name: Esmond
    distance_km: 0.23
- country: US
  region: ND
  exchange: '114270'
  name: FAIRDALE
  full_name: Fairdale
  lata: '636'
  ilec_name: POLAR COMMUN MUTUAL AID CORP.
  lat: '48.48185'
  long: "-98.213969"
  closest_city:
    name: Fairdale
    distance_km: 1.56
- country: US
  region: ND
  exchange: '339621'
  name: FAIRFIELD
  full_name: Fairfield
  lata: '638'
  ilec_name: QWEST CORPORATION
  lat:
  long:
- country: US
  region: ND
  exchange: '114280'
  name: FAIRMOUNT
  full_name: Fairmount
  lata: '636'
  ilec_name: RED RIVER RURAL TEL ASSN DBA RED RIVER COMM - ND
  lat: '46.057255'
  long: "-96.60065"
  closest_city:
    name: Fairmount
    distance_km: 0.33
- country: US
  region: ND
  exchange: '114290'
  name: FARGO
  full_name: Fargo
  lata: '636'
  ilec_name: QWEST CORPORATION
  lat: '46.875988'
  long: "-96.794015"
  closest_city:
    name: Fargo
    distance_km: 2.94
- country: US
  region: ND
  exchange: '114300'
  name: FESSENDEN
  full_name: Fessenden
  lata: '638'
  ilec_name: NORTH DAKOTA TELEPHONE CO.
  lat: '47.650762'
  long: "-99.624225"
  closest_city:
    name: Fessenden
    distance_km: 0.24
- country: US
  region: ND
  exchange: '339623'
  name: FILLMORE
  full_name: Fillmore
  lata: '638'
  ilec_name: NORTH DAKOTA TELEPHONE CO.
  lat:
  long:
- country: US
  region: ND
  exchange: '339307'
  name: FINGAL
  full_name: Fingal
  lata: '636'
  ilec_name: INTER-COMMUNITY TELEPHONE COMPANY, LLC
  lat:
  long:
- country: US
  region: ND
  exchange: '114310'
  name: FINLEY
  full_name: Finley
  lata: '636'
  ilec_name: GRIGGS COUNTY TEL. CO.
  lat: '47.509641'
  long: "-97.836076"
  closest_city:
    name: Finley
    distance_km: 0.33
- country: US
  region: ND
  exchange: '114320'
  name: FLASHER
  full_name: Flasher
  lata: '638'
  ilec_name: WEST RIVER TELECOMMUNICATIONS COOP. - ND
  lat: '46.460136'
  long: "-101.227387"
  closest_city:
    name: Flasher
    distance_km: 0.97
- country: US
  region: ND
  exchange: '114330'
  name: FLAXTON
  full_name: Flaxton
  lata: '638'
  ilec_name: NORTHWEST COMMUNICATIONS COOP.
  lat: '48.902343'
  long: "-102.398373"
  closest_city:
    name: Flaxton
    distance_km: 0.66
- country: US
  region: ND
  exchange: '339626'
  name: FLORA
  full_name: Flora
  lata: '638'
  ilec_name: NORTH DAKOTA TELEPHONE CO.
  lat:
  long:
- country: US
  region: ND
  exchange: '339627'
  name: FONDA
  full_name: Fonda
  lata: '638'
  ilec_name: TURTLE MOUNTAIN COMMUN., INC.
  lat:
  long:
- country: US
  region: ND
  exchange: '114340'
  name: FORBES
  full_name: Forbes
  lata: '636'
  ilec_name: DICKEY RURAL TEL. COOP.
  lat: '45.948734'
  long: "-98.781801"
  closest_city:
    name: Forbes
    distance_km: 0.69
- country: US
  region: ND
  exchange: '114350'
  name: FORDVILLE
  full_name: Fordville
  lata: '636'
  ilec_name: POLAR COMMUN MUTUAL AID CORP.
  lat: '48.217871'
  long: "-97.792406"
  closest_city:
    name: Fordville
    distance_km: 0.26
- country: US
  region: ND
  exchange: '339311'
  name: FOREST RIV
  full_name: Forest River
  lata: '636'
  ilec_name: QWEST CORPORATION
  lat:
  long:
- country: US
  region: ND
  exchange: '114360'
  name: FORMAN
  full_name: Forman
  lata: '636'
  ilec_name: DICKEY RURAL TEL. COOP.
  lat: '46.108958'
  long: "-97.63543"
  closest_city:
    name: Forman
    distance_km: 0.56
- country: US
  region: ND
  exchange: '339628'
  name: FORT CLARK
  full_name: Fort Clark
  lata: '638'
  ilec_name: WEST RIVER TELECOMMUNICATIONS COOP. - ND
  lat:
  long:
- country: US
  region: ND
  exchange: '114370'
  name: FORTRANSOM
  full_name: Fort Ransom
  lata: '636'
  ilec_name: DICKEY RURAL TEL. COOP.
  lat: '46.516051'
  long: "-97.925084"
  closest_city:
    name: Fort Ransom
    distance_km: 1.03
- country: US
  region: ND
  exchange: '339629'
  name: FORT RICE
  full_name: Fort Rice
  lata: '638'
  ilec_name: QWEST CORPORATION
  lat:
  long:
- country: US
  region: ND
  exchange: '114380'
  name: FORTTOTTEN
  full_name: Fort Totten
  lata: '636'
  ilec_name: NORTH DAKOTA TELEPHONE CO.
  lat: '47.97851'
  long: "-98.988866"
  closest_city:
    name: Fort Totten
    distance_km: 0.98
- country: US
  region: ND
  exchange: '114390'
  name: FORT YATES
  full_name: Fort Yates
  lata: '638'
  ilec_name: WEST RIVER TELECOMMUNICATIONS COOP. - ND
  lat: '46.082764'
  long: "-100.624707"
  closest_city:
    name: Fort Yates
    distance_km: 0.59
- country: US
  region: ND
  exchange: '114400'
  name: FORTUNA
  full_name: Fortuna
  lata: '638'
  ilec_name: NEMONT TEL COOP INC
  lat: '48.914879'
  long: "-103.77619"
  closest_city:
    name: Fortuna
    distance_km: 0.57
- country: US
  region: ND
  exchange: '339632'
  name: FOXHOLM
  full_name: Foxholm
  lata: '638'
  ilec_name: SRT COMMUNICATIONS, INC.
  lat:
  long:
- country: US
  region: ND
  exchange: '339633'
  name: FREDA
  full_name: Freda
  lata: '638'
  ilec_name: WEST RIVER TELECOMMUNICATIONS COOP. - ND
  lat:
  long:
- country: US
  region: ND
  exchange: '114410'
  name: FREDONIA
  full_name: Fredonia
  lata: '636'
  ilec_name: DICKEY RURAL TEL. COOP.
  lat: '46.327082'
  long: "-99.092707"
  closest_city:
    name: Fredonia
    distance_km: 0.31
- country: US
  region: ND
  exchange: '339316'
  name: FRONTIER
  full_name: Frontier
  lata: '636'
  ilec_name: QWEST CORPORATION
  lat:
  long:
- country: US
  region: ND
  exchange: '339634'
  name: FRYBURG
  full_name: Fryburg
  lata: '638'
  ilec_name: QWEST CORPORATION
  lat:
  long:
- country: US
  region: ND
  exchange: '114420'
  name: FULLERTON
  full_name: Fullerton
  lata: '636'
  ilec_name: DICKEY RURAL TEL. COOP.
  lat: '46.165044'
  long: "-98.424744"
  closest_city:
    name: Fullerton
    distance_km: 0.28
- country: US
  region: ND
  exchange: '114430'
  name: GACKLE
  full_name: Gackle
  lata: '636'
  ilec_name: DAKOTA CENTRAL TELECOM I, INC.
  lat: '46.616454'
  long: "-99.142672"
  closest_city:
    name: Gackle
    distance_km: 1.11
- country: US
  region: ND
  exchange: '339319'
  name: GALCHUTT
  full_name: Galchutt
  lata: '636'
  ilec_name: RED RIVER RURAL TEL ASSN DBA RED RIVER COMM - ND
  lat:
  long:
- country: US
  region: ND
  exchange: '114440'
  name: GALESBURG
  full_name: Galesburg
  lata: '636'
  ilec_name: POLAR COMMUN MUTUAL AID CORP.
  lat: '47.265836'
  long: "-97.411409"
  closest_city:
    name: Galesburg
    distance_km: 0.52
- country: US
  region: ND
  exchange: '339321'
  name: GARDAR
  full_name: Gardar
  lata: '636'
  ilec_name: POLAR COMMUN MUTUAL AID CORP.
  lat:
  long:
- country: US
  region: ND
  exchange: '339635'
  name: GARDENA
  full_name: Gardena
  lata: '638'
  ilec_name: TURTLE MOUNTAIN COMMUN., INC.
  lat:
  long:
- country: US
  region: ND
  exchange: '114450'
  name: GARDNER
  full_name: Gardner
  lata: '636'
  ilec_name: QWEST CORPORATION
  lat: '47.144141'
  long: "-96.968624"
  closest_city:
    name: Gardner
    distance_km: 0.04
- country: US
  region: ND
  exchange: '114460'
  name: GARRISON
  full_name: Garrison
  lata: '638'
  ilec_name: RESERVATION TEL. COOP.
  lat: '47.647703'
  long: "-101.415606"
  closest_city:
    name: Garrison
    distance_km: 0.77
- country: US
  region: ND
  exchange: '339323'
  name: GARSKE
  full_name: Garske
  lata: '636'
  ilec_name: NORTH DAKOTA TELEPHONE CO.
  lat:
  long:
- country: US
  region: ND
  exchange: '339637'
  name: GASCOYNE
  full_name: Gascoyne
  lata: '638'
  ilec_name: CONSOLIDATED TELCOM
  lat:
  long:
- country: US
  region: ND
  exchange: '339324'
  name: GENESEO
  full_name: Geneseo
  lata: '636'
  ilec_name: RED RIVER RURAL TEL ASSN DBA RED RIVER COMM - ND
  lat:
  long:
- country: US
  region: ND
  exchange: '114470'
  name: GILBY
  full_name: Gilby
  lata: '636'
  ilec_name: POLAR COMMUN MUTUAL AID CORP.
  lat: '48.081841'
  long: "-97.467769"
  closest_city:
    name: Gilby
    distance_km: 0.18
- country: US
  region: ND
  exchange: '339638'
  name: GLADSTONE
  full_name: Gladstone
  lata: '638'
  ilec_name: QWEST CORPORATION
  lat:
  long:
- country: US
  region: ND
  exchange: '339326'
  name: GLASSTON
  full_name: Glasston
  lata: '636'
  ilec_name: POLAR COMMUN MUTUAL AID CORP.
  lat:
  long:
- country: US
  region: ND
  exchange: '114480'
  name: GLEN ULLIN
  full_name: Glen Ullin
  lata: '638'
  ilec_name: WEST RIVER TELECOMMUNICATIONS COOP. - ND
  lat: '46.816822'
  long: "-101.825652"
  closest_city:
    name: Glen Ullin
    distance_km: 0.79
- country: US
  region: ND
  exchange: '114490'
  name: GLENBURN
  full_name: Glenburn
  lata: '638'
  ilec_name: SRT COMMUNICATIONS, INC.
  lat: '48.509695'
  long: "-101.217267"
  closest_city:
    name: Glenburn
    distance_km: 0.52
- country: US
  region: ND
  exchange: '339327'
  name: GLENFIELD
  full_name: Glenfield
  lata: '636'
  ilec_name: GRIGGS COUNTY TEL. CO.
  lat:
  long:
- country: US
  region: ND
  exchange: '114500'
  name: GOLDEN VLY
  full_name: Golden Valley
  lata: '638'
  ilec_name: WEST RIVER TELECOMMUNICATIONS COOP. - ND
  lat: '47.291948'
  long: "-102.068616"
  closest_city:
    name: Golden Valley
    distance_km: 0.33
- country: US
  region: ND
  exchange: '339642'
  name: GOLVA
  full_name: Golva
  lata: '638'
  ilec_name: MIDSTATE COMMUNICATIONS, INC.
  lat:
  long:
- country: US
  region: ND
  exchange: '114510'
  name: GOODRICH
  full_name: Goodrich
  lata: '638'
  ilec_name: WEST RIVER TELECOMMUNICATIONS COOP. - ND
  lat: '47.475739'
  long: "-100.127425"
  closest_city:
    name: Goodrich
    distance_km: 0.21
- country: US
  region: ND
  exchange: '339644'
  name: GORHAM
  full_name: Gorham
  lata: '638'
  ilec_name: QWEST CORPORATION
  lat:
  long:
- country: US
  region: ND
  exchange: '114520'
  name: GRACE CITY
  full_name: Grace City
  lata: '636'
  ilec_name: DAKOTA CENTRAL TELECOMMUNICATIONS COOP.
  lat: '47.551097'
  long: "-98.804763"
  closest_city:
    name: Grace City
    distance_km: 0.07
- country: US
  region: ND
  exchange: '114530'
  name: GRAFTON
  full_name: Grafton
  lata: '636'
  ilec_name: QWEST CORPORATION
  lat: '48.416623'
  long: "-97.417857"
  closest_city:
    name: Grafton
    distance_km: 0.94
- country: US
  region: ND
  exchange: '114540'
  name: GRANDFORKS
  full_name: Grand Forks
  lata: '636'
  ilec_name: QWEST CORPORATION
  lat: '47.91575'
  long: "-97.037393"
  closest_city:
    name: Grand Forks
    distance_km: 3.85
- country: US
  region: ND
  exchange: '339334'
  name: GRDFRKSAFB
  full_name: Grand Forks Air Force Base
  lata: '636'
  ilec_name: QWEST CORPORATION
  lat:
  long:
- country: US
  region: ND
  exchange: '339330'
  name: GRAND HBR
  full_name: Grand Harbor
  lata: '636'
  ilec_name: NORTH DAKOTA TELEPHONE CO.
  lat:
  long:
- country: US
  region: ND
  exchange: '339331'
  name: GRAND RPDS
  full_name: Grand Rapids
  lata: '636'
  ilec_name: DICKEY RURAL TEL. COOP.
  lat:
  long:
- country: US
  region: ND
  exchange: '339333'
  name: GRANDIN
  full_name: Grandin
  lata: '636'
  ilec_name: QWEST CORPORATION
  lat:
  long:
- country: US
  region: ND
  exchange: '339645'
  name: GRANVILLE
  full_name: Granville
  lata: '638'
  ilec_name: SRT COMMUNICATIONS, INC.
  lat:
  long:
- country: US
  region: ND
  exchange: '114550'
  name: GRASSY BTE
  full_name: Grassy Butte
  lata: '638'
  ilec_name: CONSOLIDATED TELCOM
  lat: '47.400974'
  long: "-103.250246"
  closest_city:
    name: Killdeer
    distance_km: 38.04
- country: US
  region: ND
  exchange: '114560'
  name: GREAT BEND
  full_name: Great Bend
  lata: '636'
  ilec_name: RED RIVER RURAL TEL ASSN DBA RED RIVER COMM - ND
  lat: '46.149832'
  long: "-96.80284"
  closest_city:
    name: Great Bend
    distance_km: 0.55
- country: US
  region: ND
  exchange: '114570'
  name: GRENORA
  full_name: Grenora
  lata: '638'
  ilec_name: NORTHWEST COMMUNICATIONS COOP.
  lat: '48.614877'
  long: "-103.935877"
  closest_city:
    name: Grenora
    distance_km: 0.56
- country: US
  region: ND
  exchange: '114580'
  name: GUELPH
  full_name: Guelph
  lata: '636'
  ilec_name: DICKEY RURAL TEL. COOP.
  lat: '46.014101'
  long: "-98.232375"
  closest_city:
    name: Ludden
    distance_km: 8.29
- country: US
  region: ND
  exchange: '339648'
  name: GUTHRIE
  full_name: Guthrie
  lata: '638'
  ilec_name: NORTH DAKOTA TELEPHONE CO.
  lat:
  long:
- country: US
  region: ND
  exchange: '114590'
  name: GWINNER
  full_name: Gwinner
  lata: '636'
  ilec_name: DICKEY RURAL TEL. COOP.
  lat: '46.227284'
  long: "-97.668021"
  closest_city:
    name: Gwinner
    distance_km: 0.95
- country: US
  region: ND
  exchange: '339649'
  name: HAGUE
  full_name: Hague
  lata: '638'
  ilec_name: BEK COMMUNICATIONS COOPERATIVE
  lat:
  long:
- country: US
  region: ND
  exchange: '114600'
  name: HALLIDAY
  full_name: Halliday
  lata: '638'
  ilec_name: CONSOLIDATED TELCOM
  lat: '47.348784'
  long: "-102.339257"
  closest_city:
    name: Halliday
    distance_km: 0.37
- country: US
  region: ND
  exchange: '339338'
  name: HAMAR
  full_name: Hamar
  lata: '636'
  ilec_name: NORTH DAKOTA TELEPHONE CO.
  lat:
  long:
- country: US
  region: ND
  exchange: '339651'
  name: HAMBERG
  full_name: Hamberg
  lata: '638'
  ilec_name: NORTH DAKOTA TELEPHONE CO.
  lat:
  long:
- country: US
  region: ND
  exchange: '339339'
  name: HAMILTON
  full_name: Hamilton
  lata: '636'
  ilec_name: POLAR COMMUN MUTUAL AID CORP.
  lat:
  long:
- country: US
  region: ND
  exchange: '339652'
  name: HAMLET
  full_name: Hamlet
  lata: '638'
  ilec_name: NORTHWEST COMMUNICATIONS COOP.
  lat:
  long:
- country: US
  region: ND
  exchange: '114610'
  name: HAMPDEN
  full_name: Hampden
  lata: '636'
  ilec_name: NORTH DAKOTA TELEPHONE CO.
  lat: '48.534032'
  long: "-98.648446"
  closest_city:
    name: Hampden
    distance_km: 0.74
- country: US
  region: ND
  exchange: '114620'
  name: HANKINSON
  full_name: Hankinson
  lata: '636'
  ilec_name: RED RIVER RURAL TEL ASSN DBA RED RIVER COMM - ND
  lat: '46.067654'
  long: "-96.900164"
  closest_city:
    name: Hankinson
    distance_km: 0.91
- country: US
  region: ND
  exchange: '339653'
  name: HANKS
  full_name: Hanks
  lata: '638'
  ilec_name: NORTHWEST COMMUNICATIONS COOP.
  lat:
  long:
- country: US
  region: ND
  exchange: '114630'
  name: HANNAFORD
  full_name: Hannaford
  lata: '636'
  ilec_name: INTER-COMMUNITY TELEPHONE COMPANY, LLC
  lat: '47.314945'
  long: "-98.185523"
  closest_city:
    name: Hannaford
    distance_km: 0.27
- country: US
  region: ND
  exchange: '339343'
  name: HANNAH
  full_name: Hannah
  lata: '636'
  ilec_name: UNITED TEL. MUTUAL AID CORP.
  lat:
  long:
- country: US
  region: ND
  exchange: '339654'
  name: HANNOVER
  full_name: Hannover
  lata: '638'
  ilec_name: WEST RIVER TELECOMMUNICATIONS COOP. - ND
  lat:
  long:
- country: US
  region: ND
  exchange: '339344'
  name: HANSBORO
  full_name: Hansboro
  lata: '636'
  ilec_name: UNITED TEL. MUTUAL AID CORP.
  lat:
  long:
- country: US
  region: ND
  exchange: '339655'
  name: HARLOW
  full_name: Harlow
  lata: '638'
  ilec_name: NORTH DAKOTA TELEPHONE CO.
  lat:
  long:
- country: US
  region: ND
  exchange: '339656'
  name: HARTLAND
  full_name: Hartland
  lata: '638'
  ilec_name: SRT COMMUNICATIONS, INC.
  lat:
  long:
- country: US
  region: ND
  exchange: '114640'
  name: HARVEY
  full_name: Harvey
  lata: '638'
  ilec_name: NORTH DAKOTA TELEPHONE CO.
  lat: '47.776448'
  long: "-99.932379"
  closest_city:
    name: Harvey
    distance_km: 0.17
- country: US
  region: ND
  exchange: '114292'
  name: HARWOOD
  full_name: Harwood
  lata: '636'
  ilec_name: QWEST CORPORATION
  lat:
  long:
- country: US
  region: ND
  exchange: '339346'
  name: HASTINGS
  full_name: Hastings
  lata: '636'
  ilec_name: DICKEY RURAL TEL. COOP.
  lat:
  long:
- country: US
  region: ND
  exchange: '114650'
  name: HATTON
  full_name: Hatton
  lata: '636'
  ilec_name: QWEST CORPORATION
  lat: '47.632182'
  long: "-97.460007"
  closest_city:
    name: Hatton
    distance_km: 0.54
- country: US
  region: ND
  exchange: '339348'
  name: HAVANA
  full_name: Havana
  lata: '636'
  ilec_name: DICKEY RURAL TEL. COOP.
  lat:
  long:
- country: US
  region: ND
  exchange: '339658'
  name: HAYNES
  full_name: Haynes
  lata: '638'
  ilec_name: CONSOLIDATED TELCOM
  lat:
  long:
- country: US
  region: ND
  exchange: '114660'
  name: HAZELTON
  full_name: Hazelton
  lata: '638'
  ilec_name: BEK COMMUNICATIONS COOPERATIVE
  lat: '46.481233'
  long: "-100.274544"
  closest_city:
    name: Hazelton
    distance_km: 0.71
- country: US
  region: ND
  exchange: '114670'
  name: HAZEN
  full_name: Hazen
  lata: '638'
  ilec_name: WEST RIVER TELECOMMUNICATIONS COOP. - ND
  lat: '47.301088'
  long: "-101.623707"
  closest_city:
    name: Hazen
    distance_km: 0.29
- country: US
  region: ND
  exchange: '116103'
  name: HEATON
  full_name: Heaton
  lata: '636'
  ilec_name: DAKOTA CENTRAL TELECOMMUNICATIONS COOP.
  lat:
  long:
- country: US
  region: ND
  exchange: '114680'
  name: HEBRON
  full_name: Hebron
  lata: '638'
  ilec_name: WEST RIVER TELECOMMUNICATIONS COOP. - ND
  lat: '46.900482'
  long: "-102.038781"
  closest_city:
    name: Hebron
    distance_km: 0.47
- country: US
  region: ND
  exchange: '339662'
  name: HEIL
  full_name: Heil
  lata: '638'
  ilec_name: WEST RIVER TELECOMMUNICATIONS COOP. - ND
  lat:
  long:
- country: US
  region: ND
  exchange: '339663'
  name: HEIMDAL
  full_name: Heimdal
  lata: '638'
  ilec_name: NORTH DAKOTA TELEPHONE CO.
  lat:
  long:
- country: US
  region: ND
  exchange: '339350'
  name: HENSEL
  full_name: Hensel
  lata: '636'
  ilec_name: POLAR COMMUN MUTUAL AID CORP.
  lat:
  long:
- country: US
  region: ND
  exchange: '339664'
  name: HENSLER
  full_name: Hensler
  lata: '638'
  ilec_name: WEST RIVER TELECOMMUNICATIONS COOP. - ND
  lat:
  long:
- country: US
  region: ND
  exchange: '339665'
  name: HESPER
  full_name: Hesper
  lata: '638'
  ilec_name: NORTH DAKOTA TELEPHONE CO.
  lat:
  long:
- country: US
  region: ND
  exchange: '114690'
  name: HETTINGER
  full_name: Hettinger
  lata: '638'
  ilec_name: CONSOLIDATED TELCOM
  lat: '46.001418'
  long: "-102.632225"
  closest_city:
    name: Hettinger
    distance_km: 0.31
- country: US
  region: ND
  exchange: '114700'
  name: HICKSON
  full_name: Hickson
  lata: '636'
  ilec_name: QWEST CORPORATION
  lat: '46.654411'
  long: "-96.751495"
  closest_city:
    name: Oxbow
    distance_km: 4.75
- country: US
  region: ND
  exchange: '114710'
  name: HILLSBORO
  full_name: Hillsboro
  lata: '636'
  ilec_name: QWEST CORPORATION
  lat: '47.398275'
  long: "-97.058555"
  closest_city:
    name: Hillsboro
    distance_km: 0.64
- country: US
  region: ND
  exchange: '116000'
  name: SQUAW GAP
  full_name: Homesteaders Gap
  lata: '638'
  ilec_name: RESERVATION TEL. COOP.
  lat: '47.483622'
  long: "-103.927164"
  closest_city:
    name: East Fairview
    distance_km: 42.16
- country: US
  region: ND
  exchange: '339353'
  name: HONEYFORD
  full_name: Honeyford
  lata: '636'
  ilec_name: POLAR COMMUN MUTUAL AID CORP.
  lat:
  long:
- country: US
  region: ND
  exchange: '114720'
  name: HOOPLE
  full_name: Hoople
  lata: '636'
  ilec_name: POLAR COMMUN MUTUAL AID CORP.
  lat: '48.530981'
  long: "-97.62402"
  closest_city:
    name: Hoople
    distance_km: 1.22
- country: US
  region: ND
  exchange: '114730'
  name: HOPE
  full_name: Hope
  lata: '636'
  ilec_name: INTER-COMMUNITY TELEPHONE COMPANY, LLC
  lat: '47.318017'
  long: "-97.714135"
  closest_city:
    name: Hope
    distance_km: 0.8
- country: US
  region: ND
  exchange: '114293'
  name: HORACE
  full_name: Horace
  lata: '636'
  ilec_name: QWEST CORPORATION
  lat:
  long:
- country: US
  region: ND
  exchange: '339357'
  name: HOVING
  full_name: Hoving
  lata: '636'
  ilec_name: DICKEY RURAL TEL. COOP.
  lat:
  long:
- country: US
  region: ND
  exchange: '339667'
  name: HUFF
  full_name: Huff
  lata: '638'
  ilec_name: QWEST CORPORATION
  lat:
  long:
- country: US
  region: ND
  exchange: '114740'
  name: HUNTER
  full_name: Hunter
  lata: '636'
  ilec_name: POLAR COMMUN MUTUAL AID CORP.
  lat: '47.192299'
  long: "-97.215373"
  closest_city:
    name: Hunter
    distance_km: 0.27
- country: US
  region: ND
  exchange: '113772'
  name: HURDSFIELD
  full_name: Hurdsfield
  lata: '636'
  ilec_name: DAKOTA CENTRAL TELECOMMUNICATIONS COOP.
  lat:
  long:
- country: US
  region: ND
  exchange: '114750'
  name: INKSTER
  full_name: Inkster
  lata: '636'
  ilec_name: POLAR COMMUN MUTUAL AID CORP.
  lat: '48.148198'
  long: "-97.641932"
  closest_city:
    name: Inkster
    distance_km: 0.38
- country: US
  region: ND
  exchange: '114760'
  name: JAMESTOWN
  full_name: Jamestown
  lata: '636'
  ilec_name: QWEST CORPORATION
  lat: '46.906119'
  long: "-98.70034"
  closest_city:
    name: Jamestown
    distance_km: 0.5
- country: US
  region: ND
  exchange: '339364'
  name: JESSIE
  full_name: Jessie
  lata: '636'
  ilec_name: GRIGGS COUNTY TEL. CO.
  lat:
  long:
- country: US
  region: ND
  exchange: '339365'
  name: JOHNSTOWN
  full_name: Johnstown
  lata: '636'
  ilec_name: POLAR COMMUN MUTUAL AID CORP.
  lat:
  long:
- country: US
  region: ND
  exchange: '339366'
  name: JOLIETTE
  full_name: Joliette
  lata: '636'
  ilec_name: POLAR COMMUN MUTUAL AID CORP.
  lat:
  long:
- country: US
  region: ND
  exchange: '339367'
  name: JUANITA
  full_name: Juanita
  lata: '636'
  ilec_name: GRIGGS COUNTY TEL. CO.
  lat:
  long:
- country: US
  region: ND
  exchange: '114770'
  name: JUD
  full_name: Jud
  lata: '636'
  ilec_name: DICKEY RURAL TEL. COOP.
  lat: '46.516403'
  long: "-98.891584"
  closest_city:
    name: Jud
    distance_km: 1.14
- country: US
  region: ND
  exchange: '339668'
  name: JUDSON
  full_name: Judson
  lata: '638'
  ilec_name: WEST RIVER TELECOMMUNICATIONS COOP. - ND
  lat:
  long:
- country: US
  region: ND
  exchange: '114780'
  name: KARLSRUHE
  full_name: Karlsruhe
  lata: '638'
  ilec_name: SRT COMMUNICATIONS, INC.
  lat: '48.092129'
  long: "-100.62684"
  closest_city:
    name: Karlsruhe
    distance_km: 0.8
- country: US
  region: ND
  exchange: '339369'
  name: KARNAK
  full_name: Karnak
  lata: '636'
  ilec_name: INTER-COMMUNITY TELEPHONE COMPANY, LLC
  lat:
  long:
- country: US
  region: ND
  exchange: '114790'
  name: KATHRYN
  full_name: Kathryn
  lata: '636'
  ilec_name: DICKEY RURAL TEL. COOP.
  lat: '46.674496'
  long: "-97.978776"
  closest_city:
    name: Kathryn
    distance_km: 0.98
- country: US
  region: ND
  exchange: '114800'
  name: KEENE
  full_name: Keene
  lata: '638'
  ilec_name: RESERVATION TEL. COOP.
  lat: '47.92461'
  long: "-102.941467"
  closest_city:
    name: Four Bears Village
    distance_km: 26.8
- country: US
  region: ND
  exchange: '339371'
  name: KELSO
  full_name: Kelso
  lata: '636'
  ilec_name: QWEST CORPORATION
  lat:
  long:
- country: US
  region: ND
  exchange: '339671'
  name: KELVIN
  full_name: Kelvin
  lata: '638'
  ilec_name: SRT COMMUNICATIONS, INC.
  lat:
  long:
- country: US
  region: ND
  exchange: '339372'
  name: KEMPTON
  full_name: Kempton
  lata: '636'
  ilec_name: QWEST CORPORATION
  lat:
  long:
- country: US
  region: ND
  exchange: '339672'
  name: KENASTON
  full_name: Kenaston
  lata: '638'
  ilec_name: RESERVATION TEL. COOP.
  lat:
  long:
- country: US
  region: ND
  exchange: '114810'
  name: KENMARE
  full_name: Kenmare
  lata: '638'
  ilec_name: RESERVATION TEL. COOP.
  lat: '48.667621'
  long: "-102.084068"
  closest_city:
    name: Kenmare
    distance_km: 1.06
- country: US
  region: ND
  exchange: '113931'
  name: KENSAL
  full_name: Kensal
  lata: '636'
  ilec_name: DAKOTA CENTRAL TELECOM I, INC.
  lat:
  long:
- country: US
  region: ND
  exchange: '339674'
  name: KIEF
  full_name: Kief
  lata: '638'
  ilec_name: SRT COMMUNICATIONS, INC.
  lat:
  long:
- country: US
  region: ND
  exchange: '114820'
  name: KILLDEER
  full_name: Killdeer
  lata: '638'
  ilec_name: CONSOLIDATED TELCOM
  lat: '47.367918'
  long: "-102.748599"
  closest_city:
    name: Killdeer
    distance_km: 0.15
- country: US
  region: ND
  exchange: '339676'
  name: KINCAID
  full_name: Kincaid
  lata: '638'
  ilec_name: NORTHWEST COMMUNICATIONS COOP.
  lat:
  long:
- country: US
  region: ND
  exchange: '114830'
  name: KINDRED
  full_name: Kindred
  lata: '636'
  ilec_name: QWEST CORPORATION
  lat: '46.649816'
  long: "-97.019663"
  closest_city:
    name: Kindred
    distance_km: 0.22
- country: US
  region: ND
  exchange: '114840'
  name: KINTYRE
  full_name: Kintyre
  lata: '638'
  ilec_name: BEK COMMUNICATIONS COOPERATIVE
  lat: '46.547435'
  long: "-99.951013"
  closest_city:
    name: Braddock
    distance_km: 10.76
- country: US
  region: ND
  exchange: '339375'
  name: KLOTEN
  full_name: Kloten
  lata: '636'
  ilec_name: NORTH DAKOTA TELEPHONE CO.
  lat:
  long:
- country: US
  region: ND
  exchange: '114850'
  name: KNOX
  full_name: Knox
  lata: '638'
  ilec_name: NORTH DAKOTA TELEPHONE CO.
  lat: '48.340492'
  long: "-99.687363"
  closest_city:
    name: Knox
    distance_km: 0.47
- country: US
  region: ND
  exchange: '339679'
  name: KONGSBERG
  full_name: Kongsberg
  lata: '638'
  ilec_name: SRT COMMUNICATIONS, INC.
  lat:
  long:
- country: US
  region: ND
  exchange: '114860'
  name: KRAMER
  full_name: Kramer
  lata: '638'
  ilec_name: TURTLE MOUNTAIN COMMUN., INC.
  lat: '48.684779'
  long: "-100.710344"
  closest_city:
    name: Kramer
    distance_km: 0.72
- country: US
  region: ND
  exchange: '114870'
  name: KULM
  full_name: Kulm
  lata: '636'
  ilec_name: DICKEY RURAL TEL. COOP.
  lat: '46.302751'
  long: "-98.943316"
  closest_city:
    name: Kulm
    distance_km: 0.28
- country: US
  region: ND
  exchange: '114880'
  name: LAMOURE
  full_name: La Moure
  lata: '636'
  ilec_name: DICKEY RURAL TEL. COOP.
  lat: '46.356946'
  long: "-98.290868"
  closest_city:
    name: LaMoure
    distance_km: 0.44
- country: US
  region: ND
  exchange: '114890'
  name: LADD
  full_name: Ladd
  lata: '638'
  ilec_name: CONSOLIDATED TELCOM
  lat: '46.014816'
  long: "-103.441801"
  closest_city:
    name: Bowman
    distance_km: 19.08
- country: US
  region: ND
  exchange: '339694'
  name: LKWILLIAMS
  full_name: Lake Williams
  lata: '638'
  ilec_name: BEK COMMUNICATIONS COOPERATIVE
  lat:
  long:
- country: US
  region: ND
  exchange: '114900'
  name: LAKOTA
  full_name: Lakota
  lata: '636'
  ilec_name: POLAR COMMUN MUTUAL AID CORP.
  lat: '48.041256'
  long: "-98.348316"
  closest_city:
    name: Lakota
    distance_km: 0.21
- country: US
  region: ND
  exchange: '114910'
  name: LANDA
  full_name: Landa
  lata: '638'
  ilec_name: SRT COMMUNICATIONS, INC.
  lat: '48.88994'
  long: "-100.918294"
  closest_city:
    name: Landa
    distance_km: 0.8
- country: US
  region: ND
  exchange: '114920'
  name: LANGDON
  full_name: Langdon
  lata: '636'
  ilec_name: UNITED TEL. MUTUAL AID CORP.
  lat: '48.766116'
  long: "-98.375672"
  closest_city:
    name: Langdon
    distance_km: 0.42
- country: US
  region: ND
  exchange: '114930'
  name: LANKIN
  full_name: Lankin
  lata: '636'
  ilec_name: POLAR COMMUN MUTUAL AID CORP.
  lat: '48.315831'
  long: "-97.91942"
  closest_city:
    name: Lankin
    distance_km: 0.14
- country: US
  region: ND
  exchange: '114940'
  name: LANSFORD
  full_name: Lansford
  lata: '638'
  ilec_name: SRT COMMUNICATIONS, INC.
  lat: '48.624645'
  long: "-101.377135"
  closest_city:
    name: Lansford
    distance_km: 0.27
- country: US
  region: ND
  exchange: '114950'
  name: LARIMORE
  full_name: Larimore
  lata: '636'
  ilec_name: QWEST CORPORATION
  lat: '47.910553'
  long: "-97.626475"
  closest_city:
    name: Larimore
    distance_km: 0.16
- country: US
  region: ND
  exchange: '339684'
  name: LARK
  full_name: Lark
  lata: '638'
  ilec_name: WEST RIVER TELECOMMUNICATIONS COOP. - ND
  lat:
  long:
- country: US
  region: ND
  exchange: '339685'
  name: LARSON
  full_name: Larson
  lata: '638'
  ilec_name: NORTHWEST COMMUNICATIONS COOP.
  lat:
  long:
- country: US
  region: ND
  exchange: '339383'
  name: LAWTON
  full_name: Lawton
  lata: '636'
  ilec_name: POLAR COMMUN MUTUAL AID CORP.
  lat:
  long:
- country: US
  region: ND
  exchange: '339384'
  name: LEAL
  full_name: Leal
  lata: '636'
  ilec_name: INTER-COMMUNITY TELEPHONE COMPANY, LLC
  lat:
  long:
- country: US
  region: ND
  exchange: '114960'
  name: LEEDS
  full_name: Leeds
  lata: '638'
  ilec_name: NORTH DAKOTA TELEPHONE CO.
  lat: '48.290249'
  long: "-99.44442"
  closest_city:
    name: Leeds
    distance_km: 0.78
- country: US
  region: ND
  exchange: '339687'
  name: LEFOR
  full_name: Lefor
  lata: '638'
  ilec_name: QWEST CORPORATION
  lat:
  long:
- country: US
  region: ND
  exchange: '339688'
  name: LEHIGH
  full_name: Lehigh
  lata: '638'
  ilec_name: QWEST CORPORATION
  lat:
  long:
- country: US
  region: ND
  exchange: '114970'
  name: LEHR
  full_name: Lehr
  lata: '638'
  ilec_name: BEK COMMUNICATIONS COOPERATIVE
  lat: '46.276316'
  long: "-99.352624"
  closest_city:
    name: Lehr
    distance_km: 0.7
- country: US
  region: ND
  exchange: '339690'
  name: LEITH
  full_name: Leith
  lata: '638'
  ilec_name: WEST RIVER TELECOMMUNICATIONS COOP. - ND
  lat:
  long:
- country: US
  region: ND
  exchange: '114980'
  name: LEONARD
  full_name: Leonard
  lata: '636'
  ilec_name: QWEST CORPORATION
  lat: '46.648969'
  long: "-97.249481"
  closest_city:
    name: Leonard
    distance_km: 0.37
- country: US
  region: ND
  exchange: '339386'
  name: LEROY
  full_name: Leroy
  lata: '636'
  ilec_name: UNITED TEL. MUTUAL AID CORP.
  lat:
  long:
- country: US
  region: ND
  exchange: '339387'
  name: LEYDEN
  full_name: Leyden
  lata: '636'
  ilec_name: UNITED TEL. MUTUAL AID CORP.
  lat:
  long:
- country: US
  region: ND
  exchange: '114990'
  name: LIDGERWOOD
  full_name: Lidgerwood
  lata: '636'
  ilec_name: RED RIVER RURAL TEL ASSN DBA RED RIVER COMM - ND
  lat: '46.073899'
  long: "-97.152086"
  closest_city:
    name: Lidgerwood
    distance_km: 0.54
- country: US
  region: ND
  exchange: '115000'
  name: LIGNITE
  full_name: Lignite
  lata: '638'
  ilec_name: NORTHWEST COMMUNICATIONS COOP.
  lat: '48.879941'
  long: "-102.562579"
  closest_city:
    name: Lignite
    distance_km: 0.35
- country: US
  region: ND
  exchange: '339692'
  name: LINCOLN
  full_name: Lincoln
  lata: '638'
  ilec_name: QWEST CORPORATION
  lat:
  long:
- country: US
  region: ND
  exchange: '115010'
  name: LINTON
  full_name: Linton
  lata: '638'
  ilec_name: BEK COMMUNICATIONS COOPERATIVE
  lat: '46.258301'
  long: "-100.227271"
  closest_city:
    name: Linton
    distance_km: 1.24
- country: US
  region: ND
  exchange: '115020'
  name: LISBON
  full_name: Lisbon
  lata: '636'
  ilec_name: DICKEY RURAL TEL. COOP.
  lat: '46.442714'
  long: "-97.674359"
  closest_city:
    name: Lisbon
    distance_km: 0.88
- country: US
  region: ND
  exchange: '115030'
  name: LITCHVILLE
  full_name: Litchville
  lata: '636'
  ilec_name: DICKEY RURAL TEL. COOP.
  lat: '46.650606'
  long: "-98.184839"
  closest_city:
    name: Litchville
    distance_km: 0.85
- country: US
  region: ND
  exchange: '339391'
  name: LOMA
  full_name: Loma
  lata: '636'
  ilec_name: UNITED TEL. MUTUAL AID CORP.
  lat:
  long:
- country: US
  region: ND
  exchange: '339695'
  name: LORAINE
  full_name: Loraine
  lata: '638'
  ilec_name: SRT COMMUNICATIONS, INC.
  lat:
  long:
- country: US
  region: ND
  exchange: '339696'
  name: LOSTWOOD
  full_name: Lostwood
  lata: '638'
  ilec_name: NORTHWEST COMMUNICATIONS COOP.
  lat:
  long:
- country: US
  region: ND
  exchange: '339392'
  name: LUCCA
  full_name: Lucca
  lata: '636'
  ilec_name: INTER-COMMUNITY TELEPHONE COMPANY, LLC
  lat:
  long:
- country: US
  region: ND
  exchange: '339393'
  name: LUDDEN
  full_name: Ludden
  lata: '636'
  ilec_name: DICKEY RURAL TEL. COOP.
  lat:
  long:
- country: US
  region: ND
  exchange: '339697'
  name: LUNDSVALLY
  full_name: Lunds Valley
  lata: '638'
  ilec_name: NORTHWEST COMMUNICATIONS COOP.
  lat:
  long:
- country: US
  region: ND
  exchange: '339394'
  name: LUVERNE
  full_name: Luverne
  lata: '636'
  ilec_name: INTER-COMMUNITY TELEPHONE COMPANY, LLC
  lat:
  long:
- country: US
  region: ND
  exchange: '339395'
  name: LYNCHBURG
  full_name: Lynchburg
  lata: '636'
  ilec_name: QWEST CORPORATION
  lat:
  long:
- country: US
  region: ND
  exchange: '115040'
  name: MADDOCK
  full_name: Maddock
  lata: '638'
  ilec_name: NORTH DAKOTA TELEPHONE CO.
  lat: '47.960051'
  long: "-99.522364"
  closest_city:
    name: Maddock
    distance_km: 0.58
- country: US
  region: ND
  exchange: '339396'
  name: MAIDA
  full_name: Maida
  lata: '636'
  ilec_name: UNITED TEL. MUTUAL AID CORP.
  lat:
  long:
- country: US
  region: ND
  exchange: '115050'
  name: MAKOTI
  full_name: Makoti
  lata: '638'
  ilec_name: RESERVATION TEL. COOP.
  lat: '47.956046'
  long: "-101.800152"
  closest_city:
    name: Makoti
    distance_km: 0.83
- country: US
  region: ND
  exchange: '113741'
  name: MANDAN
  full_name: Mandan
  lata: '638'
  ilec_name: QWEST CORPORATION
  lat: '46.808113'
  long: "-100.785405"
  closest_city:
    name: Bismarck
    distance_km: 1.4
- country: US
  region: ND
  exchange: '115060'
  name: MANDAREE
  full_name: Mandaree
  lata: '638'
  ilec_name: RESERVATION TEL. COOP.
  lat: '47.730392'
  long: "-102.676296"
  closest_city:
    name: Mandaree
    distance_km: 0.6
- country: US
  region: ND
  exchange: '339702'
  name: MANFRED
  full_name: Manfred
  lata: '638'
  ilec_name: NORTH DAKOTA TELEPHONE CO.
  lat:
  long:
- country: US
  region: ND
  exchange: '115070'
  name: MANNING
  full_name: Manning
  lata: '638'
  ilec_name: CONSOLIDATED TELCOM
  lat: '47.226185'
  long: "-102.765866"
  closest_city:
    name: Manning
    distance_km: 0.63
- country: US
  region: ND
  exchange: '339397'
  name: MANTADOR
  full_name: Mantador
  lata: '636'
  ilec_name: RED RIVER RURAL TEL ASSN DBA RED RIVER COMM - ND
  lat:
  long:
- country: US
  region: ND
  exchange: '115080'
  name: MANVEL
  full_name: Manvel
  lata: '636'
  ilec_name: QWEST CORPORATION
  lat: '48.073684'
  long: "-97.178663"
  closest_city:
    name: Manvel
    distance_km: 0.12
- country: US
  region: ND
  exchange: '339399'
  name: MAPES
  full_name: Mapes
  lata: '636'
  ilec_name: POLAR COMMUN MUTUAL AID CORP.
  lat:
  long:
- country: US
  region: ND
  exchange: '339400'
  name: MAPLETON
  full_name: Mapleton
  lata: '636'
  ilec_name: QWEST CORPORATION
  lat:
  long:
- country: US
  region: ND
  exchange: '115090'
  name: MARION
  full_name: Marion
  lata: '636'
  ilec_name: DICKEY RURAL TEL. COOP.
  lat: '46.60716'
  long: "-98.337258"
  closest_city:
    name: Marion
    distance_km: 0.22
- country: US
  region: ND
  exchange: '339704'
  name: MARMARTH
  full_name: Marmarth
  lata: '638'
  ilec_name: CONSOLIDATED TELCOM
  lat:
  long:
- country: US
  region: ND
  exchange: '115100'
  name: MARMON
  full_name: Marmon
  lata: '638'
  ilec_name: NORTHWEST COMMUNICATIONS COOP.
  lat: '48.38852'
  long: "-103.729726"
  closest_city:
    name: Blacktail
    distance_km: 4.97
- country: US
  region: ND
  exchange: '339706'
  name: MARSHALL
  full_name: Marshall
  lata: '638'
  ilec_name: CONSOLIDATED TELCOM
  lat:
  long:
- country: US
  region: ND
  exchange: '115110'
  name: MARTIN
  full_name: Martin
  lata: '638'
  ilec_name: SRT COMMUNICATIONS, INC.
  lat: '47.826307'
  long: "-100.115384"
  closest_city:
    name: Martin
    distance_km: 0.05
- country: US
  region: ND
  exchange: '115120'
  name: MAX
  full_name: Max
  lata: '638'
  ilec_name: RESERVATION TEL. COOP.
  lat: '47.82518'
  long: "-101.297661"
  closest_city:
    name: Max
    distance_km: 0.72
- country: US
  region: ND
  exchange: '115130'
  name: MAXBASS
  full_name: Maxbass
  lata: '638'
  ilec_name: SRT COMMUNICATIONS, INC.
  lat: '48.715027'
  long: "-101.133614"
  closest_city:
    name: Maxbass
    distance_km: 1.06
- country: US
  region: ND
  exchange: '115140'
  name: MAYVILLE
  full_name: Mayville
  lata: '636'
  ilec_name: QWEST CORPORATION
  lat: '47.490853'
  long: "-97.324095"
  closest_city:
    name: Mayville
    distance_km: 0.84
- country: US
  region: ND
  exchange: '339403'
  name: MAZA
  full_name: Maza
  lata: '636'
  ilec_name: NORTH DAKOTA TELEPHONE CO.
  lat:
  long:
- country: US
  region: ND
  exchange: '339404'
  name: MCCANNA
  full_name: McCanna
  lata: '636'
  ilec_name: POLAR COMMUN MUTUAL AID CORP.
  lat:
  long:
- country: US
  region: ND
  exchange: '115150'
  name: MCCLUSKY
  full_name: McClusky
  lata: '638'
  ilec_name: WEST RIVER TELECOMMUNICATIONS COOP. - ND
  lat: '47.483322'
  long: "-100.439065"
  closest_city:
    name: McClusky
    distance_km: 0.28
- country: US
  region: ND
  exchange: '115160'
  name: MCGREGOR
  full_name: McGregor
  lata: '638'
  ilec_name: NORTHWEST COMMUNICATIONS COOP.
  lat: '48.594858'
  long: "-102.925478"
  closest_city:
    name: McGregor
    distance_km: 0.21
- country: US
  region: ND
  exchange: '115170'
  name: MCHENRY
  full_name: McHenry
  lata: '636'
  ilec_name: GRIGGS COUNTY TEL. CO.
  lat: '47.574389'
  long: "-98.589293"
  closest_city:
    name: McHenry
    distance_km: 0.26
- country: US
  region: ND
  exchange: '115180'
  name: MCKENZIE
  full_name: McKenzie
  lata: '638'
  ilec_name: BEK COMMUNICATIONS COOPERATIVE
  lat: '46.821583'
  long: "-100.460034"
  closest_city:
    name: Menoken
    distance_km: 5.69
- country: US
  region: ND
  exchange: '339406'
  name: MCLEOD
  full_name: McLeod
  lata: '636'
  ilec_name: RED RIVER RURAL TEL ASSN DBA RED RIVER COMM - ND
  lat:
  long:
- country: US
  region: ND
  exchange: '115190'
  name: MCVILLE
  full_name: McVille
  lata: '636'
  ilec_name: NORTH DAKOTA TELEPHONE CO.
  lat: '47.768184'
  long: "-98.175301"
  closest_city:
    name: McVille
    distance_km: 0.32
- country: US
  region: ND
  exchange: '115200'
  name: MEDINA
  full_name: Medina
  lata: '636'
  ilec_name: DAKOTA CENTRAL TELECOMMUNICATIONS COOP.
  lat: '46.899614'
  long: "-99.30347"
  closest_city:
    name: Medina
    distance_km: 0.7
- country: US
  region: ND
  exchange: '115210'
  name: MEDORA
  full_name: Medora
  lata: '638'
  ilec_name: MIDSTATE TEL. CO.
  lat: '46.926697'
  long: "-103.516877"
  closest_city:
    name: Medora
    distance_km: 1.71
- country: US
  region: ND
  exchange: '339409'
  name: MEKINOCK
  full_name: Mekinock
  lata: '636'
  ilec_name: QWEST CORPORATION
  lat:
  long:
- country: US
  region: ND
  exchange: '339410'
  name: MELVILLE
  full_name: Melville
  lata: '636'
  ilec_name: DAKOTA CENTRAL TELECOM I, INC.
  lat:
  long:
- country: US
  region: ND
  exchange: '405249'
  name: MENOKEN
  full_name: Menoken
  lata: '638'
  ilec_name: QWEST CORPORATION
  lat:
  long:
- country: US
  region: ND
  exchange: '115181'
  name: MENOKEN
  full_name: Menoken
  lata: '638'
  ilec_name: BEK COMMUNICATIONS COOPERATIVE
  lat:
  long:
- country: US
  region: ND
  exchange: '115220'
  name: MERCER
  full_name: Mercer
  lata: '638'
  ilec_name: WEST RIVER TELECOMMUNICATIONS COOP. - ND
  lat: '47.489637'
  long: "-100.708072"
  closest_city:
    name: Mercer
    distance_km: 0.2
- country: US
  region: ND
  exchange: '115230'
  name: MERRICOURT
  full_name: Merricourt
  lata: '636'
  ilec_name: DICKEY RURAL TEL. COOP.
  lat: '46.207319'
  long: "-98.768895"
  closest_city:
    name: Monango
    distance_km: 13.89
- country: US
  region: ND
  exchange: '115240'
  name: METIGOSHE
  full_name: Metigoshe
  lata: '638'
  ilec_name: SRT COMMUNICATIONS, INC.
  lat: '48.973781'
  long: "-100.336876"
  closest_city:
    name: Bottineau
    distance_km: 18.28
- country: US
  region: ND
  exchange: '115241'
  name: METIGOSHE CELLULAR
  full_name: Metigoshe Cellular
  lata: '638'
  ilec_name: CELLCO PARTNERSHIP DBA VERIZON WIRELESS - ND
  lat: '48.973781'
  long: "-100.336876"
  closest_city:
    name: Bottineau
    distance_km: 18.28
- country: US
  region: ND
  exchange: '115250'
  name: MICHIGAN
  full_name: Michigan
  lata: '636'
  ilec_name: POLAR COMMUN MUTUAL AID CORP.
  lat: '48.022616'
  long: "-98.124998"
  closest_city:
    name: Petersburg
    distance_km: 9.33
- country: US
  region: ND
  exchange: '116511'
  name: MILLARTON
  full_name: Millarton
  lata: '636'
  ilec_name: DAKOTA CENTRAL TELECOMMUNICATIONS COOP.
  lat:
  long:
- country: US
  region: ND
  exchange: '115260'
  name: MILNOR
  full_name: Milnor
  lata: '636'
  ilec_name: DICKEY RURAL TEL. COOP.
  lat: '46.258907'
  long: "-97.458394"
  closest_city:
    name: Milnor
    distance_km: 0.18
- country: US
  region: ND
  exchange: '115270'
  name: MILTON
  full_name: Milton
  lata: '636'
  ilec_name: UNITED TEL. MUTUAL AID CORP.
  lat: '48.625641'
  long: "-98.042252"
  closest_city:
    name: Milton
    distance_km: 0.27
- country: US
  region: ND
  exchange: '115280'
  name: MINNEWAKAN
  full_name: Minnewaukan
  lata: '638'
  ilec_name: NORTH DAKOTA TELEPHONE CO.
  lat: '48.073956'
  long: "-99.24932"
  closest_city:
    name: Minnewaukan
    distance_km: 0.88
- country: US
  region: ND
  exchange: '115290'
  name: MINOT
  full_name: Minot
  lata: '638'
  ilec_name: SRT COMMUNICATIONS, INC.
  lat: '48.234146'
  long: "-101.292518"
  closest_city:
    name: Minot
    distance_km: 1.14
- country: US
  region: ND
  exchange: '115300'
  name: MINOT AFB
  full_name: Minot AFB
  lata: '638'
  ilec_name: SRT COMMUNICATIONS, INC.
  lat: '48.374469'
  long: "-101.308145"
  closest_city:
    name: Ruthville
    distance_km: 0.71
- country: US
  region: ND
  exchange: '115310'
  name: MINTO
  full_name: Minto
  lata: '636'
  ilec_name: QWEST CORPORATION
  lat: '48.286278'
  long: "-97.376805"
  closest_city:
    name: Minto
    distance_km: 0.74
- country: US
  region: ND
  exchange: '339720'
  name: MOFFIT
  full_name: Moffit
  lata: '638'
  ilec_name: BEK COMMUNICATIONS COOPERATIVE
  lat:
  long:
- country: US
  region: ND
  exchange: '115320'
  name: MOHALL
  full_name: Mohall
  lata: '638'
  ilec_name: SRT COMMUNICATIONS, INC.
  lat: '48.766999'
  long: "-101.509071"
  closest_city:
    name: Mohall
    distance_km: 0.58
- country: US
  region: ND
  exchange: '339417'
  name: MONANGO
  full_name: Monango
  lata: '636'
  ilec_name: DICKEY RURAL TEL. COOP.
  lat:
  long:
- country: US
  region: ND
  exchange: '116512'
  name: MONTPELIER
  full_name: Montpelier
  lata: '636'
  ilec_name: DAKOTA CENTRAL TELECOMMUNICATIONS COOP.
  lat:
  long:
- country: US
  region: ND
  exchange: '115330'
  name: MOORETON
  full_name: Mooreton
  lata: '636'
  ilec_name: RED RIVER RURAL TEL ASSN DBA RED RIVER COMM - ND
  lat: '46.265902'
  long: "-96.877928"
  closest_city:
    name: Mooreton
    distance_km: 0.38
- country: US
  region: ND
  exchange: '339420'
  name: MOSE
  full_name: Mose
  lata: '636'
  ilec_name: GRIGGS COUNTY TEL. CO.
  lat:
  long:
- country: US
  region: ND
  exchange: '339421'
  name: MOSELLE
  full_name: Moselle
  lata: '636'
  ilec_name: RED RIVER RURAL TEL ASSN DBA RED RIVER COMM - ND
  lat:
  long:
- country: US
  region: ND
  exchange: '115340'
  name: MOTT
  full_name: Mott
  lata: '638'
  ilec_name: CONSOLIDATED TELCOM
  lat: '46.373157'
  long: "-102.32586"
  closest_city:
    name: Mott
    distance_km: 0.55
- country: US
  region: ND
  exchange: '339423'
  name: MT CARMEL
  full_name: Mount Carmel
  lata: '636'
  ilec_name: UNITED TEL. MUTUAL AID CORP.
  lat:
  long:
- country: US
  region: ND
  exchange: '339422'
  name: MOUNTAIN
  full_name: Mountain
  lata: '636'
  ilec_name: POLAR COMMUN MUTUAL AID CORP.
  lat:
  long:
- country: US
  region: ND
  exchange: '115350'
  name: MUNICH
  full_name: Munich
  lata: '636'
  ilec_name: UNITED TEL. MUTUAL AID CORP.
  lat: '48.657124'
  long: "-98.822116"
  closest_city:
    name: Munich
    distance_km: 2.13
- country: US
  region: ND
  exchange: '339425'
  name: MUNSTER
  full_name: Munster
  lata: '636'
  ilec_name: NORTH DAKOTA TELEPHONE CO.
  lat:
  long:
- country: US
  region: ND
  exchange: '339723'
  name: MYLO
  full_name: Mylo
  lata: '638'
  ilec_name: TURTLE MOUNTAIN COMMUN., INC.
  lat:
  long:
- country: US
  region: ND
  exchange: '339724'
  name: NANSON
  full_name: Nanson
  lata: '638'
  ilec_name: TURTLE MOUNTAIN COMMUN., INC.
  lat:
  long:
- country: US
  region: ND
  exchange: '115360'
  name: NAPOLEON
  full_name: Napoleon
  lata: '638'
  ilec_name: BEK COMMUNICATIONS COOPERATIVE
  lat: '46.510315'
  long: "-99.765537"
  closest_city:
    name: Napoleon
    distance_km: 0.74
- country: US
  region: ND
  exchange: '339426'
  name: NASH
  full_name: Nash
  lata: '636'
  ilec_name: QWEST CORPORATION
  lat:
  long:
- country: US
  region: ND
  exchange: '115370'
  name: NECHE
  full_name: Neche
  lata: '636'
  ilec_name: POLAR COMMUN MUTUAL AID CORP.
  lat: '48.98343'
  long: "-97.549547"
  closest_city:
    name: Neche
    distance_km: 0.16
- country: US
  region: ND
  exchange: '115380'
  name: NEKOMA
  full_name: Nekoma
  lata: '636'
  ilec_name: POLAR COMMUN MUTUAL AID CORP.
  lat: '48.567077'
  long: "-98.371583"
  closest_city:
    name: Nekoma
    distance_km: 1.07
- country: US
  region: ND
  exchange: '115390'
  name: NELVIK
  full_name: Nelvik
  lata: '638'
  ilec_name: DICKEY RURAL TEL. COOP.
  lat: '46.034876'
  long: "-99.164237"
  closest_city:
    name: Ashley
    distance_km: 16.16
- country: US
  region: ND
  exchange: '115400'
  name: NEWENGLAND
  full_name: New England
  lata: '638'
  ilec_name: CONSOLIDATED TELCOM
  lat: '46.540728'
  long: "-102.868417"
  closest_city:
    name: New England
    distance_km: 0.12
- country: US
  region: ND
  exchange: '339727'
  name: NEW HRADEC
  full_name: New Hradec
  lata: '638'
  ilec_name: QWEST CORPORATION
  lat:
  long:
- country: US
  region: ND
  exchange: '339732'
  name: NEWLEIPZIG
  full_name: New Leipzig
  lata: '638'
  ilec_name: WEST RIVER TELECOMMUNICATIONS COOP. - ND
  lat:
  long:
- country: US
  region: ND
  exchange: '115410'
  name: NEW ROCKFD
  full_name: New Rockford
  lata: '636'
  ilec_name: NORTH DAKOTA TELEPHONE CO.
  lat: '47.67501'
  long: "-99.134246"
  closest_city:
    name: New Rockford
    distance_km: 0.59
- country: US
  region: ND
  exchange: '115420'
  name: NEW SALEM
  full_name: New Salem
  lata: '638'
  ilec_name: WEST RIVER TELECOMMUNICATIONS COOP. - ND
  lat: '46.841286'
  long: "-101.411741"
  closest_city:
    name: New Salem
    distance_km: 0.5
- country: US
  region: ND
  exchange: '115430'
  name: NEW TOWN
  full_name: New Town
  lata: '638'
  ilec_name: RESERVATION TEL. COOP.
  lat: '47.982263'
  long: "-102.47689"
  closest_city:
    name: New Town
    distance_km: 1.13
- country: US
  region: ND
  exchange: '115440'
  name: NEWBURG
  full_name: Newburg
  lata: '638'
  ilec_name: SRT COMMUNICATIONS, INC.
  lat: '48.708803'
  long: "-100.917381"
  closest_city:
    name: Newburg
    distance_km: 0.66
- country: US
  region: ND
  exchange: '115450'
  name: NIAGARA
  full_name: Niagara
  lata: '636'
  ilec_name: POLAR COMMUN MUTUAL AID CORP.
  lat: '47.999489'
  long: "-97.867603"
  closest_city:
    name: Niagara
    distance_km: 0.33
- country: US
  region: ND
  exchange: '339733'
  name: NILES
  full_name: Niles
  lata: '638'
  ilec_name: NORTH DAKOTA TELEPHONE CO.
  lat:
  long:
- country: US
  region: ND
  exchange: '339734'
  name: NIOBE
  full_name: Niobe
  lata: '638'
  ilec_name: RESERVATION TEL. COOP.
  lat:
  long:
- country: US
  region: ND
  exchange: '115460'
  name: NOME
  full_name: Nome
  lata: '636'
  ilec_name: INTER-COMMUNITY TELEPHONE COMPANY, LLC
  lat: '46.683255'
  long: "-97.809504"
  closest_city:
    name: Nome
    distance_km: 0.97
- country: US
  region: ND
  exchange: '115470'
  name: NOONAN
  full_name: Noonan
  lata: '638'
  ilec_name: NORTHWEST COMMUNICATIONS COOP.
  lat: '48.886191'
  long: "-103.01869"
  closest_city:
    name: Noonan
    distance_km: 0.75
- country: US
  region: ND
  exchange: '115480'
  name: NORMA
  full_name: Norma
  lata: '638'
  ilec_name: RESERVATION TEL. COOP.
  lat: '48.725968'
  long: "-101.974951"
  closest_city:
    name: Kenmare
    distance_km: 9.25
- country: US
  region: ND
  exchange: '115490'
  name: NO BRITTON
  full_name: North Britton
  lata: '640'
  ilec_name: VENTURE COMMUNICATIONS COOPERATIVE
  lat: '45.943589'
  long: "-97.756492"
  closest_city:
    name: Havana
    distance_km: 10.71
- country: US
  region: ND
  exchange: '115500'
  name: NORTHHECLA
  full_name: North Hecla
  lata: '640'
  ilec_name: JAMES VALLEY COOPERATIVE TELEPHONE COMPANY
  lat: '45.94268'
  long: "-98.151887"
  closest_city:
    name: Ludden
    distance_km: 7.57
- country: US
  region: ND
  exchange: '115510'
  name: NO LEMMON
  full_name: North Lemmon
  lata: '640'
  ilec_name: WEST RIVER COOPERATIVE TELEPHONE COMPANY
  lat: '45.951073'
  long: "-102.164118"
  closest_city:
    name: Haynes
    distance_km: 23.86
- country: US
  region: ND
  exchange: '115520'
  name: NOMCINTOSH
  full_name: North McIntosh
  lata: '640'
  ilec_name: QWEST CORPORATION
  lat: '45.942307'
  long: "-101.349485"
  closest_city:
    name: Selfridge
    distance_km: 34.65
- country: US
  region: ND
  exchange: '115530'
  name: NOMCLAGHLI
  full_name: North McLaughlin
  lata: '640'
  ilec_name: WEST RIVER TELECOMMUNICATIONS COOP. - SD
  lat: '45.943497'
  long: "-100.834051"
  closest_city:
    name: Selfridge
    distance_km: 12.96
- country: US
  region: ND
  exchange: '115540'
  name: NOMORRISTN
  full_name: North Morristown
  lata: '640'
  ilec_name: QWEST CORPORATION
  lat: '45.950183'
  long: "-101.727656"
  closest_city:
    name: Leith
    distance_km: 46.37
- country: US
  region: ND
  exchange: '115550'
  name: NNWEFFNGTN
  full_name: North New Effington
  lata: '640'
  ilec_name: RC TECHNOLOGIES
  lat: '45.939791'
  long: "-96.924229"
  closest_city:
    name: Hankinson
    distance_km: 15.07
- country: US
  region: ND
  exchange: '339432'
  name: NORTHRIVER
  full_name: North River
  lata: '636'
  ilec_name: QWEST CORPORATION
  lat:
  long:
- country: US
  region: ND
  exchange: '115560'
  name: NO VEBLEN
  full_name: North Veblen
  lata: '640'
  ilec_name: RC TECHNOLOGIES
  lat: '45.943327'
  long: "-97.290313"
  closest_city:
    name: Cayuga
    distance_km: 16.46
- country: US
  region: ND
  exchange: '339737'
  name: NORTHGATE
  full_name: Northgate
  lata: '638'
  ilec_name: NORTHWEST COMMUNICATIONS COOP.
  lat:
  long:
- country: US
  region: ND
  exchange: '115570'
  name: NORTHWOOD
  full_name: Northwood
  lata: '636'
  ilec_name: QWEST CORPORATION
  lat: '47.733096'
  long: "-97.576238"
  closest_city:
    name: Northwood
    distance_km: 0.72
- country: US
  region: ND
  exchange: '339434'
  name: NORTONVL
  full_name: Nortonville
  lata: '636'
  ilec_name: DICKEY RURAL TEL. COOP.
  lat:
  long:
- country: US
  region: ND
  exchange: '339738'
  name: NORWICH
  full_name: Norwich
  lata: '638'
  ilec_name: SRT COMMUNICATIONS, INC.
  lat:
  long:
- country: US
  region: ND
  exchange: '115580'
  name: OAKES
  full_name: Oakes
  lata: '636'
  ilec_name: DICKEY RURAL TEL. COOP.
  lat: '46.139744'
  long: "-98.092374"
  closest_city:
    name: Oakes
    distance_km: 0.41
- country: US
  region: ND
  exchange: '339436'
  name: OAKWOOD
  full_name: Oakwood
  lata: '636'
  ilec_name: QWEST CORPORATION
  lat:
  long:
- country: US
  region: ND
  exchange: '115590'
  name: OBERON
  full_name: Oberon
  lata: '636'
  ilec_name: NORTH DAKOTA TELEPHONE CO.
  lat: '47.923701'
  long: "-99.200876"
  closest_city:
    name: Oberon
    distance_km: 0.38
- country: US
  region: ND
  exchange: '339438'
  name: OLMSTEAD
  full_name: Olmstead
  lata: '636'
  ilec_name: UNITED TEL. MUTUAL AID CORP.
  lat:
  long:
- country: US
  region: ND
  exchange: '339739'
  name: OMEMEE
  full_name: Omemee
  lata: '638'
  ilec_name: TURTLE MOUNTAIN COMMUN., INC.
  lat:
  long:
- country: US
  region: ND
  exchange: '339439'
  name: ORISKA
  full_name: Oriska
  lata: '636'
  ilec_name: QWEST CORPORATION
  lat:
  long:
- country: US
  region: ND
  exchange: '339440'
  name: ORR
  full_name: Orr
  lata: '636'
  ilec_name: POLAR COMMUN MUTUAL AID CORP.
  lat:
  long:
- country: US
  region: ND
  exchange: '339740'
  name: ORRIN
  full_name: Orrin
  lata: '638'
  ilec_name: NORTH DAKOTA TELEPHONE CO.
  lat:
  long:
- country: US
  region: ND
  exchange: '339441'
  name: OSNABROCK
  full_name: Osnabrock
  lata: '636'
  ilec_name: UNITED TEL. MUTUAL AID CORP.
  lat:
  long:
- country: US
  region: ND
  exchange: '339741'
  name: OVERLY
  full_name: Overly
  lata: '638'
  ilec_name: TURTLE MOUNTAIN COMMUN., INC.
  lat:
  long:
- country: US
  region: ND
  exchange: '339442'
  name: OXBOW
  full_name: Oxbow
  lata: '636'
  ilec_name: QWEST CORPORATION
  lat:
  long:
- country: US
  region: ND
  exchange: '115600'
  name: PAGE
  full_name: Page
  lata: '636'
  ilec_name: INTER-COMMUNITY TELEPHONE COMPANY, LLC
  lat: '47.158974'
  long: "-97.567037"
  closest_city:
    name: Page
    distance_km: 0.08
- country: US
  region: ND
  exchange: '339742'
  name: PAINTECNYN
  full_name: Painted Canyon
  lata: '638'
  ilec_name: QWEST CORPORATION
  lat:
  long:
- country: US
  region: ND
  exchange: '339743'
  name: PALERMO
  full_name: Palermo
  lata: '638'
  ilec_name: MIDSTATE TEL. CO.
  lat:
  long:
- country: US
  region: ND
  exchange: '115610'
  name: PARK RIVER
  full_name: Park River
  lata: '636'
  ilec_name: POLAR COMMUN MUTUAL AID CORP.
  lat: '48.393179'
  long: "-97.741768"
  closest_city:
    name: Park River
    distance_km: 0.25
- country: US
  region: ND
  exchange: '115620'
  name: PARSHALL
  full_name: Parshall
  lata: '638'
  ilec_name: RESERVATION TEL. COOP.
  lat: '47.949169'
  long: "-102.13407"
  closest_city:
    name: Parshall
    distance_km: 1.15
- country: US
  region: ND
  exchange: '115630'
  name: PEKIN
  full_name: Pekin
  lata: '636'
  ilec_name: NORTH DAKOTA TELEPHONE CO.
  lat: '47.802055'
  long: "-98.323464"
  closest_city:
    name: Pekin
    distance_km: 1.17
- country: US
  region: ND
  exchange: '339446'
  name: PELTO
  full_name: Pelto
  lata: '636'
  ilec_name: POLAR COMMUN MUTUAL AID CORP.
  lat:
  long:
- country: US
  region: ND
  exchange: '115640'
  name: PEMBINA
  full_name: Pembina
  lata: '636'
  ilec_name: POLAR COMMUN MUTUAL AID CORP.
  lat: '48.966039'
  long: "-97.238728"
  closest_city:
    name: Pembina
    distance_km: 0.65
- country: US
  region: ND
  exchange: '115650'
  name: PENN
  full_name: Penn
  lata: '636'
  ilec_name: NORTH DAKOTA TELEPHONE CO.
  lat: '48.214808'
  long: "-99.084073"
  closest_city:
    name: Churchs Ferry
    distance_km: 10.13
- country: US
  region: ND
  exchange: '339745'
  name: PERTH
  full_name: Perth
  lata: '638'
  ilec_name: TURTLE MOUNTAIN COMMUN., INC.
  lat:
  long:
- country: US
  region: ND
  exchange: '115660'
  name: PETERSBURG
  full_name: Petersburg
  lata: '636'
  ilec_name: POLAR COMMUN MUTUAL AID CORP.
  lat: '48.007166'
  long: "-98.009518"
  closest_city:
    name: Petersburg
    distance_km: 0.95
- country: US
  region: ND
  exchange: '115670'
  name: PETTIBONE
  full_name: Pettibone
  lata: '638'
  ilec_name: BEK COMMUNICATIONS COOPERATIVE
  lat: '47.119544'
  long: "-99.528293"
  closest_city:
    name: Pettibone
    distance_km: 0.63
- country: US
  region: ND
  exchange: '115680'
  name: PICK CITY
  full_name: Pick City
  lata: '638'
  ilec_name: WEST RIVER TELECOMMUNICATIONS COOP. - ND
  lat: '47.510617'
  long: "-101.455539"
  closest_city:
    name: Pick City
    distance_km: 0.15
- country: US
  region: ND
  exchange: '339450'
  name: PICKERT
  full_name: Pickert
  lata: '636'
  ilec_name: GRIGGS COUNTY TEL. CO.
  lat:
  long:
- country: US
  region: ND
  exchange: '339451'
  name: PILLSBURY
  full_name: Pillsbury
  lata: '636'
  ilec_name: INTER-COMMUNITY TELEPHONE COMPANY, LLC
  lat:
  long:
- country: US
  region: ND
  exchange: '339453'
  name: PINGREE
  full_name: Pingree
  lata: '636'
  ilec_name: DAKTEL COMMUNICATIONS, LLC - ND
  lat:
  long:
- country: US
  region: ND
  exchange: '339452'
  name: PINGREE
  full_name: Pingree
  lata: '636'
  ilec_name: QWEST CORPORATION
  lat:
  long:
- country: US
  region: ND
  exchange: '339454'
  name: PISEK
  full_name: Pisek
  lata: '636'
  ilec_name: POLAR COMMUN MUTUAL AID CORP.
  lat:
  long:
- country: US
  region: ND
  exchange: '115690'
  name: PLAZA
  full_name: Plaza
  lata: '638'
  ilec_name: RESERVATION TEL. COOP.
  lat: '48.016234'
  long: "-101.957404"
  closest_city:
    name: Plaza
    distance_km: 1.1
- country: US
  region: ND
  exchange: '339749'
  name: PLEASANTLK
  full_name: Pleasant Lake
  lata: '638'
  ilec_name: NORTH DAKOTA TELEPHONE CO.
  lat:
  long:
- country: US
  region: ND
  exchange: '115700'
  name: PORTAL
  full_name: Portal
  lata: '638'
  ilec_name: MIDSTATE TEL. CO.
  lat: '48.998249'
  long: "-102.548656"
  closest_city:
    name: Portal
    distance_km: 0.4
- country: US
  region: ND
  exchange: '339455'
  name: PORTLAND
  full_name: Portland
  lata: '636'
  ilec_name: QWEST CORPORATION
  lat:
  long:
- country: US
  region: ND
  exchange: '115710'
  name: POWERSLAKE
  full_name: Powers Lake
  lata: '638'
  ilec_name: NORTHWEST COMMUNICATIONS COOP.
  lat: '48.56423'
  long: "-102.650337"
  closest_city:
    name: Powers Lake
    distance_km: 0.34
- country: US
  region: ND
  exchange: '339456'
  name: PRAIRIROSE
  full_name: Prairie Rose
  lata: '636'
  ilec_name: QWEST CORPORATION
  lat:
  long:
- country: US
  region: ND
  exchange: '339457'
  name: PROSPER
  full_name: Prosper
  lata: '636'
  ilec_name: QWEST CORPORATION
  lat:
  long:
- country: US
  region: ND
  exchange: '339752'
  name: RALEIGH
  full_name: Raleigh
  lata: '638'
  ilec_name: WEST RIVER TELECOMMUNICATIONS COOP. - ND
  lat:
  long:
- country: US
  region: ND
  exchange: '339458'
  name: RAMSEY
  full_name: Ramsey
  lata: '636'
  ilec_name: NORTH DAKOTA TELEPHONE CO.
  lat:
  long:
- country: US
  region: ND
  exchange: '339753'
  name: RAUB
  full_name: Raub
  lata: '638'
  ilec_name: RESERVATION TEL. COOP.
  lat:
  long:
- country: US
  region: ND
  exchange: '339754'
  name: RAWSON
  full_name: Rawson
  lata: '638'
  ilec_name: RESERVATION TEL. COOP.
  lat:
  long:
- country: US
  region: ND
  exchange: '115720'
  name: RAY
  full_name: Ray
  lata: '638'
  ilec_name: NORTHWEST COMMUNICATIONS COOP.
  lat: '48.343345'
  long: "-103.174778"
  closest_city:
    name: Ray
    distance_km: 0.85
- country: US
  region: ND
  exchange: '115730'
  name: REEDER
  full_name: Reeder
  lata: '638'
  ilec_name: CONSOLIDATED TELCOM
  lat: '46.109493'
  long: "-102.935439"
  closest_city:
    name: Reeder
    distance_km: 0.66
- country: US
  region: ND
  exchange: '115740'
  name: REGAN
  full_name: Regan
  lata: '638'
  ilec_name: BEK COMMUNICATIONS COOPERATIVE
  lat: '47.157183'
  long: "-100.52907"
  closest_city:
    name: Regan
    distance_km: 0.14
- country: US
  region: ND
  exchange: '115750'
  name: REGENT
  full_name: Regent
  lata: '638'
  ilec_name: CONSOLIDATED TELCOM
  lat: '46.42526'
  long: "-102.552428"
  closest_city:
    name: Regent
    distance_km: 0.55
- country: US
  region: ND
  exchange: '339459'
  name: REILESACRE
  full_name: Reiles Acres
  lata: '636'
  ilec_name: QWEST CORPORATION
  lat:
  long:
- country: US
  region: ND
  exchange: '339460'
  name: REVERE
  full_name: Revere
  lata: '636'
  ilec_name: INTER-COMMUNITY TELEPHONE COMPANY, LLC
  lat:
  long:
- country: US
  region: ND
  exchange: '115760'
  name: REYNOLDS
  full_name: Reynolds
  lata: '636'
  ilec_name: QWEST CORPORATION
  lat: '47.667772'
  long: "-97.096426"
  closest_city:
    name: Reynolds
    distance_km: 0.72
- country: US
  region: ND
  exchange: '115770'
  name: RHAME
  full_name: Rhame
  lata: '638'
  ilec_name: CONSOLIDATED TELCOM
  lat: '46.233125'
  long: "-103.641217"
  closest_city:
    name: Rhame
    distance_km: 1.07
- country: US
  region: ND
  exchange: '115780'
  name: RICHARDTON
  full_name: Richardton
  lata: '638'
  ilec_name: CONSOLIDATED TELCOM
  lat: '46.881462'
  long: "-102.315557"
  closest_city:
    name: Richardton
    distance_km: 1.37
- country: US
  region: ND
  exchange: '339761'
  name: RIVERDALE
  full_name: Riverdale
  lata: '638'
  ilec_name: WEST RIVER TELECOMMUNICATIONS COOP. - ND
  lat:
  long:
- country: US
  region: ND
  exchange: '339462'
  name: RIVERSIDE
  full_name: Riverside
  lata: '636'
  ilec_name: QWEST CORPORATION
  lat:
  long:
- country: US
  region: ND
  exchange: '115790'
  name: ROBINSON
  full_name: Robinson
  lata: '638'
  ilec_name: BEK COMMUNICATIONS COOPERATIVE
  lat: '47.14363'
  long: "-99.779916"
  closest_city:
    name: Robinson
    distance_km: 0.22
- country: US
  region: ND
  exchange: '115800'
  name: ROCK LAKE
  full_name: Rock Lake
  lata: '636'
  ilec_name: UNITED TEL. MUTUAL AID CORP.
  lat: '48.791587'
  long: "-99.241203"
  closest_city:
    name: Perth
    distance_km: 18.05
- country: US
  region: ND
  exchange: '339464'
  name: ROGERS
  full_name: Rogers
  lata: '636'
  ilec_name: INTER-COMMUNITY TELEPHONE COMPANY, LLC
  lat:
  long:
- country: US
  region: ND
  exchange: '339465'
  name: ROHRVILLE
  full_name: Rohrville
  lata: '636'
  ilec_name: NORTH DAKOTA TELEPHONE CO.
  lat:
  long:
- country: US
  region: ND
  exchange: '115810'
  name: ROLETTE
  full_name: Rolette
  lata: '638'
  ilec_name: TURTLE MOUNTAIN COMMUN., INC.
  lat: '48.6591'
  long: "-99.844134"
  closest_city:
    name: Rolette
    distance_km: 0.27
- country: US
  region: ND
  exchange: '115820'
  name: ROLLA
  full_name: Rolla
  lata: '638'
  ilec_name: TURTLE MOUNTAIN COMMUN., INC.
  lat: '48.859449'
  long: "-99.617003"
  closest_city:
    name: Rolla
    distance_km: 0.72
- country: US
  region: ND
  exchange: '115830'
  name: ROSEGLEN
  full_name: Roseglen
  lata: '638'
  ilec_name: RESERVATION TEL. COOP.
  lat: '47.758959'
  long: "-101.833021"
  closest_city:
    name: White Shield
    distance_km: 11.02
- country: US
  region: ND
  exchange: '115840'
  name: ROSS
  full_name: Ross
  lata: '638'
  ilec_name: RESERVATION TEL. COOP.
  lat: '48.316449'
  long: "-102.538633"
  closest_city:
    name: Ross
    distance_km: 0.54
- country: US
  region: ND
  exchange: '339767'
  name: ROTH
  full_name: Roth
  lata: '638'
  ilec_name: TURTLE MOUNTAIN COMMUN., INC.
  lat:
  long:
- country: US
  region: ND
  exchange: '115850'
  name: ROUNDPRARI
  full_name: Round Prairie
  lata: '638'
  ilec_name: NORTHWEST COMMUNICATIONS COOP.
  lat: '48.199221'
  long: "-103.909635"
  closest_city:
    name: Trenton
    distance_km: 15.2
- country: US
  region: ND
  exchange: '115860'
  name: RUGBY
  full_name: Rugby
  lata: '638'
  ilec_name: NORTH DAKOTA TELEPHONE CO.
  lat: '48.368078'
  long: "-100.001095"
  closest_city:
    name: Rugby
    distance_km: 0.85
- country: US
  region: ND
  exchange: '339770'
  name: RUSO
  full_name: Ruso
  lata: '638'
  ilec_name: SRT COMMUNICATIONS, INC.
  lat:
  long:
- country: US
  region: ND
  exchange: '339771'
  name: RUSSELL
  full_name: Russell
  lata: '638'
  ilec_name: SRT COMMUNICATIONS, INC.
  lat:
  long:
- country: US
  region: ND
  exchange: '339466'
  name: RUTLAND
  full_name: Rutland
  lata: '636'
  ilec_name: DICKEY RURAL TEL. COOP.
  lat:
  long:
- country: US
  region: ND
  exchange: '115870'
  name: RYDER
  full_name: Ryder
  lata: '638'
  ilec_name: RESERVATION TEL. COOP.
  lat: '47.917684'
  long: "-101.67541"
  closest_city:
    name: Ryder
    distance_km: 0.59
- country: US
  region: ND
  exchange: '339479'
  name: ST JOE
  full_name: Saint Joe
  lata: '636'
  ilec_name: NORTH DAKOTA TELEPHONE CO.
  lat:
  long:
- country: US
  region: ND
  exchange: '339793'
  name: ST JOHN
  full_name: Saint John
  lata: '638'
  ilec_name: TURTLE MOUNTAIN COMMUN., INC.
  lat:
  long:
- country: US
  region: ND
  exchange: '339773'
  name: SAN HAVEN
  full_name: San Haven
  lata: '638'
  ilec_name: TURTLE MOUNTAIN COMMUN., INC.
  lat:
  long:
- country: US
  region: ND
  exchange: '115880'
  name: SANBORN
  full_name: Sanborn
  lata: '636'
  ilec_name: INTER-COMMUNITY TELEPHONE COMPANY, LLC
  lat: '46.942987'
  long: "-98.221791"
